{"release_limits": [{"begin_at": 0, "area_id": 1184901, "name": "Tommy's Field", "level": 1, "country": 710, "updated_at": 1455674299, "disable": 0, "end_at": 0, "shape": 0, "warning": 0, "radius": 2414, "lat": -28.266667, "lng": 23.0, "type": 13, "city": "Postmasburg", "points": ""}, {"begin_at": 0, "area_id": 1184913, "name": "Ghanzi", "level": 1, "country": 72, "updated_at": 1455674299, "disable": 0, "end_at": 0, "shape": 0, "warning": 0, "radius": 2414, "lat": -21.696917, "lng": 21.653278, "type": 13, "city": "Ghanzi", "points": ""}, {"begin_at": 0, "area_id": 1184915, "name": "Selibe-Phikwe", "level": 1, "country": 72, "updated_at": 1455674299, "disable": 0, "end_at": 0, "shape": 0, "warning": 0, "radius": 2414, "lat": -22.0566, "lng": 27.820458, "type": 13, "city": "Selebi-Phikwe", "points": ""}, {"begin_at": 0, "area_id": 1184941, "name": "Morondava", "level": 1, "country": 450, "updated_at": 1455674299, "disable": 0, "end_at": 0, "shape": 0, "warning": 0, "radius": 2414, "lat": -20.284722, "lng": 44.317778, "type": 13, "city": "Morondava", "points": ""}, {"begin_at": 0, "area_id": 1184957, "name": "Ambalabe", "level": 1, "country": 450, "updated_at": 1455674299, "disable": 0, "end_at": 0, "shape": 0, "warning": 0, "radius": 2414, "lat": -14.903172, "lng": 47.993692, "type": 13, "city": "Antsohihy", "points": ""}, {"begin_at": 0, "area_id": 1184965, "name": "Morombe", "level": 1, "country": 450, "updated_at": 1455674299, "disable": 0, "end_at": 0, "shape": 0, "warning": 0, "radius": 2414, "lat": -21.751292, "lng": 43.376308, "type": 13, "city": "Morombe", "points": ""}, {"begin_at": 0, "area_id": 1184969, "name": "Lobito", "level": 1, "country": 24, "updated_at": 1455674299, "disable": 0, "end_at": 0, "shape": 0, "warning": 0, "radius": 2414, "lat": -12.371161, "lng": 13.536742, "type": 13, "city": "Lobito", "points": ""}, {"begin_at": 0, "area_id": 1184979, "name": "Saurimo", "level": 1, "country": 24, "updated_at": 1455674299, "disable": 0, "end_at": 0, "shape": 0, "warning": 0, "radius": 2414, "lat": -9.688983, "lng": 20.430783, "type": 13, "city": "Saurimo", "points": ""}, {"begin_at": 0, "area_id": 1184987, "name": "Mouila Ville", "level": 1, "country": 266, "updated_at": 1455674299, "disable": 0, "end_at": 0, "shape": 0, "warning": 0, "radius": 2414, "lat": -1.85, "lng": 11.066667, "type": 13, "city": "Mouila", "points": ""}, {"begin_at": 0, "area_id": 1185053, "name": "Tombouctou", "level": 1, "country": 466, "updated_at": 1455674299, "disable": 0, "end_at": 0, "shape": 0, "warning": 0, "radius": 2414, "lat": 16.733978, "lng": -2.998494, "type": 13, "city": "Timbuktu", "points": ""}, {"begin_at": 0, "area_id": 1185129, "name": "Mafia", "level": 1, "country": 834, "updated_at": 1455674299, "disable": 0, "end_at": 0, "shape": 0, "warning": 0, "radius": 2414, "lat": -7.917278, "lng": 39.668389, "type": 13, "city": "Kilindoni", "points": ""}, {"begin_at": 0, "area_id": 1185167, "name": "Amos/Magny", "level": 1, "country": 124, "updated_at": 1455674299, "disable": 0, "end_at": 0, "shape": 0, "warning": 0, "radius": 2414, "lat": 48.564889, "lng": -78.249058, "type": 13, "city": "Amos", "points": ""}, {"begin_at": 0, "area_id": 1185169, "name": "Flin Flon", "level": 1, "country": 124, "updated_at": 1455674299, "disable": 0, "end_at": 0, "shape": 0, "warning": 0, "radius": 2414, "lat": 54.678064, "lng": -101.681881, "type": 13, "city": "Flin Flon", "points": ""}, {"begin_at": 0, "area_id": 1185187, "name": "St-Augustin", "level": 1, "country": 124, "updated_at": 1455674299, "disable": 0, "end_at": 0, "shape": 0, "warning": 0, "radius": 2414, "lat": 51.209914, "lng": -58.658353, "type": 13, "city": "Saint-Augustin", "points": ""}, {"begin_at": 0, "area_id": 1185195, "name": "Lac La Biche", "level": 1, "country": 124, "updated_at": 1455674299, "disable": 0, "end_at": 0, "shape": 0, "warning": 0, "radius": 2414, "lat": 54.770414, "lng": -112.031778, "type": 13, "city": "Lac La Biche", "points": ""}, {"begin_at": 0, "area_id": 1185197, "name": "Meadow Lake", "level": 1, "country": 124, "updated_at": 1455674299, "disable": 0, "end_at": 0, "shape": 0, "warning": 0, "radius": 2414, "lat": 54.125392, "lng": -108.522897, "type": 13, "city": "Meadow Lake", "points": ""}, {"begin_at": 0, "area_id": 1185235, "name": "Yorkton Muni", "level": 1, "country": 124, "updated_at": 1455674299, "disable": 0, "end_at": 0, "shape": 0, "warning": 0, "radius": 2414, "lat": 51.264806, "lng": -102.461322, "type": 13, "city": "Yorkton", "points": ""}, {"begin_at": 0, "area_id": 1185279, "name": "Masset", "level": 1, "country": 124, "updated_at": 1455674299, "disable": 0, "end_at": 0, "shape": 0, "warning": 0, "radius": 2414, "lat": 54.027108, "lng": -132.125081, "type": 13, "city": "Masset", "points": ""}, {"begin_at": 0, "area_id": 1185331, "name": "Jehonville", "level": 1, "country": 56, "updated_at": 1455674299, "disable": 0, "end_at": 0, "shape": 0, "warning": 0, "radius": 2414, "lat": 49.891667, "lng": 5.223889, "type": 13, "city": "Bertrix", "points": ""}, {"begin_at": 0, "area_id": 1185339, "name": "Oostmalle", "level": 1, "country": 56, "updated_at": 1455674299, "disable": 0, "end_at": 0, "shape": 0, "warning": 0, "radius": 2414, "lat": 51.264722, "lng": 4.753333, "type": 13, "city": "Zoersel", "points": ""}, {"begin_at": 0, "area_id": 1185341, "name": "Leipzig-Altenburg", "level": 1, "country": 276, "updated_at": 1455674299, "disable": 0, "end_at": 0, "shape": 0, "warning": 0, "radius": 2414, "lat": 50.981817, "lng": 12.506361, "type": 13, "city": "Nobitz", "points": ""}, {"begin_at": 0, "area_id": 1185349, "name": "Speyer", "level": 1, "country": 276, "updated_at": 1455674299, "disable": 0, "end_at": 0, "shape": 0, "warning": 0, "radius": 2414, "lat": 49.302167, "lng": 8.451667, "type": 13, "city": "Speyer", "points": ""}, {"begin_at": 0, "area_id": 1185373, "name": "Seinajoki", "level": 1, "country": 246, "updated_at": 1455674299, "disable": 0, "end_at": 0, "shape": 0, "warning": 0, "radius": 2414, "lat": 62.693611, "lng": 22.831944, "type": 13, "city": "", "points": ""}, {"begin_at": 0, "area_id": 1185381, "name": "Predannack", "level": 1, "country": 826, "updated_at": 1455674299, "disable": 0, "end_at": 0, "shape": 0, "warning": 0, "radius": 2414, "lat": 50.002033, "lng": -5.231769, "type": 13, "city": "Mullion", "points": ""}, {"begin_at": 0, "area_id": 1185461, "name": "Moholm", "level": 1, "country": 752, "updated_at": 1455674299, "disable": 0, "end_at": 0, "shape": 0, "warning": 0, "radius": 2414, "lat": 58.5975, "lng": 14.110833, "type": 13, "city": "Moholm", "points": ""}, {"begin_at": 0, "area_id": 1185469, "name": "Hagshult", "level": 1, "country": 752, "updated_at": 1455674299, "disable": 0, "end_at": 0, "shape": 0, "warning": 0, "radius": 2414, "lat": 57.292222, "lng": 14.137222, "type": 13, "city": "V\u00e4rnamo", "points": ""}, {"begin_at": 0, "area_id": 1185545, "name": "Montbeugny", "level": 1, "country": 250, "updated_at": 1455674299, "disable": 0, "end_at": 0, "shape": 0, "warning": 0, "radius": 2414, "lat": 46.534383, "lng": 3.421606, "type": 13, "city": "Toulon-sur-Allier", "points": ""}, {"begin_at": 0, "area_id": 1185557, "name": "Cevennes", "level": 1, "country": 250, "updated_at": 1455674299, "disable": 0, "end_at": 0, "shape": 0, "warning": 0, "radius": 2414, "lat": 44.072733, "lng": 4.142919, "type": 13, "city": "Saint-Hilaire-de-Brethmas", "points": ""}, {"begin_at": 0, "area_id": 1185611, "name": "Padova", "level": 1, "country": 380, "updated_at": 1455674299, "disable": 0, "end_at": 0, "shape": 0, "warning": 0, "radius": 2414, "lat": 45.396111, "lng": 11.848056, "type": 13, "city": "Caselle", "points": ""}, {"begin_at": 0, "area_id": 1185675, "name": "Piedras Negras Intl", "level": 1, "country": 484, "updated_at": 1455674299, "disable": 0, "end_at": 0, "shape": 0, "warning": 0, "radius": 2414, "lat": 28.627369, "lng": -100.534406, "type": 13, "city": "Colonia Venustiano Carranza", "points": ""}, {"begin_at": 0, "area_id": 1185717, "name": "Matthew Town", "level": 1, "country": 44, "updated_at": 1455674299, "disable": 0, "end_at": 0, "shape": 0, "warning": 0, "radius": 2414, "lat": 20.975, "lng": -73.666853, "type": 13, "city": "Matthew Town", "points": ""}, {"begin_at": 0, "area_id": 1185755, "name": "Jorge Isaac", "level": 1, "country": 170, "updated_at": 1455674299, "disable": 0, "end_at": 0, "shape": 0, "warning": 0, "radius": 2414, "lat": 11.232583, "lng": -72.489264, "type": 13, "city": "Albania", "points": ""}, {"begin_at": 0, "area_id": 1185773, "name": "Contador", "level": 1, "country": 170, "updated_at": 1455674299, "disable": 0, "end_at": 0, "shape": 0, "warning": 0, "radius": 2414, "lat": 1.8573, "lng": -76.085631, "type": 13, "city": "Pitalito", "points": ""}, {"begin_at": 0, "area_id": 1185807, "name": "Calabozo", "level": 1, "country": 862, "updated_at": 1455674299, "disable": 0, "end_at": 0, "shape": 0, "warning": 0, "radius": 2414, "lat": 8.924722, "lng": -67.416944, "type": 13, "city": "Calabozo", "points": ""}, {"begin_at": 0, "area_id": 1185811, "name": "Gen J F Bemudez", "level": 1, "country": 862, "updated_at": 1455674299, "disable": 0, "end_at": 0, "shape": 0, "warning": 0, "radius": 2414, "lat": 10.66, "lng": -63.261389, "type": 13, "city": "Car\u00fapano", "points": ""}, {"begin_at": 0, "area_id": 1185813, "name": "Gen.F.Miranda AB", "level": 1, "country": 862, "updated_at": 1455674299, "disable": 0, "end_at": 0, "shape": 0, "warning": 0, "radius": 2414, "lat": 10.485, "lng": -66.843611, "type": 13, "city": "Chacao", "points": ""}, {"begin_at": 0, "area_id": 1185833, "name": "Marie-Galante", "level": 1, "country": 312, "updated_at": 1455674299, "disable": 0, "end_at": 0, "shape": 0, "warning": 0, "radius": 2414, "lat": 15.868611, "lng": -61.272222, "type": 13, "city": "Grand-Bourg", "points": ""}, {"begin_at": 0, "area_id": 1185927, "name": "Dayrestan", "level": 1, "country": 364, "updated_at": 1455674299, "disable": 0, "end_at": 0, "shape": 0, "warning": 0, "radius": 2414, "lat": 26.751944, "lng": 55.897222, "type": 13, "city": "", "points": ""}, {"begin_at": 0, "area_id": 1185933, "name": "Bojnord", "level": 1, "country": 364, "updated_at": 1455674299, "disable": 0, "end_at": 0, "shape": 0, "warning": 0, "radius": 2414, "lat": 37.489167, "lng": 57.306389, "type": 13, "city": "Bojn\u016brd", "points": ""}, {"begin_at": 0, "area_id": 1186045, "name": "Tejgaon", "level": 1, "country": 50, "updated_at": 1455674299, "disable": 0, "end_at": 0, "shape": 0, "warning": 0, "radius": 2414, "lat": 23.778167, "lng": 90.382667, "type": 13, "city": "Azimpur", "points": ""}, {"begin_at": 0, "area_id": 1186051, "name": "Izatnagar", "level": 1, "country": 356, "updated_at": 1455674299, "disable": 0, "end_at": 0, "shape": 0, "warning": 0, "radius": 2414, "lat": 28.416667, "lng": 79.45, "type": 13, "city": "Bareilly", "points": ""}, {"begin_at": 0, "area_id": 1186085, "name": "Salem", "level": 1, "country": 356, "updated_at": 1455674299, "disable": 0, "end_at": 0, "shape": 0, "warning": 0, "radius": 2414, "lat": 11.781167, "lng": 78.064083, "type": 13, "city": "Omalur", "points": ""}, {"begin_at": 0, "area_id": 1186129, "name": "Tokunoshima", "level": 1, "country": 392, "updated_at": 1455674299, "disable": 0, "end_at": 0, "shape": 0, "warning": 0, "radius": 2414, "lat": 27.836389, "lng": 128.881389, "type": 13, "city": "\u014cshima-gun", "points": ""}, {"begin_at": 0, "area_id": 1186147, "name": "Hachijojima", "level": 1, "country": 392, "updated_at": 1455674299, "disable": 0, "end_at": 0, "shape": 0, "warning": 0, "radius": 2414, "lat": 33.115, "lng": 139.785833, "type": 13, "city": "Hachij\u014d-machi", "points": ""}, {"begin_at": 0, "area_id": 1186185, "name": "Pleiku", "level": 1, "country": 704, "updated_at": 1455674299, "disable": 0, "end_at": 0, "shape": 0, "warning": 0, "radius": 2414, "lat": 14.0025, "lng": 108.024167, "type": 13, "city": "Pleiku", "points": ""}, {"begin_at": 0, "area_id": 1186187, "name": "Nghe An", "level": 1, "country": 704, "updated_at": 1455674299, "disable": 0, "end_at": 0, "shape": 0, "warning": 0, "radius": 2414, "lat": 18.730278, "lng": 105.675833, "type": 13, "city": "Qu\u00e1n H\u00e0nh", "points": ""}, {"begin_at": 0, "area_id": 1186223, "name": "Bartolomeu Lisandro", "level": 1, "country": 76, "updated_at": 1455674299, "disable": 0, "end_at": 0, "shape": 0, "warning": 0, "radius": 2414, "lat": -21.701111, "lng": -41.307778, "type": 13, "city": "Campos", "points": ""}, {"begin_at": 0, "area_id": 1186289, "name": "Almirante Schroeders", "level": 1, "country": 152, "updated_at": 1455674299, "disable": 0, "end_at": 0, "shape": 0, "warning": 0, "radius": 2414, "lat": -53.601944, "lng": -70.477222, "type": 13, "city": "", "points": ""}, {"begin_at": 0, "area_id": 1186323, "name": "Sorocaba", "level": 1, "country": 76, "updated_at": 1455674299, "disable": 0, "end_at": 0, "shape": 0, "warning": 0, "radius": 2414, "lat": -23.483056, "lng": -47.486389, "type": 13, "city": "Sorocaba", "points": ""}, {"begin_at": 0, "area_id": 1186325, "name": "Andradina", "level": 1, "country": 76, "updated_at": 1455674299, "disable": 0, "end_at": 0, "shape": 0, "warning": 0, "radius": 2414, "lat": -20.925833, "lng": -51.383889, "type": 13, "city": "Andradina", "points": ""}, {"begin_at": 0, "area_id": 1186411, "name": "Sao Lourenco", "level": 1, "country": 76, "updated_at": 1455674299, "disable": 0, "end_at": 0, "shape": 0, "warning": 0, "radius": 2414, "lat": -22.091667, "lng": -45.045278, "type": 13, "city": "S\u00e3o Louren\u00e7o", "points": ""}, {"begin_at": 0, "area_id": 1186419, "name": "Sao Mateus", "level": 1, "country": 76, "updated_at": 1455674299, "disable": 0, "end_at": 0, "shape": 0, "warning": 0, "radius": 2414, "lat": -18.720833, "lng": -39.833056, "type": 13, "city": "S\u00e3o Mateus", "points": ""}, {"begin_at": 0, "area_id": 1186425, "name": "Ouricuri", "level": 1, "country": 76, "updated_at": 1455674299, "disable": 0, "end_at": 0, "shape": 0, "warning": 0, "radius": 2414, "lat": -7.876667, "lng": -40.092222, "type": 13, "city": "Ouricuri", "points": ""}, {"begin_at": 0, "area_id": 1186427, "name": "Patos De Minas", "level": 1, "country": 76, "updated_at": 1455674299, "disable": 0, "end_at": 0, "shape": 0, "warning": 0, "radius": 2414, "lat": -18.672222, "lng": -46.491389, "type": 13, "city": "Patos de Minas", "points": ""}, {"begin_at": 0, "area_id": 1186457, "name": "Paracatu", "level": 1, "country": 76, "updated_at": 1455674299, "disable": 0, "end_at": 0, "shape": 0, "warning": 0, "radius": 2414, "lat": -17.243056, "lng": -46.881389, "type": 13, "city": "Paracatu", "points": ""}, {"begin_at": 0, "area_id": 1186475, "name": "Erechim", "level": 1, "country": 76, "updated_at": 1455674299, "disable": 0, "end_at": 0, "shape": 0, "warning": 0, "radius": 2414, "lat": -27.66, "lng": -52.276111, "type": 13, "city": "Erechim", "points": ""}, {"begin_at": 0, "area_id": 1186501, "name": "Sao Borja", "level": 1, "country": 76, "updated_at": 1455674299, "disable": 0, "end_at": 0, "shape": 0, "warning": 0, "radius": 2414, "lat": -28.653056, "lng": -56.032778, "type": 13, "city": "S\u00e3o Borja", "points": ""}, {"begin_at": 0, "area_id": 1186507, "name": "Arapoti", "level": 1, "country": 76, "updated_at": 1455674299, "disable": 0, "end_at": 0, "shape": 0, "warning": 0, "radius": 2414, "lat": -24.104167, "lng": -49.790556, "type": 13, "city": "Arapoti", "points": ""}, {"begin_at": 0, "area_id": 1186515, "name": "Carauari", "level": 1, "country": 76, "updated_at": 1455674299, "disable": 0, "end_at": 0, "shape": 0, "warning": 0, "radius": 2414, "lat": -4.878611, "lng": -66.895556, "type": 13, "city": "Carauari", "points": ""}, {"begin_at": 0, "area_id": 1186519, "name": "Diamantino", "level": 1, "country": 76, "updated_at": 1455674299, "disable": 0, "end_at": 0, "shape": 0, "warning": 0, "radius": 2414, "lat": -14.376944, "lng": -56.400556, "type": 13, "city": "Diamantino", "points": ""}, {"begin_at": 0, "area_id": 1186525, "name": "Formosa", "level": 1, "country": 76, "updated_at": 1455674299, "disable": 0, "end_at": 0, "shape": 0, "warning": 0, "radius": 2414, "lat": -15.556111, "lng": -47.345278, "type": 13, "city": "Formosa", "points": ""}, {"begin_at": 0, "area_id": 1186533, "name": "Cristalandia", "level": 1, "country": 76, "updated_at": 1455674299, "disable": 0, "end_at": 0, "shape": 0, "warning": 0, "radius": 2414, "lat": -11.573333, "lng": -50.668333, "type": 13, "city": "Lagoa da Confus\u00e3o", "points": ""}, {"begin_at": 0, "area_id": 1186545, "name": "Fonte Boa", "level": 1, "country": 76, "updated_at": 1455674299, "disable": 0, "end_at": 0, "shape": 0, "warning": 0, "radius": 2414, "lat": -2.533611, "lng": -66.067222, "type": 13, "city": "Fonte Boa", "points": ""}, {"begin_at": 0, "area_id": 1186555, "name": "Sinop", "level": 1, "country": 76, "updated_at": 1455674299, "disable": 0, "end_at": 0, "shape": 0, "warning": 0, "radius": 2414, "lat": -11.885, "lng": -55.586111, "type": 13, "city": "Sinop", "points": ""}, {"begin_at": 0, "area_id": 1186557, "name": "Sao Miguel Do Araguaia", "level": 1, "country": 76, "updated_at": 1455674299, "disable": 0, "end_at": 0, "shape": 0, "warning": 0, "radius": 2414, "lat": -13.333889, "lng": -50.205833, "type": 13, "city": "S\u00e3o Miguel do Araguaia", "points": ""}, {"begin_at": 0, "area_id": 1186707, "name": "Emden", "level": 1, "country": 276, "updated_at": 1455674299, "disable": 0, "end_at": 0, "shape": 0, "warning": 0, "radius": 2414, "lat": 53.390975, "lng": 7.225597, "type": 13, "city": "Emden", "points": ""}, {"begin_at": 0, "area_id": 1186709, "name": "Mona", "level": 1, "country": 826, "updated_at": 1455674299, "disable": 0, "end_at": 0, "shape": 0, "warning": 0, "radius": 2414, "lat": 53.2593, "lng": -4.374011, "type": 13, "city": "Llangefni", "points": ""}, {"begin_at": 0, "area_id": 1186891, "name": "M'Banza Congo", "level": 1, "country": 24, "updated_at": 1455674299, "disable": 0, "end_at": 0, "shape": 0, "warning": 0, "radius": 2414, "lat": -6.266667, "lng": 14.25, "type": 13, "city": "Mbanza Congo", "points": ""}, {"begin_at": 0, "area_id": 1186907, "name": "Tchibanga", "level": 1, "country": 266, "updated_at": 1455674299, "disable": 0, "end_at": 0, "shape": 0, "warning": 0, "radius": 2414, "lat": -2.888222, "lng": 10.955417, "type": 13, "city": "Tchibanga", "points": ""}, {"begin_at": 0, "area_id": 1187093, "name": "Werneuchen", "level": 1, "country": 276, "updated_at": 1455674299, "disable": 0, "end_at": 0, "shape": 0, "warning": 0, "radius": 2414, "lat": 52.633, "lng": 13.767, "type": 13, "city": "Werneuchen", "points": ""}, {"begin_at": 0, "area_id": 1187109, "name": "Kebri Dehar", "level": 1, "country": 231, "updated_at": 1455674299, "disable": 0, "end_at": 0, "shape": 0, "warning": 0, "radius": 2414, "lat": 6.730556, "lng": 44.228611, "type": 13, "city": "Kebri Dehar", "points": ""}, {"begin_at": 0, "area_id": 1187137, "name": "Ile D'Yeu", "level": 1, "country": 250, "updated_at": 1455674299, "disable": 0, "end_at": 0, "shape": 0, "warning": 0, "radius": 2414, "lat": 46.7175, "lng": -2.3925, "type": 13, "city": "L'\u00cele-d'Yeu", "points": ""}, {"begin_at": 0, "area_id": 1187207, "name": "Wadi Halfa", "level": 1, "country": 729, "updated_at": 1455674299, "disable": 0, "end_at": 0, "shape": 0, "warning": 0, "radius": 2414, "lat": 21.802797, "lng": 31.521983, "type": 13, "city": "", "points": ""}, {"begin_at": 0, "area_id": 1187327, "name": "Palermo Boccadifalco Mil", "level": 1, "country": 380, "updated_at": 1455674299, "disable": 0, "end_at": 0, "shape": 0, "warning": 0, "radius": 2414, "lat": 38.110833, "lng": 13.313333, "type": 13, "city": "Palermo", "points": ""}, {"begin_at": 0, "area_id": 1187355, "name": "Taupo", "level": 1, "country": 554, "updated_at": 1455674299, "disable": 0, "end_at": 0, "shape": 0, "warning": 0, "radius": 2414, "lat": -38.739722, "lng": 176.084444, "type": 13, "city": "Taupo", "points": ""}, {"begin_at": 0, "area_id": 1187453, "name": "Camiguin Principal", "level": 1, "country": 608, "updated_at": 1455674299, "disable": 0, "end_at": 0, "shape": 0, "warning": 0, "radius": 2414, "lat": 9.253789, "lng": 124.708481, "type": 13, "city": "Mambajao", "points": ""}, {"begin_at": 0, "area_id": 1187459, "name": "Tandag", "level": 1, "country": 608, "updated_at": 1455674299, "disable": 0, "end_at": 0, "shape": 0, "warning": 0, "radius": 2414, "lat": 9.065336, "lng": 126.168067, "type": 13, "city": "Tandag", "points": ""}, {"begin_at": 0, "area_id": 1187463, "name": "Pevek", "level": 1, "country": 643, "updated_at": 1455674299, "disable": 0, "end_at": 0, "shape": 0, "warning": 0, "radius": 2414, "lat": 69.783333, "lng": 170.595, "type": 13, "city": "Pevek", "points": ""}, {"begin_at": 0, "area_id": 1187613, "name": "Frans Sales Lega", "level": 1, "country": 360, "updated_at": 1455674299, "disable": 0, "end_at": 0, "shape": 0, "warning": 0, "radius": 2414, "lat": -8.598611, "lng": 120.496389, "type": 13, "city": "Ruteng", "points": ""}, {"begin_at": 0, "area_id": 1187721, "name": "Ceduna", "level": 1, "country": 36, "updated_at": 1455674299, "disable": 0, "end_at": 0, "shape": 0, "warning": 0, "radius": 2414, "lat": -32.130556, "lng": 133.709722, "type": 13, "city": "Ceduna", "points": ""}, {"begin_at": 0, "area_id": 1187723, "name": "Century Mine", "level": 1, "country": 36, "updated_at": 1455674299, "disable": 0, "end_at": 0, "shape": 0, "warning": 0, "radius": 2414, "lat": -18.753333, "lng": 138.706667, "type": 13, "city": "Lawn Hill", "points": ""}, {"begin_at": 0, "area_id": 1187783, "name": "Gayndah", "level": 1, "country": 36, "updated_at": 1455674299, "disable": 0, "end_at": 0, "shape": 0, "warning": 0, "radius": 2414, "lat": -25.615278, "lng": 151.620833, "type": 13, "city": "Gayndah", "points": ""}, {"begin_at": 0, "area_id": 1187787, "name": "Gladstone", "level": 1, "country": 36, "updated_at": 1455674299, "disable": 0, "end_at": 0, "shape": 0, "warning": 0, "radius": 2414, "lat": -23.869722, "lng": 151.222778, "type": 13, "city": "Gladstone", "points": ""}, {"begin_at": 0, "area_id": 1187795, "name": "Grafton", "level": 1, "country": 36, "updated_at": 1455674299, "disable": 0, "end_at": 0, "shape": 0, "warning": 0, "radius": 2414, "lat": -29.759444, "lng": 153.03, "type": 13, "city": "South Grafton", "points": ""}, {"begin_at": 0, "area_id": 1187823, "name": "Hughenden", "level": 1, "country": 36, "updated_at": 1455674299, "disable": 0, "end_at": 0, "shape": 0, "warning": 0, "radius": 2414, "lat": -20.815, "lng": 144.225, "type": 13, "city": "Hughenden", "points": ""}, {"begin_at": 0, "area_id": 1187833, "name": "Jervis Bay", "level": 1, "country": 36, "updated_at": 1455674299, "disable": 0, "end_at": 0, "shape": 0, "warning": 0, "radius": 2414, "lat": -35.146667, "lng": 150.696667, "type": 13, "city": "Jervis Bay Territory", "points": ""}, {"begin_at": 0, "area_id": 1187901, "name": "Debert", "level": 1, "country": 124, "updated_at": 1455674299, "disable": 0, "end_at": 0, "shape": 0, "warning": 0, "radius": 2414, "lat": 45.419219, "lng": -63.461303, "type": 13, "city": "Truro", "points": ""}, {"begin_at": 0, "area_id": 1187915, "name": "Botwood", "level": 1, "country": 124, "updated_at": 1455674299, "disable": 0, "end_at": 0, "shape": 0, "warning": 0, "radius": 2414, "lat": 49.056014, "lng": -55.447683, "type": 13, "city": "Botwood", "points": ""}, {"begin_at": 0, "area_id": 1187935, "name": "Streaky Bay", "level": 1, "country": 36, "updated_at": 1455674299, "disable": 0, "end_at": 0, "shape": 0, "warning": 0, "radius": 2414, "lat": -32.835833, "lng": 134.292778, "type": 13, "city": "Streaky Bay", "points": ""}, {"begin_at": 0, "area_id": 1187939, "name": "Latrobe Valley", "level": 1, "country": 36, "updated_at": 1455674299, "disable": 0, "end_at": 0, "shape": 0, "warning": 0, "radius": 2414, "lat": -38.207222, "lng": 146.470278, "type": 13, "city": "Traralgon", "points": ""}, {"begin_at": 0, "area_id": 1187951, "name": "Lightning Ridge", "level": 1, "country": 36, "updated_at": 1455674299, "disable": 0, "end_at": 0, "shape": 0, "warning": 0, "radius": 2414, "lat": -29.456667, "lng": 147.985, "type": 13, "city": "Lightning Ridge", "points": ""}, {"begin_at": 0, "area_id": 1187965, "name": "Nyngan", "level": 1, "country": 36, "updated_at": 1455674299, "disable": 0, "end_at": 0, "shape": 0, "warning": 0, "radius": 2414, "lat": -31.551111, "lng": 147.202778, "type": 13, "city": "Nyngan", "points": ""}, {"begin_at": 0, "area_id": 1187969, "name": "Oenpelli", "level": 1, "country": 36, "updated_at": 1455674299, "disable": 0, "end_at": 0, "shape": 0, "warning": 0, "radius": 2414, "lat": -12.325, "lng": 133.005, "type": 13, "city": "Arnhem Land", "points": ""}, {"begin_at": 0, "area_id": 1187977, "name": "Orange", "level": 1, "country": 36, "updated_at": 1455674299, "disable": 0, "end_at": 0, "shape": 0, "warning": 0, "radius": 2414, "lat": -33.378056, "lng": 149.125556, "type": 13, "city": "Millthorpe", "points": ""}, {"begin_at": 0, "area_id": 1188007, "name": "Jasper-Hinton", "level": 1, "country": 124, "updated_at": 1455674299, "disable": 0, "end_at": 0, "shape": 0, "warning": 0, "radius": 2414, "lat": 53.31905, "lng": -117.753244, "type": 13, "city": "Hinton", "points": ""}, {"begin_at": 0, "area_id": 1188093, "name": "Rottnest I", "level": 1, "country": 36, "updated_at": 1455674299, "disable": 0, "end_at": 0, "shape": 0, "warning": 0, "radius": 2414, "lat": -32.006667, "lng": 115.539722, "type": 13, "city": "Mosman Park", "points": ""}, {"begin_at": 0, "area_id": 1188135, "name": "Walgett", "level": 1, "country": 36, "updated_at": 1455674299, "disable": 0, "end_at": 0, "shape": 0, "warning": 0, "radius": 2414, "lat": -30.032778, "lng": 148.125833, "type": 13, "city": "Walgett", "points": ""}, {"begin_at": 0, "area_id": 1188153, "name": "Wiluna", "level": 1, "country": 36, "updated_at": 1455674299, "disable": 0, "end_at": 0, "shape": 0, "warning": 0, "radius": 2414, "lat": -26.63, "lng": 120.22, "type": 13, "city": "Wiluna", "points": ""}, {"begin_at": 0, "area_id": 1188393, "name": "Tumeremo", "level": 1, "country": 862, "updated_at": 1455674299, "disable": 0, "end_at": 0, "shape": 0, "warning": 0, "radius": 2414, "lat": 7.248889, "lng": -61.528889, "type": 13, "city": "", "points": ""}, {"begin_at": 0, "area_id": 1188441, "name": "Congo Town", "level": 1, "country": 44, "updated_at": 1455674299, "disable": 0, "end_at": 0, "shape": 0, "warning": 0, "radius": 2414, "lat": 24.158792, "lng": -77.589997, "type": 13, "city": "Congo Town", "points": ""}, {"begin_at": 0, "area_id": 1188485, "name": "San Bernardo", "level": 1, "country": 170, "updated_at": 1455674299, "disable": 0, "end_at": 0, "shape": 0, "warning": 0, "radius": 2414, "lat": 9.258347, "lng": -74.438333, "type": 13, "city": "Momp\u00f3s", "points": ""}, {"begin_at": 0, "area_id": 1188515, "name": "Sao Sebastiao Do Oaraiso", "level": 1, "country": 76, "updated_at": 1455674299, "disable": 0, "end_at": 0, "shape": 0, "warning": 0, "radius": 2414, "lat": -20.950278, "lng": -46.984167, "type": 13, "city": "S\u00e3o Sebasti\u00e3o do Para\u00edso", "points": ""}, {"begin_at": 0, "area_id": 1188517, "name": "Mello Viana", "level": 1, "country": 76, "updated_at": 1455674299, "disable": 0, "end_at": 0, "shape": 0, "warning": 0, "radius": 2414, "lat": -21.790556, "lng": -45.269167, "type": 13, "city": "Cambuquira", "points": ""}, {"begin_at": 0, "area_id": 1188599, "name": "Nuuk", "level": 1, "country": 304, "updated_at": 1455674299, "disable": 0, "end_at": 0, "shape": 0, "warning": 0, "radius": 2414, "lat": 64.190922, "lng": -51.678064, "type": 13, "city": "Nuuk", "points": ""}, {"begin_at": 0, "area_id": 1188603, "name": "Upernavik", "level": 1, "country": 304, "updated_at": 1455674299, "disable": 0, "end_at": 0, "shape": 0, "warning": 0, "radius": 2414, "lat": 72.790189, "lng": -56.130586, "type": 13, "city": "Upernavik", "points": ""}, {"begin_at": 0, "area_id": 1188615, "name": "Hasvik", "level": 1, "country": 578, "updated_at": 1455674299, "disable": 0, "end_at": 0, "shape": 0, "warning": 0, "radius": 2414, "lat": 70.486667, "lng": 22.139722, "type": 13, "city": "Hasvik", "points": ""}, {"begin_at": 0, "area_id": 1188637, "name": "Goetsenhoven AB", "level": 1, "country": 56, "updated_at": 1455674299, "disable": 0, "end_at": 0, "shape": 0, "warning": 0, "radius": 2414, "lat": 50.781667, "lng": 4.957778, "type": 13, "city": "Tienen", "points": ""}, {"begin_at": 0, "area_id": 1188649, "name": "Brandensteinsebene", "level": 1, "country": 276, "updated_at": 1455674299, "disable": 0, "end_at": 0, "shape": 0, "warning": 0, "radius": 2414, "lat": 50.263278, "lng": 10.99505, "type": 13, "city": "Coburg", "points": ""}, {"begin_at": 0, "area_id": 1188655, "name": "Sandnessjoen", "level": 1, "country": 578, "updated_at": 1455674299, "disable": 0, "end_at": 0, "shape": 0, "warning": 0, "radius": 2414, "lat": 65.959722, "lng": 12.472222, "type": 13, "city": "Silvalen", "points": ""}, {"begin_at": 0, "area_id": 1188657, "name": "Arvika", "level": 1, "country": 752, "updated_at": 1455674299, "disable": 0, "end_at": 0, "shape": 0, "warning": 0, "radius": 2414, "lat": 59.675, "lng": 12.639444, "type": 13, "city": "Arvika", "points": ""}, {"begin_at": 0, "area_id": 1188669, "name": "Kone", "level": 1, "country": 540, "updated_at": 1455674299, "disable": 0, "end_at": 0, "shape": 0, "warning": 0, "radius": 2414, "lat": -21.053333, "lng": 164.837778, "type": 13, "city": "Kon\u00e9", "points": ""}, {"begin_at": 0, "area_id": 1188673, "name": "Mare La Roche", "level": 1, "country": 540, "updated_at": 1455674299, "disable": 0, "end_at": 0, "shape": 0, "warning": 0, "radius": 2414, "lat": -21.481111, "lng": 168.0375, "type": 13, "city": "Tadine", "points": ""}, {"begin_at": 0, "area_id": 1188693, "name": "Ceyzeriat", "level": 1, "country": 250, "updated_at": 1455674299, "disable": 0, "end_at": 0, "shape": 0, "warning": 0, "radius": 2414, "lat": 46.205619, "lng": 5.291794, "type": 13, "city": "Jasseron", "points": ""}, {"begin_at": 0, "area_id": 1188695, "name": "Tarare", "level": 1, "country": 250, "updated_at": 1455674299, "disable": 0, "end_at": 0, "shape": 0, "warning": 0, "radius": 2414, "lat": 45.919983, "lng": 4.634931, "type": 13, "city": "Theiz\u00e9", "points": ""}, {"begin_at": 0, "area_id": 1188733, "name": "Oshima", "level": 1, "country": 392, "updated_at": 1455674299, "disable": 0, "end_at": 0, "shape": 0, "warning": 0, "radius": 2414, "lat": 34.781944, "lng": 139.360278, "type": 13, "city": "\u014cshima-machi", "points": ""}, {"begin_at": 0, "area_id": 1188737, "name": "Yoron", "level": 1, "country": 392, "updated_at": 1455674299, "disable": 0, "end_at": 0, "shape": 0, "warning": 0, "radius": 2414, "lat": 27.043889, "lng": 128.401667, "type": 13, "city": "\u014cshima-gun", "points": ""}, {"begin_at": 0, "area_id": 1188817, "name": "Antonio Rivera Rodriguez", "level": 1, "country": 630, "updated_at": 1455674299, "disable": 0, "end_at": 0, "shape": 0, "warning": 0, "radius": 2414, "lat": 18.134811, "lng": -65.493617, "type": 13, "city": "Esperanza", "points": ""}, {"begin_at": 0, "area_id": 1188835, "name": "Boscomantico", "level": 1, "country": 380, "updated_at": 1455674299, "disable": 0, "end_at": 0, "shape": 0, "warning": 0, "radius": 2414, "lat": 45.473056, "lng": 10.926944, "type": 13, "city": "Parona", "points": ""}, {"begin_at": 0, "area_id": 1188905, "name": "Sorkjosen", "level": 1, "country": 578, "updated_at": 1455674299, "disable": 0, "end_at": 0, "shape": 0, "warning": 0, "radius": 2414, "lat": 69.786667, "lng": 20.959722, "type": 13, "city": "S\u00f8rkjosen", "points": ""}, {"begin_at": 0, "area_id": 1188939, "name": "Tafaraoui", "level": 1, "country": 12, "updated_at": 1455674299, "disable": 0, "end_at": 0, "shape": 0, "warning": 0, "radius": 2414, "lat": 35.542444, "lng": -0.532278, "type": 13, "city": "Tafraoui", "points": ""}, {"begin_at": 0, "area_id": 1188943, "name": "Rawalakot", "level": 1, "country": 586, "updated_at": 1455674299, "disable": 0, "end_at": 0, "shape": 0, "warning": 0, "radius": 2414, "lat": 33.849661, "lng": 73.79815, "type": 13, "city": "R\u0101wala Kot", "points": ""}, {"begin_at": 0, "area_id": 1188953, "name": "Wolverhampton Halfpenny Green", "level": 1, "country": 826, "updated_at": 1455674299, "disable": 0, "end_at": 0, "shape": 0, "warning": 0, "radius": 2414, "lat": 52.517714, "lng": -2.259783, "type": 13, "city": "Kingswinford", "points": ""}, {"begin_at": 0, "area_id": 1188969, "name": "Coxim", "level": 1, "country": 76, "updated_at": 1455674299, "disable": 0, "end_at": 0, "shape": 0, "warning": 0, "radius": 2414, "lat": -18.481389, "lng": -54.715833, "type": 13, "city": "Coxim", "points": ""}, {"begin_at": 0, "area_id": 1189029, "name": "Pulau Redang", "level": 1, "country": 458, "updated_at": 1455674299, "disable": 0, "end_at": 0, "shape": 0, "warning": 0, "radius": 2414, "lat": 5.765278, "lng": 103.006944, "type": 13, "city": "Kuala Terengganu", "points": ""}, {"begin_at": 0, "area_id": 1189061, "name": "Ghazvin", "level": 1, "country": 364, "updated_at": 1455674299, "disable": 0, "end_at": 0, "shape": 0, "warning": 0, "radius": 2414, "lat": 36.241111, "lng": 50.0425, "type": 13, "city": "Qazvin", "points": ""}, {"begin_at": 0, "area_id": 1189085, "name": "Vermilion", "level": 1, "country": 124, "updated_at": 1455674299, "disable": 0, "end_at": 0, "shape": 0, "warning": 0, "radius": 2414, "lat": 53.356869, "lng": -110.824828, "type": 13, "city": "Vermilion", "points": ""}, {"begin_at": 0, "area_id": 1189127, "name": "Manitouwadge", "level": 1, "country": 124, "updated_at": 1455674299, "disable": 0, "end_at": 0, "shape": 0, "warning": 0, "radius": 2414, "lat": 49.083203, "lng": -85.861003, "type": 13, "city": "", "points": ""}, {"begin_at": 0, "area_id": 1189151, "name": "Nakina", "level": 1, "country": 124, "updated_at": 1455674299, "disable": 0, "end_at": 0, "shape": 0, "warning": 0, "radius": 2414, "lat": 50.183, "lng": -86.697425, "type": 13, "city": "", "points": ""}, {"begin_at": 0, "area_id": 1189285, "name": "Hameln Pyrmont", "level": 1, "country": 276, "updated_at": 1455674299, "disable": 0, "end_at": 0, "shape": 0, "warning": 0, "radius": 2414, "lat": 51.9675, "lng": 9.293, "type": 13, "city": "L\u00fcgde", "points": ""}, {"begin_at": 0, "area_id": 1189309, "name": "Allendorf/Eder", "level": 1, "country": 276, "updated_at": 1455674299, "disable": 0, "end_at": 0, "shape": 0, "warning": 0, "radius": 2414, "lat": 51.035369, "lng": 8.680864, "type": 13, "city": "Allendorf", "points": ""}, {"begin_at": 0, "area_id": 1189319, "name": "Aschaffenburg", "level": 1, "country": 276, "updated_at": 1455674299, "disable": 0, "end_at": 0, "shape": 0, "warning": 0, "radius": 2414, "lat": 49.938833, "lng": 9.0625, "type": 13, "city": "Gro\u00dfostheim", "points": ""}, {"begin_at": 0, "area_id": 1189355, "name": "Norderney", "level": 1, "country": 276, "updated_at": 1455674299, "disable": 0, "end_at": 0, "shape": 0, "warning": 0, "radius": 2414, "lat": 53.707, "lng": 7.228667, "type": 13, "city": "Norderney", "points": ""}, {"begin_at": 0, "area_id": 1189359, "name": "Peine-Eddesse", "level": 1, "country": 276, "updated_at": 1455674299, "disable": 0, "end_at": 0, "shape": 0, "warning": 0, "radius": 2414, "lat": 52.4025, "lng": 10.229, "type": 13, "city": "Edemissen", "points": ""}, {"begin_at": 0, "area_id": 1189377, "name": "Trier-Fohren", "level": 1, "country": 276, "updated_at": 1455674299, "disable": 0, "end_at": 0, "shape": 0, "warning": 0, "radius": 2414, "lat": 49.8635, "lng": 6.788167, "type": 13, "city": "Bekond", "points": ""}, {"begin_at": 0, "area_id": 1189407, "name": "Cap Manuel Nino", "level": 1, "country": 591, "updated_at": 1455674299, "disable": 0, "end_at": 0, "shape": 0, "warning": 0, "radius": 2414, "lat": 9.458889, "lng": -82.515278, "type": 13, "city": "Changuinola", "points": ""}, {"begin_at": 0, "area_id": 1189463, "name": "Schaerding/Suben", "level": 1, "country": 40, "updated_at": 1455674299, "disable": 0, "end_at": 0, "shape": 0, "warning": 0, "radius": 2414, "lat": 48.403056, "lng": 13.448056, "type": 13, "city": "Sankt Marienkirchen bei Sch\u00e4rding", "points": ""}, {"begin_at": 0, "area_id": 1189471, "name": "Voeslau", "level": 1, "country": 40, "updated_at": 1455674299, "disable": 0, "end_at": 0, "shape": 0, "warning": 0, "radius": 2414, "lat": 47.964444, "lng": 16.259444, "type": 13, "city": "G\u00fcnselsdorf", "points": ""}, {"begin_at": 0, "area_id": 1189507, "name": "St Aubin", "level": 1, "country": 250, "updated_at": 1455674299, "disable": 0, "end_at": 0, "shape": 0, "warning": 0, "radius": 2414, "lat": 49.882633, "lng": 1.085331, "type": 13, "city": "Saint-Aubin-sur-Scie", "points": ""}, {"begin_at": 0, "area_id": 1189567, "name": "Antique Principal", "level": 1, "country": 608, "updated_at": 1455674299, "disable": 0, "end_at": 0, "shape": 0, "warning": 0, "radius": 2414, "lat": 10.766389, "lng": 121.932389, "type": 13, "city": "San Pedro", "points": ""}, {"begin_at": 0, "area_id": 1189569, "name": "Borongan National", "level": 1, "country": 608, "updated_at": 1455674299, "disable": 0, "end_at": 0, "shape": 0, "warning": 0, "radius": 2414, "lat": 11.673672, "lng": 125.480847, "type": 13, "city": "Borongan City", "points": ""}, {"begin_at": 0, "area_id": 1189611, "name": "Prunay", "level": 1, "country": 250, "updated_at": 1455674299, "disable": 0, "end_at": 0, "shape": 0, "warning": 0, "radius": 2414, "lat": 49.208689, "lng": 4.156581, "type": 13, "city": "Sillery", "points": ""}, {"begin_at": 0, "area_id": 1189651, "name": "Ternopil' Intl", "level": 1, "country": 804, "updated_at": 1455674299, "disable": 0, "end_at": 0, "shape": 0, "warning": 0, "radius": 2414, "lat": 49.525, "lng": 25.698889, "type": 13, "city": "Velikiye Borki", "points": ""}, {"begin_at": 0, "area_id": 1189721, "name": "Torres", "level": 1, "country": 76, "updated_at": 1455674299, "disable": 0, "end_at": 0, "shape": 0, "warning": 0, "radius": 2414, "lat": -29.414167, "lng": -49.804722, "type": 13, "city": "Torres", "points": ""}, {"begin_at": 0, "area_id": 1189741, "name": "Maria Reiche Neuman", "level": 1, "country": 604, "updated_at": 1455674299, "disable": 0, "end_at": 0, "shape": 0, "warning": 0, "radius": 2414, "lat": -14.854139, "lng": -74.961772, "type": 13, "city": "Nazca", "points": ""}, {"begin_at": 0, "area_id": 1189749, "name": "Ciro Alegria", "level": 1, "country": 604, "updated_at": 1455674299, "disable": 0, "end_at": 0, "shape": 0, "warning": 0, "radius": 2414, "lat": -4.607222, "lng": -77.940556, "type": 13, "city": "Saramiriza", "points": ""}, {"begin_at": 0, "area_id": 1189755, "name": "Las Dunas", "level": 1, "country": 604, "updated_at": 1455674299, "disable": 0, "end_at": 0, "shape": 0, "warning": 0, "radius": 2414, "lat": -14.035181, "lng": -75.760283, "type": 13, "city": "Subtanjalla", "points": ""}, {"begin_at": 0, "area_id": 1189771, "name": "Pablo L.Sidar", "level": 1, "country": 484, "updated_at": 1455674299, "disable": 0, "end_at": 0, "shape": 0, "warning": 0, "radius": 2414, "lat": 19.1, "lng": -102.366667, "type": 13, "city": "Apatzing\u00e1n", "points": ""}, {"begin_at": 0, "area_id": 1189795, "name": "Karlshofen", "level": 1, "country": 276, "updated_at": 1455674299, "disable": 0, "end_at": 0, "shape": 0, "warning": 0, "radius": 2414, "lat": 53.332667, "lng": 9.027833, "type": 13, "city": "Breddorf", "points": ""}, {"begin_at": 0, "area_id": 1189803, "name": "Punta Huete", "level": 1, "country": 558, "updated_at": 1455674299, "disable": 0, "end_at": 0, "shape": 0, "warning": 0, "radius": 2414, "lat": 12.353361, "lng": -86.182944, "type": 13, "city": "", "points": ""}, {"begin_at": 0, "area_id": 1189851, "name": "Ken Jones", "level": 1, "country": 388, "updated_at": 1455674299, "disable": 0, "end_at": 0, "shape": 0, "warning": 0, "radius": 2414, "lat": 18.198889, "lng": -76.535, "type": 13, "city": "Hope Bay", "points": ""}, {"begin_at": 0, "area_id": 1189853, "name": "Regina", "level": 1, "country": 254, "updated_at": 1455674299, "disable": 0, "end_at": 0, "shape": 0, "warning": 0, "radius": 2414, "lat": 4.314722, "lng": -52.131667, "type": 13, "city": "R\u00e9gina", "points": ""}, {"begin_at": 0, "area_id": 1189949, "name": "Aradah", "level": 1, "country": 682, "updated_at": 1455674299, "disable": 0, "end_at": 0, "shape": 0, "warning": 0, "radius": 2414, "lat": 21.218717, "lng": 55.262244, "type": 13, "city": "Ardah", "points": ""}, {"begin_at": 0, "area_id": 1190007, "name": "Okushiri", "level": 1, "country": 392, "updated_at": 1455674299, "disable": 0, "end_at": 0, "shape": 0, "warning": 0, "radius": 2414, "lat": 42.071667, "lng": 139.432778, "type": 13, "city": "Okushiri-gun", "points": ""}, {"begin_at": 0, "area_id": 1190009, "name": "Trail", "level": 1, "country": 124, "updated_at": 1455674299, "disable": 0, "end_at": 0, "shape": 0, "warning": 0, "radius": 2414, "lat": 49.055542, "lng": -117.609208, "type": 13, "city": "Fruitvale", "points": ""}, {"begin_at": 0, "area_id": 1190025, "name": "Speicher AAF/ Al Sahra", "level": 1, "country": 368, "updated_at": 1455674299, "disable": 0, "end_at": 0, "shape": 0, "warning": 0, "radius": 2414, "lat": 34.673231, "lng": 43.542994, "type": 13, "city": "Tikr\u012bt", "points": ""}, {"begin_at": 0, "area_id": 1190033, "name": "Bendigo", "level": 1, "country": 36, "updated_at": 1455674299, "disable": 0, "end_at": 0, "shape": 0, "warning": 0, "radius": 2414, "lat": -36.739444, "lng": 144.329722, "type": 13, "city": "White Hills", "points": ""}, {"begin_at": 0, "area_id": 1190043, "name": "Fukui", "level": 1, "country": 392, "updated_at": 1455674299, "disable": 0, "end_at": 0, "shape": 0, "warning": 0, "radius": 2414, "lat": 36.142778, "lng": 136.223889, "type": 13, "city": "Maruoka", "points": ""}, {"begin_at": 0, "area_id": 1190079, "name": "Whangarei", "level": 1, "country": 554, "updated_at": 1455674299, "disable": 0, "end_at": 0, "shape": 0, "warning": 0, "radius": 2414, "lat": -35.768333, "lng": 174.365, "type": 13, "city": "Whangarei", "points": ""}, {"begin_at": 0, "area_id": 1190147, "name": "Kavieng", "level": 1, "country": 598, "updated_at": 1455674299, "disable": 0, "end_at": 0, "shape": 0, "warning": 0, "radius": 2414, "lat": -2.578983, "lng": 150.807433, "type": 13, "city": "Kavieng", "points": ""}, {"begin_at": 0, "area_id": 1190169, "name": "Bwagaoia", "level": 1, "country": 598, "updated_at": 1455674299, "disable": 0, "end_at": 0, "shape": 0, "warning": 0, "radius": 2414, "lat": -10.689067, "lng": 152.837567, "type": 13, "city": "Samarai", "points": ""}, {"begin_at": 0, "area_id": 1190245, "name": "Hilongos Community", "level": 1, "country": 608, "updated_at": 1455674299, "disable": 0, "end_at": 0, "shape": 0, "warning": 0, "radius": 2414, "lat": 10.376317, "lng": 124.761111, "type": 13, "city": "Hilongos", "points": ""}, {"begin_at": 0, "area_id": 1190279, "name": "Finsterwalde/Schacksdorf", "level": 1, "country": 276, "updated_at": 1455674299, "disable": 0, "end_at": 0, "shape": 0, "warning": 0, "radius": 2414, "lat": 51.6075, "lng": 13.738, "type": 13, "city": "Finsterwalde", "points": ""}, {"begin_at": 0, "area_id": 1190323, "name": "Saravan", "level": 1, "country": 364, "updated_at": 1455674299, "disable": 0, "end_at": 0, "shape": 0, "warning": 0, "radius": 2414, "lat": 27.408333, "lng": 62.320556, "type": 13, "city": "Saravan", "points": ""}, {"begin_at": 0, "area_id": 1190329, "name": "Capure Dleta Amacuro Ntl.", "level": 1, "country": 862, "updated_at": 1455674299, "disable": 0, "end_at": 0, "shape": 0, "warning": 0, "radius": 2414, "lat": 9.978611, "lng": -62.231111, "type": 13, "city": "Pedernales", "points": ""}, {"begin_at": 0, "area_id": 1190371, "name": "Barrow / Walney Island", "level": 1, "country": 826, "updated_at": 1455674299, "disable": 0, "end_at": 0, "shape": 0, "warning": 0, "radius": 2414, "lat": 54.128611, "lng": -3.2675, "type": 13, "city": "Barrow in Furness", "points": ""}, {"begin_at": 0, "area_id": 1190447, "name": "Pontivy", "level": 1, "country": 250, "updated_at": 1455674299, "disable": 0, "end_at": 0, "shape": 0, "warning": 0, "radius": 2414, "lat": 48.056944, "lng": -2.923333, "type": 13, "city": "Noyal-Pontivy", "points": ""}, {"begin_at": 0, "area_id": 1190479, "name": "Alto Palena", "level": 1, "country": 152, "updated_at": 1455674299, "disable": 0, "end_at": 0, "shape": 0, "warning": 0, "radius": 2414, "lat": -43.615278, "lng": -71.806944, "type": 13, "city": "Palena", "points": ""}, {"begin_at": 0, "area_id": 1190515, "name": "Swartkop", "level": 1, "country": 710, "updated_at": 1455674299, "disable": 0, "end_at": 0, "shape": 0, "warning": 0, "radius": 2414, "lat": -25.808939, "lng": 28.166972, "type": 13, "city": "Centurion", "points": ""}, {"begin_at": 0, "area_id": 1190537, "name": "Sigiriya", "level": 1, "country": 144, "updated_at": 1455674299, "disable": 0, "end_at": 0, "shape": 0, "warning": 0, "radius": 2414, "lat": 7.957861, "lng": 80.72975, "type": 13, "city": "Sigiriya", "points": ""}, {"begin_at": 0, "area_id": 1190613, "name": "Codrington", "level": 1, "country": 28, "updated_at": 1455674299, "disable": 0, "end_at": 0, "shape": 0, "warning": 0, "radius": 2414, "lat": 17.608333, "lng": -61.843333, "type": 13, "city": "Codrington", "points": ""}, {"begin_at": 0, "area_id": 1190687, "name": "Zagora", "level": 1, "country": 504, "updated_at": 1455674299, "disable": 0, "end_at": 0, "shape": 0, "warning": 0, "radius": 2414, "lat": 30.263889, "lng": -5.853056, "type": 13, "city": "Zagora", "points": ""}, {"begin_at": 0, "area_id": 1190745, "name": "Hezarfen", "level": 1, "country": 792, "updated_at": 1455674299, "disable": 0, "end_at": 0, "shape": 0, "warning": 0, "radius": 2414, "lat": 41.104167, "lng": 28.55, "type": 13, "city": "Muratbey", "points": ""}, {"begin_at": 0, "area_id": 1190773, "name": "Riviere-Aux-Saumons", "level": 1, "country": 124, "updated_at": 1455674299, "disable": 0, "end_at": 0, "shape": 0, "warning": 0, "radius": 2414, "lat": 49.401489, "lng": -62.295358, "type": 13, "city": "Aguanish", "points": ""}, {"begin_at": 0, "area_id": 1190805, "name": "Izmail", "level": 1, "country": 804, "updated_at": 1455674299, "disable": 0, "end_at": 0, "shape": 0, "warning": 0, "radius": 2414, "lat": 45.391667, "lng": 28.801667, "type": 13, "city": "Broska", "points": ""}, {"begin_at": 0, "area_id": 1190835, "name": "Sundre", "level": 1, "country": 124, "updated_at": 1455674299, "disable": 0, "end_at": 0, "shape": 0, "warning": 0, "radius": 2414, "lat": 51.774672, "lng": -114.680969, "type": 13, "city": "Sundre", "points": ""}, {"begin_at": 0, "area_id": 1190837, "name": "Khanskaya", "level": 1, "country": 643, "updated_at": 1455674299, "disable": 0, "end_at": 0, "shape": 0, "warning": 0, "radius": 2414, "lat": 44.68, "lng": 40.036667, "type": 13, "city": "Khanskaya", "points": ""}, {"begin_at": 0, "area_id": 1190849, "name": "Pai", "level": 1, "country": 764, "updated_at": 1455674299, "disable": 0, "end_at": 0, "shape": 0, "warning": 0, "radius": 2414, "lat": 19.372008, "lng": 98.435864, "type": 13, "city": "Pai", "points": ""}, {"begin_at": 0, "area_id": 1190889, "name": "Yarrawonga", "level": 1, "country": 36, "updated_at": 1455674299, "disable": 0, "end_at": 0, "shape": 0, "warning": 0, "radius": 2414, "lat": -36.030556, "lng": 146.027778, "type": 13, "city": "Yarrawonga", "points": ""}, {"begin_at": 0, "area_id": 1190967, "name": "Heidelberg", "level": 1, "country": 710, "updated_at": 1455674299, "disable": 0, "end_at": 0, "shape": 0, "warning": 0, "radius": 2414, "lat": -26.507761, "lng": 28.391011, "type": 13, "city": "Heidelberg", "points": ""}, {"begin_at": 0, "area_id": 1190985, "name": "Lesnovo", "level": 1, "country": 100, "updated_at": 1455674299, "disable": 0, "end_at": 0, "shape": 0, "warning": 0, "radius": 2414, "lat": 42.633611, "lng": 23.646389, "type": 13, "city": "Elin Pelin", "points": ""}, {"begin_at": 0, "area_id": 1190989, "name": "Maslow", "level": 1, "country": 616, "updated_at": 1455674299, "disable": 0, "end_at": 0, "shape": 0, "warning": 0, "radius": 2414, "lat": 50.896819, "lng": 20.731561, "type": 13, "city": "Mas\u0142\u00f3w", "points": ""}, {"begin_at": 0, "area_id": 1191115, "name": "Kozushima", "level": 1, "country": 392, "updated_at": 1455674299, "disable": 0, "end_at": 0, "shape": 0, "warning": 0, "radius": 2414, "lat": 34.189444, "lng": 139.133611, "type": 13, "city": "\u795e\u6d25\u5cf6\u6751", "points": ""}, {"begin_at": 0, "area_id": 1191179, "name": "Vila Real", "level": 1, "country": 620, "updated_at": 1455674299, "disable": 0, "end_at": 0, "shape": 0, "warning": 0, "radius": 2414, "lat": 41.275556, "lng": -7.72, "type": 13, "city": "Vila Real", "points": ""}, {"begin_at": 0, "area_id": 1191185, "name": "Ha'Apai", "level": 1, "country": 776, "updated_at": 1455674299, "disable": 0, "end_at": 0, "shape": 0, "warning": 0, "radius": 2414, "lat": -19.777056, "lng": -174.340392, "type": 13, "city": "Pangai", "points": ""}, {"begin_at": 0, "area_id": 1191267, "name": "Gap Tallard", "level": 1, "country": 250, "updated_at": 1455674299, "disable": 0, "end_at": 0, "shape": 0, "warning": 0, "radius": 2414, "lat": 44.453889, "lng": 6.036667, "type": 13, "city": "Tallard", "points": ""}, {"begin_at": 0, "area_id": 1191273, "name": "La Baule Escoublac", "level": 1, "country": 250, "updated_at": 1455674299, "disable": 0, "end_at": 0, "shape": 0, "warning": 0, "radius": 2414, "lat": 47.288333, "lng": -2.346944, "type": 13, "city": "La Baule-Escoublac", "points": ""}, {"begin_at": 0, "area_id": 1191305, "name": "Cold Lake Rgnl", "level": 1, "country": 124, "updated_at": 1455674299, "disable": 0, "end_at": 0, "shape": 0, "warning": 0, "radius": 2414, "lat": 54.477583, "lng": -110.269075, "type": 13, "city": "Cold Lake", "points": ""}, {"begin_at": 0, "area_id": 1191309, "name": "North Ronaldsay", "level": 1, "country": 826, "updated_at": 1455674299, "disable": 0, "end_at": 0, "shape": 0, "warning": 0, "radius": 2414, "lat": 59.3675, "lng": -2.434444, "type": 13, "city": "Orkney", "points": ""}, {"begin_at": 0, "area_id": 1191411, "name": "Tisdale", "level": 1, "country": 124, "updated_at": 1455674299, "disable": 0, "end_at": 0, "shape": 0, "warning": 0, "radius": 2414, "lat": 52.836781, "lng": -104.065994, "type": 13, "city": "Tisdale", "points": ""}, {"begin_at": 0, "area_id": 1191417, "name": "Waala", "level": 1, "country": 540, "updated_at": 1455674299, "disable": 0, "end_at": 0, "shape": 0, "warning": 0, "radius": 2414, "lat": -19.720556, "lng": 163.661111, "type": 13, "city": "Wala", "points": ""}, {"begin_at": 0, "area_id": 1191435, "name": "Tupai", "level": 1, "country": 258, "updated_at": 1455674299, "disable": 0, "end_at": 0, "shape": 0, "warning": 0, "radius": 2414, "lat": -16.24, "lng": -151.836667, "type": 13, "city": "", "points": ""}, {"begin_at": 0, "area_id": 1191639, "name": "Camooweal", "level": 1, "country": 36, "updated_at": 1455674299, "disable": 0, "end_at": 0, "shape": 0, "warning": 0, "radius": 2414, "lat": -19.911667, "lng": 138.125, "type": 13, "city": "Camooweal", "points": ""}, {"begin_at": 0, "area_id": 1191657, "name": "Laboulaye", "level": 1, "country": 32, "updated_at": 1455674299, "disable": 0, "end_at": 0, "shape": 0, "warning": 0, "radius": 2414, "lat": -34.135425, "lng": -63.362292, "type": 13, "city": "Laboulaye", "points": ""}, {"begin_at": 0, "area_id": 1191731, "name": "Camocim", "level": 1, "country": 76, "updated_at": 1455674299, "disable": 0, "end_at": 0, "shape": 0, "warning": 0, "radius": 2414, "lat": -2.896667, "lng": -40.856944, "type": 13, "city": "Camocim", "points": ""}, {"begin_at": 0, "area_id": 1191739, "name": "Bonito", "level": 1, "country": 76, "updated_at": 1455674299, "disable": 0, "end_at": 0, "shape": 0, "warning": 0, "radius": 2414, "lat": -21.247278, "lng": -56.452456, "type": 13, "city": "Bonito", "points": ""}, {"begin_at": 0, "area_id": 1191763, "name": "Senadora Eunice Michiles", "level": 1, "country": 76, "updated_at": 1455674299, "disable": 0, "end_at": 0, "shape": 0, "warning": 0, "radius": 2414, "lat": -3.469247, "lng": -68.921253, "type": 13, "city": "S\u00e3o Paulo de Oliven\u00e7a", "points": ""}, {"begin_at": 0, "area_id": 1191777, "name": "Ibitinga", "level": 1, "country": 76, "updated_at": 1455674299, "disable": 0, "end_at": 0, "shape": 0, "warning": 0, "radius": 2414, "lat": -21.747278, "lng": -48.855694, "type": 13, "city": "Ibitinga", "points": ""}, {"begin_at": 0, "area_id": 1191827, "name": "Ourilandia Do Norte", "level": 1, "country": 76, "updated_at": 1455674299, "disable": 0, "end_at": 0, "shape": 0, "warning": 0, "radius": 2414, "lat": -6.763097, "lng": -51.049947, "type": 13, "city": "Ouril\u00e2ndia do Norte", "points": ""}, {"begin_at": 0, "area_id": 1191837, "name": "Fazenda Nossa Senhora Da Conceicao", "level": 1, "country": 76, "updated_at": 1455674299, "disable": 0, "end_at": 0, "shape": 0, "warning": 0, "radius": 2414, "lat": -22.758753, "lng": -48.542022, "type": 13, "city": "S\u00e3o Manuel", "points": ""}, {"begin_at": 0, "area_id": 1191939, "name": "Araguatins", "level": 1, "country": 76, "updated_at": 1455674299, "disable": 0, "end_at": 0, "shape": 0, "warning": 0, "radius": 2414, "lat": -5.685897, "lng": -48.114017, "type": 13, "city": "Araguatins", "points": ""}, {"begin_at": 0, "area_id": 1191973, "name": "Belo Jardim", "level": 1, "country": 76, "updated_at": 1455674299, "disable": 0, "end_at": 0, "shape": 0, "warning": 0, "radius": 2414, "lat": -8.345272, "lng": -36.441214, "type": 13, "city": "Belo Jardim", "points": ""}, {"begin_at": 0, "area_id": 1191983, "name": "Campos Sales", "level": 1, "country": 76, "updated_at": 1455674299, "disable": 0, "end_at": 0, "shape": 0, "warning": 0, "radius": 2414, "lat": -7.053019, "lng": -40.358458, "type": 13, "city": "Campos Sales", "points": ""}, {"begin_at": 0, "area_id": 1191993, "name": "Leopoldina", "level": 1, "country": 76, "updated_at": 1455674299, "disable": 0, "end_at": 0, "shape": 0, "warning": 0, "radius": 2414, "lat": -21.466089, "lng": -42.727036, "type": 13, "city": "Cataguases", "points": ""}, {"begin_at": 0, "area_id": 1192001, "name": "Frutal", "level": 1, "country": 76, "updated_at": 1455674299, "disable": 0, "end_at": 0, "shape": 0, "warning": 0, "radius": 2414, "lat": -20.002778, "lng": -48.958383, "type": 13, "city": "Frutal", "points": ""}, {"begin_at": 0, "area_id": 1192019, "name": "Itapetinga", "level": 1, "country": 76, "updated_at": 1455674299, "disable": 0, "end_at": 0, "shape": 0, "warning": 0, "radius": 2414, "lat": -15.244456, "lng": -40.277194, "type": 13, "city": "Itapetinga", "points": ""}, {"begin_at": 0, "area_id": 1192031, "name": "Elias Breder", "level": 1, "country": 76, "updated_at": 1455674299, "disable": 0, "end_at": 0, "shape": 0, "warning": 0, "radius": 2414, "lat": -20.259722, "lng": -42.183889, "type": 13, "city": "Manhua\u00e7u", "points": ""}, {"begin_at": 0, "area_id": 1192041, "name": "Prefeito Octavio De Almeida Neves", "level": 1, "country": 76, "updated_at": 1455674299, "disable": 0, "end_at": 0, "shape": 0, "warning": 0, "radius": 2414, "lat": -21.085494, "lng": -44.225292, "type": 13, "city": "Tiradentes", "points": ""}, {"begin_at": 0, "area_id": 1192047, "name": "Cachoeiro Do Itapemirim", "level": 1, "country": 76, "updated_at": 1455674299, "disable": 0, "end_at": 0, "shape": 0, "warning": 0, "radius": 2414, "lat": -20.834261, "lng": -41.185606, "type": 13, "city": "Cachoeiro de Itapemirim", "points": ""}, {"begin_at": 0, "area_id": 1192063, "name": "Macaubas", "level": 1, "country": 76, "updated_at": 1455674299, "disable": 0, "end_at": 0, "shape": 0, "warning": 0, "radius": 2414, "lat": -13.025019, "lng": -42.672258, "type": 13, "city": "Maca\u00fabas", "points": ""}, {"begin_at": 0, "area_id": 1192081, "name": "Municipal Jose Figueiredo", "level": 1, "country": 76, "updated_at": 1455674299, "disable": 0, "end_at": 0, "shape": 0, "warning": 0, "radius": 2414, "lat": -20.732242, "lng": -46.661772, "type": 13, "city": "Passos", "points": ""}, {"begin_at": 0, "area_id": 1192123, "name": "Teixeira De Freitas", "level": 1, "country": 76, "updated_at": 1455674299, "disable": 0, "end_at": 0, "shape": 0, "warning": 0, "radius": 2414, "lat": -17.524364, "lng": -39.671719, "type": 13, "city": "Teixeira de Freitas", "points": ""}, {"begin_at": 0, "area_id": 1192127, "name": "Tamboril", "level": 1, "country": 76, "updated_at": 1455674299, "disable": 0, "end_at": 0, "shape": 0, "warning": 0, "radius": 2414, "lat": -4.857831, "lng": -40.374608, "type": 13, "city": "Tamboril", "points": ""}, {"begin_at": 0, "area_id": 1192145, "name": "Sertania", "level": 1, "country": 76, "updated_at": 1455674299, "disable": 0, "end_at": 0, "shape": 0, "warning": 0, "radius": 2414, "lat": -8.057903, "lng": -37.324089, "type": 13, "city": "Sert\u00e2nia", "points": ""}, {"begin_at": 0, "area_id": 1192155, "name": "Xique Xique", "level": 1, "country": 76, "updated_at": 1455674299, "disable": 0, "end_at": 0, "shape": 0, "warning": 0, "radius": 2414, "lat": -10.834056, "lng": -42.683369, "type": 13, "city": "Xique Xique", "points": ""}, {"begin_at": 0, "area_id": 1192159, "name": "Ituiutaba", "level": 1, "country": 76, "updated_at": 1455674299, "disable": 0, "end_at": 0, "shape": 0, "warning": 0, "radius": 2414, "lat": -18.999794, "lng": -49.486711, "type": 13, "city": "Ituiutaba", "points": ""}, {"begin_at": 0, "area_id": 1192197, "name": "Joao Pereira Dos Santos Filho", "level": 1, "country": 76, "updated_at": 1455674299, "disable": 0, "end_at": 0, "shape": 0, "warning": 0, "radius": 2414, "lat": -7.100122, "lng": -40.628572, "type": 13, "city": "Ipueiras", "points": ""}, {"begin_at": 0, "area_id": 1192215, "name": "Horizontina", "level": 1, "country": 76, "updated_at": 1455674299, "disable": 0, "end_at": 0, "shape": 0, "warning": 0, "radius": 2414, "lat": -27.638311, "lng": -54.339075, "type": 13, "city": "Horizontina", "points": ""}, {"begin_at": 0, "area_id": 1192219, "name": "Ijui", "level": 1, "country": 76, "updated_at": 1455674299, "disable": 0, "end_at": 0, "shape": 0, "warning": 0, "radius": 2414, "lat": -28.368656, "lng": -53.846569, "type": 13, "city": "Iju\u00ed", "points": ""}, {"begin_at": 0, "area_id": 1192233, "name": "Cacoal", "level": 1, "country": 76, "updated_at": 1455674299, "disable": 0, "end_at": 0, "shape": 0, "warning": 0, "radius": 2414, "lat": -11.495556, "lng": -61.450833, "type": 13, "city": "Cacoal", "points": ""}, {"begin_at": 0, "area_id": 1192237, "name": "Loanda", "level": 1, "country": 76, "updated_at": 1455674299, "disable": 0, "end_at": 0, "shape": 0, "warning": 0, "radius": 2414, "lat": -22.917086, "lng": -53.149047, "type": 13, "city": "Loanda", "points": ""}, {"begin_at": 0, "area_id": 1192283, "name": "Santa Rosa", "level": 1, "country": 76, "updated_at": 1455674299, "disable": 0, "end_at": 0, "shape": 0, "warning": 0, "radius": 2414, "lat": -27.906744, "lng": -54.520378, "type": 13, "city": "Santa Rosa", "points": ""}, {"begin_at": 0, "area_id": 1192287, "name": "Barreirinha", "level": 1, "country": 76, "updated_at": 1455674299, "disable": 0, "end_at": 0, "shape": 0, "warning": 0, "radius": 2414, "lat": -2.792425, "lng": -57.057911, "type": 13, "city": "Barreirinha", "points": ""}, {"begin_at": 0, "area_id": 1192321, "name": "Palmeiras Do Javari", "level": 1, "country": 76, "updated_at": 1455674299, "disable": 0, "end_at": 0, "shape": 0, "warning": 0, "radius": 2414, "lat": -5.127239, "lng": -72.809986, "type": 13, "city": "Atalaia do Norte", "points": ""}, {"begin_at": 0, "area_id": 1192339, "name": "Aruana", "level": 1, "country": 76, "updated_at": 1455674299, "disable": 0, "end_at": 0, "shape": 0, "warning": 0, "radius": 2414, "lat": -14.932506, "lng": -51.048106, "type": 13, "city": "Aruan\u00e3", "points": ""}, {"begin_at": 0, "area_id": 1192387, "name": "Uruacu", "level": 1, "country": 76, "updated_at": 1455674299, "disable": 0, "end_at": 0, "shape": 0, "warning": 0, "radius": 2414, "lat": -14.545206, "lng": -49.091056, "type": 13, "city": "Urua\u00e7u", "points": ""}, {"begin_at": 0, "area_id": 1192449, "name": "Bamenda", "level": 1, "country": 120, "updated_at": 1455674299, "disable": 0, "end_at": 0, "shape": 0, "warning": 0, "radius": 2414, "lat": 6.05, "lng": 10.116667, "type": 13, "city": "Bamenda", "points": ""}, {"begin_at": 0, "area_id": 1192457, "name": "Koulamoutou", "level": 1, "country": 266, "updated_at": 1455674299, "disable": 0, "end_at": 0, "shape": 0, "warning": 0, "radius": 2414, "lat": -1.17, "lng": 12.432778, "type": 13, "city": "Koulamoutou", "points": ""}, {"begin_at": 0, "area_id": 1192461, "name": "Garissa", "level": 1, "country": 404, "updated_at": 1455674299, "disable": 0, "end_at": 0, "shape": 0, "warning": 0, "radius": 2414, "lat": -0.469389, "lng": 39.63425, "type": 13, "city": "Garissa", "points": ""}, {"begin_at": 0, "area_id": 1192467, "name": "Porto Amboim", "level": 1, "country": 24, "updated_at": 1455674299, "disable": 0, "end_at": 0, "shape": 0, "warning": 0, "radius": 2414, "lat": -10.721372, "lng": 13.765614, "type": 13, "city": "Porto Amboim", "points": ""}, {"begin_at": 0, "area_id": 1192471, "name": "Ali Al Salem AB", "level": 1, "country": 414, "updated_at": 1455674299, "disable": 0, "end_at": 0, "shape": 0, "warning": 0, "radius": 2414, "lat": 29.346742, "lng": 47.520753, "type": 13, "city": "Al Jahr\u0101\u2019", "points": ""}, {"begin_at": 0, "area_id": 1192519, "name": "Ciudad de Catamayo", "level": 1, "country": 218, "updated_at": 1455674299, "disable": 0, "end_at": 0, "shape": 0, "warning": 0, "radius": 2414, "lat": -3.995833, "lng": -79.371944, "type": 13, "city": "Catamayo", "points": ""}, {"begin_at": 0, "area_id": 1192559, "name": "Trelivan", "level": 1, "country": 250, "updated_at": 1455674299, "disable": 0, "end_at": 0, "shape": 0, "warning": 0, "radius": 2414, "lat": 48.443333, "lng": -2.103333, "type": 13, "city": "Tr\u00e9livan", "points": ""}, {"begin_at": 0, "area_id": 1192589, "name": "Saint Laurent", "level": 1, "country": 250, "updated_at": 1455674299, "disable": 0, "end_at": 0, "shape": 0, "warning": 0, "radius": 2414, "lat": 46.175556, "lng": 1.953056, "type": 13, "city": "Ajain", "points": ""}, {"begin_at": 0, "area_id": 1192605, "name": "Corbieres", "level": 1, "country": 250, "updated_at": 1455674299, "disable": 0, "end_at": 0, "shape": 0, "warning": 0, "radius": 2414, "lat": 43.175, "lng": 2.732778, "type": 13, "city": "Ferrals-les-Corbi\u00e8res", "points": ""}, {"begin_at": 0, "area_id": 1192631, "name": "Arbent", "level": 1, "country": 250, "updated_at": 1455674299, "disable": 0, "end_at": 0, "shape": 0, "warning": 0, "radius": 2414, "lat": 46.278611, "lng": 5.666389, "type": 13, "city": "Arbent", "points": ""}, {"begin_at": 0, "area_id": 1192673, "name": "Borsk", "level": 1, "country": 616, "updated_at": 1455674299, "disable": 0, "end_at": 0, "shape": 0, "warning": 0, "radius": 2414, "lat": 53.951111, "lng": 17.947778, "type": 13, "city": "Karsin", "points": ""}, {"begin_at": 0, "area_id": 1192677, "name": "Bharatpur", "level": 1, "country": 524, "updated_at": 1455674299, "disable": 0, "end_at": 0, "shape": 0, "warning": 0, "radius": 2414, "lat": 27.678056, "lng": 84.429444, "type": 13, "city": "Bharatpur", "points": ""}, {"begin_at": 0, "area_id": 1192725, "name": "Jumla", "level": 1, "country": 524, "updated_at": 1455674299, "disable": 0, "end_at": 0, "shape": 0, "warning": 0, "radius": 2414, "lat": 29.273889, "lng": 82.189722, "type": 13, "city": "Jumla", "points": ""}, {"begin_at": 0, "area_id": 1192815, "name": "Santo Domingo", "level": 1, "country": 218, "updated_at": 1455674299, "disable": 0, "end_at": 0, "shape": 0, "warning": 0, "radius": 2414, "lat": -0.248333, "lng": -79.208889, "type": 13, "city": "Santo Domingo de los Colorados", "points": ""}, {"begin_at": 0, "area_id": 1192817, "name": "Kurgan", "level": 1, "country": 643, "updated_at": 1455674299, "disable": 0, "end_at": 0, "shape": 0, "warning": 0, "radius": 2414, "lat": 55.475, "lng": 65.415278, "type": 13, "city": "Kurgan", "points": ""}, {"begin_at": 0, "area_id": 1192837, "name": "Sostanj", "level": 1, "country": 705, "updated_at": 1455674299, "disable": 0, "end_at": 0, "shape": 0, "warning": 0, "radius": 2414, "lat": 46.397958, "lng": 15.044919, "type": 13, "city": "Topol\u0161ica", "points": ""}, {"begin_at": 0, "area_id": 1192925, "name": "Cambridge", "level": 1, "country": 36, "updated_at": 1455674299, "disable": 0, "end_at": 0, "shape": 0, "warning": 0, "radius": 2414, "lat": -42.826667, "lng": 147.474722, "type": 13, "city": "Cambridge", "points": ""}, {"begin_at": 0, "area_id": 1192965, "name": "Darnley Island", "level": 1, "country": 36, "updated_at": 1455674299, "disable": 0, "end_at": 0, "shape": 0, "warning": 0, "radius": 2414, "lat": -9.577778, "lng": 143.779167, "type": 13, "city": "Darnley Island", "points": ""}, {"begin_at": 0, "area_id": 1193027, "name": "Kadavu", "level": 1, "country": 242, "updated_at": 1455674299, "disable": 0, "end_at": 0, "shape": 0, "warning": 0, "radius": 2414, "lat": -19.058056, "lng": 178.157222, "type": 13, "city": "", "points": ""}, {"begin_at": 0, "area_id": 1193097, "name": "Gundaroo", "level": 1, "country": 36, "updated_at": 1455674299, "disable": 0, "end_at": 0, "shape": 0, "warning": 0, "radius": 2414, "lat": -35.045, "lng": 149.258333, "type": 13, "city": "Gundaroo", "points": ""}, {"begin_at": 0, "area_id": 1193287, "name": "Butare", "level": 1, "country": 646, "updated_at": 1455674299, "disable": 0, "end_at": 0, "shape": 0, "warning": 0, "radius": 2414, "lat": -2.6, "lng": 29.733333, "type": 13, "city": "Butare", "points": ""}, {"begin_at": 0, "area_id": 1193337, "name": "Mount Beauty", "level": 1, "country": 36, "updated_at": 1455674299, "disable": 0, "end_at": 0, "shape": 0, "warning": 0, "radius": 2414, "lat": -36.733333, "lng": 147.166667, "type": 13, "city": "Mount Beauty", "points": ""}, {"begin_at": 0, "area_id": 1193385, "name": "Pacific Haven", "level": 1, "country": 36, "updated_at": 1455674299, "disable": 0, "end_at": 0, "shape": 0, "warning": 0, "radius": 2414, "lat": -25.236667, "lng": 152.543333, "type": 13, "city": "Childers", "points": ""}, {"begin_at": 0, "area_id": 1193421, "name": "Shute Harbour", "level": 1, "country": 36, "updated_at": 1455674299, "disable": 0, "end_at": 0, "shape": 0, "warning": 0, "radius": 2414, "lat": -20.278333, "lng": 148.755556, "type": 13, "city": "Flametree", "points": ""}, {"begin_at": 0, "area_id": 1193443, "name": "Tara", "level": 1, "country": 36, "updated_at": 1455674299, "disable": 0, "end_at": 0, "shape": 0, "warning": 0, "radius": 2414, "lat": -27.156667, "lng": 150.476667, "type": 13, "city": "Tara", "points": ""}, {"begin_at": 0, "area_id": 1193447, "name": "Theodore", "level": 1, "country": 36, "updated_at": 1455674299, "disable": 0, "end_at": 0, "shape": 0, "warning": 0, "radius": 2414, "lat": -24.993333, "lng": 150.093056, "type": 13, "city": "Lonesome Creek", "points": ""}, {"begin_at": 0, "area_id": 1193499, "name": "La Blecherette", "level": 1, "country": 756, "updated_at": 1455674299, "disable": 0, "end_at": 0, "shape": 0, "warning": 0, "radius": 2414, "lat": 46.545278, "lng": 6.616667, "type": 13, "city": "Bl\u00e9cherette", "points": ""}, {"begin_at": 0, "area_id": 1193627, "name": "Gunzenhausen-Reutberg", "level": 1, "country": 276, "updated_at": 1455674299, "disable": 0, "end_at": 0, "shape": 0, "warning": 0, "radius": 2414, "lat": 49.112, "lng": 10.781833, "type": 13, "city": "Gunzenhausen", "points": ""}, {"begin_at": 0, "area_id": 1193633, "name": "Goettingen", "level": 1, "country": 276, "updated_at": 1455674299, "disable": 0, "end_at": 0, "shape": 0, "warning": 0, "radius": 2414, "lat": 51.4075, "lng": 10.145333, "type": 13, "city": "Siemerode", "points": ""}, {"begin_at": 0, "area_id": 1193701, "name": "Langeoog", "level": 1, "country": 276, "updated_at": 1455674299, "disable": 0, "end_at": 0, "shape": 0, "warning": 0, "radius": 2414, "lat": 53.742833, "lng": 7.498667, "type": 13, "city": "Langeoog", "points": ""}, {"begin_at": 0, "area_id": 1193739, "name": "Michelstadt/Odenwald", "level": 1, "country": 276, "updated_at": 1455674299, "disable": 0, "end_at": 0, "shape": 0, "warning": 0, "radius": 2414, "lat": 49.6785, "lng": 8.972333, "type": 13, "city": "Michelstadt", "points": ""}, {"begin_at": 0, "area_id": 1193793, "name": "Wellington", "level": 1, "country": 36, "updated_at": 1455674299, "disable": 0, "end_at": 0, "shape": 0, "warning": 0, "radius": 2414, "lat": -32.4625, "lng": 148.990556, "type": 13, "city": "Wellington", "points": ""}, {"begin_at": 0, "area_id": 1193845, "name": "Nittenau-Bruck", "level": 1, "country": 276, "updated_at": 1455674299, "disable": 0, "end_at": 0, "shape": 0, "warning": 0, "radius": 2414, "lat": 49.2225, "lng": 12.2965, "type": 13, "city": "Bruck in der Oberpfalz", "points": ""}, {"begin_at": 0, "area_id": 1193923, "name": "Rinteln", "level": 1, "country": 276, "updated_at": 1455674299, "disable": 0, "end_at": 0, "shape": 0, "warning": 0, "radius": 2414, "lat": 52.175333, "lng": 9.053333, "type": 13, "city": "Rinteln", "points": ""}, {"begin_at": 0, "area_id": 1194039, "name": "Beiseker", "level": 1, "country": 124, "updated_at": 1455674299, "disable": 0, "end_at": 0, "shape": 0, "warning": 0, "radius": 2414, "lat": 51.393333, "lng": -113.471944, "type": 13, "city": "Irricana", "points": ""}, {"begin_at": 0, "area_id": 1194057, "name": "Wangerooge", "level": 1, "country": 276, "updated_at": 1455674299, "disable": 0, "end_at": 0, "shape": 0, "warning": 0, "radius": 2414, "lat": 53.786333, "lng": 7.912333, "type": 13, "city": "Wangerooge", "points": ""}, {"begin_at": 0, "area_id": 1194499, "name": "Donnelly", "level": 1, "country": 124, "updated_at": 1455674299, "disable": 0, "end_at": 0, "shape": 0, "warning": 0, "radius": 2414, "lat": 55.709344, "lng": -117.093908, "type": 13, "city": "Falher", "points": ""}, {"begin_at": 0, "area_id": 1194665, "name": "Gravelbourg", "level": 1, "country": 124, "updated_at": 1455674299, "disable": 0, "end_at": 0, "shape": 0, "warning": 0, "radius": 2414, "lat": 49.866667, "lng": -106.566667, "type": 13, "city": "Gravelbourg", "points": ""}, {"begin_at": 0, "area_id": 1194753, "name": "Kaslo", "level": 1, "country": 124, "updated_at": 1455674299, "disable": 0, "end_at": 0, "shape": 0, "warning": 0, "radius": 2414, "lat": 49.903611, "lng": -116.935278, "type": 13, "city": "New Denver", "points": ""}, {"begin_at": 0, "area_id": 1194765, "name": "Killarney", "level": 1, "country": 124, "updated_at": 1455674299, "disable": 0, "end_at": 0, "shape": 0, "warning": 0, "radius": 2414, "lat": 45.9775, "lng": -81.494722, "type": 13, "city": "Little Current", "points": ""}, {"begin_at": 0, "area_id": 1194775, "name": "Pembrey", "level": 1, "country": 826, "updated_at": 1455674299, "disable": 0, "end_at": 0, "shape": 0, "warning": 0, "radius": 2414, "lat": 51.713889, "lng": -4.312222, "type": 13, "city": "Kidwelly", "points": ""}, {"begin_at": 0, "area_id": 1194783, "name": "Kyle", "level": 1, "country": 124, "updated_at": 1455674299, "disable": 0, "end_at": 0, "shape": 0, "warning": 0, "radius": 2414, "lat": 50.833333, "lng": -108.07, "type": 13, "city": "Kyle", "points": ""}, {"begin_at": 0, "area_id": 1194893, "name": "McEwen", "level": 1, "country": 124, "updated_at": 1455674299, "disable": 0, "end_at": 0, "shape": 0, "warning": 0, "radius": 2414, "lat": 46.153889, "lng": -64.768611, "type": 13, "city": "Moncton", "points": ""}, {"begin_at": 0, "area_id": 1194927, "name": "Nestor Falls", "level": 1, "country": 124, "updated_at": 1455674299, "disable": 0, "end_at": 0, "shape": 0, "warning": 0, "radius": 2414, "lat": 49.140278, "lng": -93.916944, "type": 13, "city": "", "points": ""}, {"begin_at": 0, "area_id": 1195135, "name": "Espinho", "level": 1, "country": 620, "updated_at": 1455674299, "disable": 0, "end_at": 0, "shape": 0, "warning": 0, "radius": 2414, "lat": 40.9725, "lng": -8.645, "type": 13, "city": "Esmoriz", "points": ""}, {"begin_at": 0, "area_id": 1195217, "name": "Ludvika", "level": 1, "country": 752, "updated_at": 1455674299, "disable": 0, "end_at": 0, "shape": 0, "warning": 0, "radius": 2414, "lat": 60.088333, "lng": 15.096389, "type": 13, "city": "Gr\u00e4ngesberg", "points": ""}, {"begin_at": 0, "area_id": 1195305, "name": "Salaberry De Valleyfield", "level": 1, "country": 124, "updated_at": 1455674299, "disable": 0, "end_at": 0, "shape": 0, "warning": 0, "radius": 2414, "lat": 45.208333, "lng": -74.141389, "type": 13, "city": "Salaberry-de-Valleyfield", "points": ""}, {"begin_at": 0, "area_id": 1195461, "name": "Kastelorizo", "level": 1, "country": 300, "updated_at": 1455674299, "disable": 0, "end_at": 0, "shape": 0, "warning": 0, "radius": 2414, "lat": 36.141667, "lng": 29.576389, "type": 13, "city": "Meg\u00edsti", "points": ""}, {"begin_at": 0, "area_id": 1195469, "name": "Two Hills", "level": 1, "country": 124, "updated_at": 1455674299, "disable": 0, "end_at": 0, "shape": 0, "warning": 0, "radius": 2414, "lat": 53.7, "lng": -111.783333, "type": 13, "city": "Two Hills", "points": ""}, {"begin_at": 0, "area_id": 1195527, "name": "Vulcan", "level": 1, "country": 124, "updated_at": 1455674299, "disable": 0, "end_at": 0, "shape": 0, "warning": 0, "radius": 2414, "lat": 50.404722, "lng": -113.283333, "type": 13, "city": "Vulcan", "points": ""}, {"begin_at": 0, "area_id": 1195753, "name": "Rivanazzano", "level": 1, "country": 380, "updated_at": 1455674299, "disable": 0, "end_at": 0, "shape": 0, "warning": 0, "radius": 2414, "lat": 44.960278, "lng": 9.009722, "type": 13, "city": "Retorbido", "points": ""}, {"begin_at": 0, "area_id": 1195809, "name": "Meiringen", "level": 1, "country": 756, "updated_at": 1455674299, "disable": 0, "end_at": 0, "shape": 0, "warning": 0, "radius": 2414, "lat": 46.741667, "lng": 8.108333, "type": 13, "city": "Brienz", "points": ""}, {"begin_at": 0, "area_id": 1195813, "name": "Alpnach", "level": 1, "country": 756, "updated_at": 1455674299, "disable": 0, "end_at": 0, "shape": 0, "warning": 0, "radius": 2414, "lat": 46.943333, "lng": 8.283333, "type": 13, "city": "Alpnach", "points": ""}, {"begin_at": 0, "area_id": 1195841, "name": "Botiflaca", "level": 1, "country": 604, "updated_at": 1455674299, "disable": 0, "end_at": 0, "shape": 0, "warning": 0, "radius": 2414, "lat": -17.070833, "lng": -70.770833, "type": 13, "city": "Torata", "points": ""}, {"begin_at": 0, "area_id": 1195845, "name": "Huamachuco", "level": 1, "country": 604, "updated_at": 1455674299, "disable": 0, "end_at": 0, "shape": 0, "warning": 0, "radius": 2414, "lat": -7.666667, "lng": -78.083333, "type": 13, "city": "Marcabal", "points": ""}, {"begin_at": 0, "area_id": 1195935, "name": "Laeso", "level": 1, "country": 208, "updated_at": 1455674299, "disable": 0, "end_at": 0, "shape": 0, "warning": 0, "radius": 2414, "lat": 57.277228, "lng": 11.000083, "type": 13, "city": "Byrum", "points": ""}, {"begin_at": 0, "area_id": 1195941, "name": "Krusa-Padborg", "level": 1, "country": 276, "updated_at": 1455674299, "disable": 0, "end_at": 0, "shape": 0, "warning": 0, "radius": 2414, "lat": 54.870306, "lng": 9.279014, "type": 13, "city": "Jardelund", "points": ""}, {"begin_at": 0, "area_id": 1195961, "name": "LUGO di Romagna", "level": 1, "country": 380, "updated_at": 1455674299, "disable": 0, "end_at": 0, "shape": 0, "warning": 0, "radius": 2414, "lat": 44.398056, "lng": 11.854722, "type": 13, "city": "Bagnara di Romagna", "points": ""}, {"begin_at": 0, "area_id": 1196041, "name": "Borgarfjordur Eystri", "level": 1, "country": 352, "updated_at": 1455674299, "disable": 0, "end_at": 0, "shape": 0, "warning": 0, "radius": 2414, "lat": 65.516389, "lng": -13.805, "type": 13, "city": "Borgarfj\u00f6r\u00f0ur Eystri", "points": ""}, {"begin_at": 0, "area_id": 1196057, "name": "Grimsstadir", "level": 1, "country": 352, "updated_at": 1455674299, "disable": 0, "end_at": 0, "shape": 0, "warning": 0, "radius": 2414, "lat": 65.6325, "lng": -16.148333, "type": 13, "city": "Laugar", "points": ""}, {"begin_at": 0, "area_id": 1196107, "name": "Svidnik", "level": 1, "country": 703, "updated_at": 1455674299, "disable": 0, "end_at": 0, "shape": 0, "warning": 0, "radius": 2414, "lat": 49.333889, "lng": 21.570278, "type": 13, "city": "Svidn\u00edk", "points": ""}, {"begin_at": 0, "area_id": 1196185, "name": "Zutendaal", "level": 1, "country": 56, "updated_at": 1455674299, "disable": 0, "end_at": 0, "shape": 0, "warning": 0, "radius": 2414, "lat": 50.9475, "lng": 5.590556, "type": 13, "city": "Zutendaal", "points": ""}, {"begin_at": 0, "area_id": 1196295, "name": "Line", "level": 1, "country": 203, "updated_at": 1455674299, "disable": 0, "end_at": 0, "shape": 0, "warning": 0, "radius": 2414, "lat": 49.675278, "lng": 13.274444, "type": 13, "city": "L\u00edn\u011b", "points": ""}, {"begin_at": 0, "area_id": 1196391, "name": "Ponta do Ouro", "level": 1, "country": 710, "updated_at": 1455674299, "disable": 0, "end_at": 0, "shape": 0, "warning": 0, "radius": 2414, "lat": -26.833333, "lng": 23.833333, "type": 13, "city": "", "points": ""}, {"begin_at": 0, "area_id": 1196423, "name": "Vilseck AAF", "level": 1, "country": 276, "updated_at": 1455674299, "disable": 0, "end_at": 0, "shape": 0, "warning": 0, "radius": 2414, "lat": 49.633611, "lng": 11.767222, "type": 13, "city": "Vilseck", "points": ""}, {"begin_at": 0, "area_id": 1196461, "name": "Lieksa-Nurmes", "level": 1, "country": 246, "updated_at": 1455674299, "disable": 0, "end_at": 0, "shape": 0, "warning": 0, "radius": 2414, "lat": 63.511944, "lng": 29.629167, "type": 13, "city": "", "points": ""}, {"begin_at": 0, "area_id": 1196463, "name": "Menkijarvi", "level": 1, "country": 246, "updated_at": 1455674299, "disable": 0, "end_at": 0, "shape": 0, "warning": 0, "radius": 2414, "lat": 62.946667, "lng": 23.518889, "type": 13, "city": "Alaj\u00e4rvi", "points": ""}, {"begin_at": 0, "area_id": 1196469, "name": "Pieksamaki", "level": 1, "country": 246, "updated_at": 1455674299, "disable": 0, "end_at": 0, "shape": 0, "warning": 0, "radius": 2414, "lat": 62.264722, "lng": 27.002778, "type": 13, "city": "Tohmaj\u00e4rvi", "points": ""}, {"begin_at": 0, "area_id": 1196475, "name": "Punkaharju", "level": 1, "country": 246, "updated_at": 1455674299, "disable": 0, "end_at": 0, "shape": 0, "warning": 0, "radius": 2414, "lat": 61.728889, "lng": 29.393611, "type": 13, "city": "", "points": ""}, {"begin_at": 0, "area_id": 1196537, "name": "Kyviskes", "level": 1, "country": 440, "updated_at": 1455674299, "disable": 0, "end_at": 0, "shape": 0, "warning": 0, "radius": 2414, "lat": 54.668056, "lng": 25.515833, "type": 13, "city": "Skaidi\u0161k\u0117s", "points": ""}, {"begin_at": 0, "area_id": 1196635, "name": "Bundespolizei", "level": 0, "country": 276, "updated_at": 1462728000, "disable": 0, "end_at": 0, "shape": 0, "warning": 1, "radius": 2414, "lat": 48.23795, "lng": 11.565419, "type": 19, "city": "Oberschlei\u00dfheim", "points": ""}, {"begin_at": 0, "area_id": 1196791, "name": "Long Marston", "level": 1, "country": 826, "updated_at": 1455674299, "disable": 0, "end_at": 0, "shape": 0, "warning": 0, "radius": 2414, "lat": 52.140667, "lng": -1.753, "type": 13, "city": "Mickleton", "points": ""}, {"begin_at": 0, "area_id": 1196807, "name": "Strubby North", "level": 1, "country": 826, "updated_at": 1455674299, "disable": 0, "end_at": 0, "shape": 0, "warning": 0, "radius": 2414, "lat": 53.310833, "lng": 0.172, "type": 13, "city": "Mablethorpe", "points": ""}, {"begin_at": 0, "area_id": 1196823, "name": "Atirro", "level": 1, "country": 188, "updated_at": 1455674299, "disable": 0, "end_at": 0, "shape": 0, "warning": 0, "radius": 2414, "lat": 9.85, "lng": -83.65, "type": 13, "city": "La Suiza", "points": ""}, {"begin_at": 0, "area_id": 1197121, "name": "La Managua", "level": 1, "country": 188, "updated_at": 1455674299, "disable": 0, "end_at": 0, "shape": 0, "warning": 0, "radius": 2414, "lat": 9.443, "lng": -84.129861, "type": 13, "city": "Quepos", "points": ""}, {"begin_at": 0, "area_id": 1197153, "name": "Pelon Nuevo", "level": 1, "country": 188, "updated_at": 1455674299, "disable": 0, "end_at": 0, "shape": 0, "warning": 0, "radius": 2414, "lat": 10.485889, "lng": -85.416583, "type": 13, "city": "", "points": ""}, {"begin_at": 0, "area_id": 1197187, "name": "Santa Maria de Guacimo", "level": 1, "country": 188, "updated_at": 1455674299, "disable": 0, "end_at": 0, "shape": 0, "warning": 0, "radius": 2414, "lat": 10.270778, "lng": -83.583778, "type": 13, "city": "Pocora", "points": ""}, {"begin_at": 0, "area_id": 1197445, "name": "Motueka", "level": 1, "country": 554, "updated_at": 1455674299, "disable": 0, "end_at": 0, "shape": 0, "warning": 0, "radius": 2414, "lat": -41.123333, "lng": 172.988611, "type": 13, "city": "Port Motueka", "points": ""}, {"begin_at": 0, "area_id": 1197457, "name": "Talakan", "level": 1, "country": 643, "updated_at": 1455674299, "disable": 0, "end_at": 0, "shape": 0, "warning": 0, "radius": 2414, "lat": 59.881667, "lng": 111.045556, "type": 13, "city": "", "points": ""}, {"begin_at": 0, "area_id": 1197487, "name": "Sir Bani Yas Island", "level": 1, "country": 784, "updated_at": 1455674299, "disable": 0, "end_at": 0, "shape": 0, "warning": 0, "radius": 2414, "lat": 24.283056, "lng": 52.581111, "type": 13, "city": "", "points": ""}, {"begin_at": 0, "area_id": 1197529, "name": "Kalbarri", "level": 1, "country": 36, "updated_at": 1455674299, "disable": 0, "end_at": 0, "shape": 0, "warning": 0, "radius": 2414, "lat": -27.691667, "lng": 114.26, "type": 13, "city": "Kalbarri", "points": ""}, {"begin_at": 0, "area_id": 1197553, "name": "Coban", "level": 1, "country": 320, "updated_at": 1455674299, "disable": 0, "end_at": 0, "shape": 0, "warning": 0, "radius": 2414, "lat": 15.468889, "lng": -90.406667, "type": 13, "city": "Cob\u00e1n", "points": ""}, {"begin_at": 0, "area_id": 1197581, "name": "Zacapa", "level": 1, "country": 320, "updated_at": 1455674299, "disable": 0, "end_at": 0, "shape": 0, "warning": 0, "radius": 2414, "lat": 14.96, "lng": -89.538889, "type": 13, "city": "Zacapa", "points": ""}, {"begin_at": 0, "area_id": 1197583, "name": "Chiquimula", "level": 1, "country": 320, "updated_at": 1455674299, "disable": 0, "end_at": 0, "shape": 0, "warning": 0, "radius": 2414, "lat": 14.830833, "lng": -89.520833, "type": 13, "city": "Chiquimula", "points": ""}, {"begin_at": 0, "area_id": 1197645, "name": "Groblersdal / Kobus de Villiers", "level": 1, "country": 710, "updated_at": 1455674299, "disable": 0, "end_at": 0, "shape": 0, "warning": 0, "radius": 2414, "lat": -25.186767, "lng": 29.403292, "type": 13, "city": "Groblersdal", "points": ""}, {"begin_at": 0, "area_id": 1197859, "name": "Kabompo", "level": 1, "country": 894, "updated_at": 1455674299, "disable": 0, "end_at": 0, "shape": 0, "warning": 0, "radius": 2414, "lat": -13.566667, "lng": 24.216667, "type": 13, "city": "Kabompo", "points": ""}, {"begin_at": 0, "area_id": 1197883, "name": "Lesa", "level": 1, "country": 894, "updated_at": 1455674299, "disable": 0, "end_at": 0, "shape": 0, "warning": 0, "radius": 2414, "lat": -13.566667, "lng": 28.066667, "type": 13, "city": "Mpongwe", "points": ""}, {"begin_at": 0, "area_id": 1197931, "name": "West Three", "level": 1, "country": 894, "updated_at": 1455674299, "disable": 0, "end_at": 0, "shape": 0, "warning": 0, "radius": 2414, "lat": -13.35, "lng": 26.583333, "type": 13, "city": "", "points": ""}, {"begin_at": 0, "area_id": 1198129, "name": "Mosteiros", "level": 1, "country": 132, "updated_at": 1455674299, "disable": 0, "end_at": 0, "shape": 0, "warning": 0, "radius": 2414, "lat": 15.045, "lng": -24.34, "type": 13, "city": "Porto dos Mosteiros", "points": ""}, {"begin_at": 0, "area_id": 1198143, "name": "Eliye Springs", "level": 1, "country": 404, "updated_at": 1455674299, "disable": 0, "end_at": 0, "shape": 0, "warning": 0, "radius": 2414, "lat": 3.213661, "lng": 35.9675, "type": 13, "city": "Lodwar", "points": ""}, {"begin_at": 0, "area_id": 1198163, "name": "Bungoma", "level": 1, "country": 404, "updated_at": 1455674299, "disable": 0, "end_at": 0, "shape": 0, "warning": 0, "radius": 2414, "lat": 0.563906, "lng": 34.550689, "type": 13, "city": "Bungoma", "points": ""}, {"begin_at": 0, "area_id": 1198171, "name": "Garba Tula", "level": 1, "country": 404, "updated_at": 1455674299, "disable": 0, "end_at": 0, "shape": 0, "warning": 0, "radius": 2414, "lat": 0.530572, "lng": 38.517533, "type": 13, "city": "Garba Tula", "points": ""}, {"begin_at": 0, "area_id": 1198199, "name": "Buffalo Springs", "level": 1, "country": 404, "updated_at": 1455674299, "disable": 0, "end_at": 0, "shape": 0, "warning": 0, "radius": 2414, "lat": 0.533494, "lng": 37.532794, "type": 13, "city": "", "points": ""}, {"begin_at": 0, "area_id": 1198219, "name": "Beni Walid", "level": 1, "country": 434, "updated_at": 1455674299, "disable": 0, "end_at": 0, "shape": 0, "warning": 0, "radius": 2414, "lat": 31.734722, "lng": 13.951389, "type": 13, "city": "Ban\u012b Wal\u012bd", "points": ""}, {"begin_at": 0, "area_id": 1198233, "name": "Martubah", "level": 1, "country": 434, "updated_at": 1455674299, "disable": 0, "end_at": 0, "shape": 0, "warning": 0, "radius": 2414, "lat": 32.540833, "lng": 22.743889, "type": 13, "city": "Matrubah", "points": ""}, {"begin_at": 0, "area_id": 1198591, "name": "Laguna Seca", "level": 1, "country": 340, "updated_at": 1455674299, "disable": 0, "end_at": 0, "shape": 0, "warning": 0, "radius": 2414, "lat": 14.651944, "lng": -86.067222, "type": 13, "city": "San Francisco de Becerra", "points": ""}, {"begin_at": 0, "area_id": 1198807, "name": "Muar/Bakri", "level": 1, "country": 458, "updated_at": 1455674299, "disable": 0, "end_at": 0, "shape": 0, "warning": 0, "radius": 2414, "lat": 2.05, "lng": 102.648333, "type": 13, "city": "Bakri", "points": ""}, {"begin_at": 0, "area_id": 1198811, "name": "Segamat", "level": 1, "country": 458, "updated_at": 1455674299, "disable": 0, "end_at": 0, "shape": 0, "warning": 0, "radius": 2414, "lat": 2.5, "lng": 102.831667, "type": 13, "city": "Segamat", "points": ""}, {"begin_at": 0, "area_id": 1198823, "name": "Capitan Bernardino Caballero Albarez", "level": 1, "country": 600, "updated_at": 1455674299, "disable": 0, "end_at": 0, "shape": 0, "warning": 0, "radius": 2414, "lat": -24.032222, "lng": -54.350833, "type": 13, "city": "Salto del Guair\u00e1", "points": ""}, {"begin_at": 0, "area_id": 1198843, "name": "Bario", "level": 1, "country": 458, "updated_at": 1455674299, "disable": 0, "end_at": 0, "shape": 0, "warning": 0, "radius": 2414, "lat": 3.736944, "lng": 115.469444, "type": 13, "city": "Bareo", "points": ""}, {"begin_at": 0, "area_id": 1198857, "name": "Simpang", "level": 1, "country": 458, "updated_at": 1455674299, "disable": 0, "end_at": 0, "shape": 0, "warning": 0, "radius": 2414, "lat": 3.111389, "lng": 101.702778, "type": 13, "city": "Kuala Lumpur", "points": ""}, {"begin_at": 0, "area_id": 1198879, "name": "Los Confines", "level": 1, "country": 152, "updated_at": 1455674299, "disable": 0, "end_at": 0, "shape": 0, "warning": 0, "radius": 2414, "lat": -37.794722, "lng": -72.687222, "type": 13, "city": "Angol", "points": ""}, {"begin_at": 0, "area_id": 1200897, "name": "Bila Tserkva", "level": 1, "country": 804, "updated_at": 1455674299, "disable": 0, "end_at": 0, "shape": 0, "warning": 0, "radius": 2414, "lat": 49.796111, "lng": 30.024444, "type": 13, "city": "Bila Tserkva", "points": ""}, {"begin_at": 0, "area_id": 1199305, "name": "Laguna San Rafael", "level": 1, "country": 152, "updated_at": 1455674299, "disable": 0, "end_at": 0, "shape": 0, "warning": 0, "radius": 2414, "lat": -46.638889, "lng": -73.85, "type": 13, "city": "", "points": ""}, {"begin_at": 0, "area_id": 1199487, "name": "Bovanenkovo", "level": 1, "country": 643, "updated_at": 1455674299, "disable": 0, "end_at": 0, "shape": 0, "warning": 0, "radius": 2414, "lat": 70.315278, "lng": 68.333611, "type": 13, "city": "", "points": ""}, {"begin_at": 0, "area_id": 1199617, "name": "Rodelillo", "level": 1, "country": 152, "updated_at": 1455674299, "disable": 0, "end_at": 0, "shape": 0, "warning": 0, "radius": 2414, "lat": -33.068333, "lng": -71.5575, "type": 13, "city": "Vi\u00f1a del Mar", "points": ""}, {"begin_at": 0, "area_id": 1199749, "name": "La Trinidad de Arichuna", "level": 1, "country": 862, "updated_at": 1455674299, "disable": 0, "end_at": 0, "shape": 0, "warning": 0, "radius": 2414, "lat": 7.138333, "lng": -69.775, "type": 13, "city": "Elorza", "points": ""}, {"begin_at": 0, "area_id": 1200319, "name": "Sibisa", "level": 1, "country": 360, "updated_at": 1455674299, "disable": 0, "end_at": 0, "shape": 0, "warning": 0, "radius": 2414, "lat": 2.601444, "lng": 98.962917, "type": 13, "city": "Parapat", "points": ""}, {"begin_at": 0, "area_id": 1200323, "name": "Silangit", "level": 1, "country": 360, "updated_at": 1455674299, "disable": 0, "end_at": 0, "shape": 0, "warning": 0, "radius": 2414, "lat": 2.260556, "lng": 98.994167, "type": 13, "city": "Siborong-Borong", "points": ""}, {"begin_at": 0, "area_id": 1200349, "name": "Sulthan Syarief Haroen Setia Negara", "level": 1, "country": 360, "updated_at": 1455674299, "disable": 0, "end_at": 0, "shape": 0, "warning": 0, "radius": 2414, "lat": 0.504722, "lng": 101.922778, "type": 13, "city": "", "points": ""}, {"begin_at": 0, "area_id": 1200351, "name": "Raja Haji Abdullah", "level": 1, "country": 360, "updated_at": 1455674299, "disable": 0, "end_at": 0, "shape": 0, "warning": 0, "radius": 2414, "lat": 1.05, "lng": 103.383333, "type": 13, "city": "Tebing", "points": ""}, {"begin_at": 0, "area_id": 1200385, "name": "Kota Baru", "level": 1, "country": 360, "updated_at": 1455674299, "disable": 0, "end_at": 0, "shape": 0, "warning": 0, "radius": 2414, "lat": -3.991667, "lng": 116.104167, "type": 13, "city": "Lontar", "points": ""}, {"begin_at": 0, "area_id": 1200389, "name": "Tanjung Warukin", "level": 1, "country": 360, "updated_at": 1455674299, "disable": 0, "end_at": 0, "shape": 0, "warning": 0, "radius": 2414, "lat": -2.212778, "lng": 115.4425, "type": 13, "city": "Tanta", "points": ""}, {"begin_at": 0, "area_id": 1200423, "name": "Tj. Harapan", "level": 1, "country": 360, "updated_at": 1455674299, "disable": 0, "end_at": 0, "shape": 0, "warning": 0, "radius": 2414, "lat": 2.833333, "lng": 117.9, "type": 13, "city": "Tanjung Selor", "points": ""}, {"begin_at": 0, "area_id": 1200453, "name": "Olilit", "level": 1, "country": 360, "updated_at": 1455674299, "disable": 0, "end_at": 0, "shape": 0, "warning": 0, "radius": 2414, "lat": -7.95, "lng": 131.3, "type": 13, "city": "", "points": ""}, {"begin_at": 0, "area_id": 1200567, "name": "Senggeh", "level": 1, "country": 360, "updated_at": 1455674299, "disable": 0, "end_at": 0, "shape": 0, "warning": 0, "radius": 2414, "lat": -3.44285, "lng": 140.778214, "type": 13, "city": "Sengge", "points": ""}, {"begin_at": 0, "area_id": 1200571, "name": "Soedjarwo Condronegoro", "level": 1, "country": 360, "updated_at": 1455674299, "disable": 0, "end_at": 0, "shape": 0, "warning": 0, "radius": 2414, "lat": -1.874167, "lng": 136.239444, "type": 13, "city": "Serui", "points": ""}, {"begin_at": 0, "area_id": 1200573, "name": "Tanah Merah", "level": 1, "country": 360, "updated_at": 1455674299, "disable": 0, "end_at": 0, "shape": 0, "warning": 0, "radius": 2414, "lat": -6.096192, "lng": 140.299867, "type": 13, "city": "Tanah Merah", "points": ""}, {"begin_at": 0, "area_id": 1200591, "name": "Ayawasi", "level": 1, "country": 360, "updated_at": 1455674299, "disable": 0, "end_at": 0, "shape": 0, "warning": 0, "radius": 2414, "lat": -1.159683, "lng": 132.465344, "type": 13, "city": "Aifat", "points": ""}, {"begin_at": 0, "area_id": 1200677, "name": "Semonkong", "level": 1, "country": 426, "updated_at": 1455674299, "disable": 0, "end_at": 0, "shape": 0, "warning": 0, "radius": 2414, "lat": -29.838889, "lng": 28.058333, "type": 13, "city": "", "points": ""}, {"begin_at": 0, "area_id": 1200879, "name": "Raron", "level": 1, "country": 756, "updated_at": 1455674299, "disable": 0, "end_at": 0, "shape": 0, "warning": 0, "radius": 2414, "lat": 46.304444, "lng": 7.821667, "type": 13, "city": "Raron", "points": ""}, {"begin_at": 0, "area_id": 1200889, "name": "Glentanner", "level": 1, "country": 554, "updated_at": 1455674299, "disable": 0, "end_at": 0, "shape": 0, "warning": 0, "radius": 2414, "lat": -43.907778, "lng": 170.129167, "type": 13, "city": "Mount Cook", "points": ""}, {"begin_at": 0, "area_id": 1200973, "name": "King Abdulaziz Naval Base", "level": 1, "country": 682, "updated_at": 1455674299, "disable": 0, "end_at": 0, "shape": 0, "warning": 0, "radius": 2414, "lat": 26.941603, "lng": 49.704158, "type": 13, "city": "Al Jubayl", "points": ""}, {"begin_at": 0, "area_id": 1200977, "name": "Parkland", "level": 1, "country": 124, "updated_at": 1455674299, "disable": 0, "end_at": 0, "shape": 0, "warning": 0, "radius": 2414, "lat": 53.474419, "lng": -113.829428, "type": 13, "city": "Spruce Grove", "points": ""}, {"begin_at": 0, "area_id": 1200993, "name": "Jask", "level": 1, "country": 364, "updated_at": 1455674299, "disable": 0, "end_at": 0, "shape": 0, "warning": 0, "radius": 2414, "lat": 25.653625, "lng": 57.7993, "type": 13, "city": "J\u0101sk", "points": ""}, {"begin_at": 0, "area_id": 1201033, "name": "Cnel. Raul Arias Espinoza", "level": 1, "country": 591, "updated_at": 1455674299, "disable": 0, "end_at": 0, "shape": 0, "warning": 0, "radius": 2414, "lat": 8.629167, "lng": -79.034444, "type": 13, "city": "Contadora", "points": ""}, {"begin_at": 0, "area_id": 1201037, "name": "Nebyloye", "level": 1, "country": 643, "updated_at": 1455674299, "disable": 0, "end_at": 0, "shape": 0, "warning": 0, "radius": 2414, "lat": 56.401389, "lng": 39.958056, "type": 13, "city": "", "points": ""}, {"begin_at": 0, "area_id": 1201059, "name": "Severny", "level": 1, "country": 643, "updated_at": 1455674299, "disable": 0, "end_at": 0, "shape": 0, "warning": 0, "radius": 2414, "lat": 53.717222, "lng": 52.371667, "type": 13, "city": "Buguruslan", "points": ""}, {"begin_at": 0, "area_id": 1201147, "name": "Myachkovo", "level": 1, "country": 643, "updated_at": 1455674299, "disable": 0, "end_at": 0, "shape": 0, "warning": 0, "radius": 2414, "lat": 55.560833, "lng": 37.983889, "type": 13, "city": "Ostrovtsy", "points": ""}, {"begin_at": 0, "area_id": 1201313, "name": "THO XUAN", "level": 1, "country": 704, "updated_at": 1455674299, "disable": 0, "end_at": 0, "shape": 0, "warning": 0, "radius": 2414, "lat": 19.9025, "lng": 105.469167, "type": 13, "city": "Th\u1ecd Xu\u00e2n", "points": ""}, {"begin_at": 0, "area_id": 1201397, "name": "Marugan", "level": 1, "country": 724, "updated_at": 1455674299, "disable": 0, "end_at": 0, "shape": 0, "warning": 0, "radius": 2414, "lat": 40.910556, "lng": -4.369722, "type": 13, "city": "Marug\u00e1n", "points": ""}, {"begin_at": 0, "area_id": 1201405, "name": "GBU Oblastnoy Aeroport Protasovo", "level": 1, "country": 643, "updated_at": 1455674299, "disable": 0, "end_at": 0, "shape": 0, "warning": 0, "radius": 2414, "lat": 54.493333, "lng": 39.930833, "type": 13, "city": "", "points": ""}, {"begin_at": 0, "area_id": 1201451, "name": "Ahlhorn", "level": 1, "country": 276, "updated_at": 1455674299, "disable": 0, "end_at": 0, "shape": 0, "warning": 0, "radius": 2414, "lat": 52.888833, "lng": 8.232833, "type": 13, "city": "Gro\u00dfenkneten", "points": ""}, {"begin_at": 0, "area_id": 1201507, "name": "RoAF 71st Air Base", "level": 1, "country": 642, "updated_at": 1455674299, "disable": 0, "end_at": 0, "shape": 0, "warning": 0, "radius": 2414, "lat": 46.502222, "lng": 23.885833, "type": 13, "city": "C\u0103l\u0103ra\u015fi", "points": ""}, {"begin_at": 0, "area_id": 1201529, "name": "Zeya", "level": 1, "country": 643, "updated_at": 1455674299, "disable": 0, "end_at": 0, "shape": 0, "warning": 0, "radius": 2414, "lat": 53.689444, "lng": 127.091667, "type": 13, "city": "Zeya", "points": ""}, {"begin_at": 0, "area_id": 1201575, "name": "Kikity", "level": 1, "country": 616, "updated_at": 1455674299, "disable": 0, "end_at": 0, "shape": 0, "warning": 0, "radius": 2414, "lat": 53.983056, "lng": 20.877222, "type": 13, "city": "Czerwonka", "points": ""}, {"begin_at": 0, "area_id": 1201635, "name": "Kadapa", "level": 1, "country": 356, "updated_at": 1455674299, "disable": 0, "end_at": 0, "shape": 0, "warning": 0, "radius": 2414, "lat": 14.513028, "lng": 78.772194, "type": 13, "city": "Cuddapah", "points": ""}, {"begin_at": 0, "area_id": 1201683, "name": "Combolcha", "level": 1, "country": 231, "updated_at": 1455674299, "disable": 0, "end_at": 0, "shape": 0, "warning": 0, "radius": 2414, "lat": 11.101389, "lng": 39.727222, "type": 13, "city": "Kombolcha", "points": ""}, {"begin_at": 0, "area_id": 1132700, "name": "ARCATA", "level": 1, "country": 840, "updated_at": 1455674299, "disable": 0, "end_at": 0, "shape": 0, "warning": 0, "radius": 2414, "lat": 40.977833, "lng": -124.108472, "type": 13, "city": "McKinleyville", "points": ""}, {"begin_at": 0, "area_id": 1132736, "name": "NEBRASKA CITY MUNI", "level": 1, "country": 840, "updated_at": 1455674299, "disable": 0, "end_at": 0, "shape": 0, "warning": 0, "radius": 2414, "lat": 40.606528, "lng": -95.866667, "type": 13, "city": "Nebraska City", "points": ""}, {"begin_at": 0, "area_id": 1132742, "name": "ANSON COUNTY -  JEFF CLOUD FIELD", "level": 1, "country": 840, "updated_at": 1455674299, "disable": 0, "end_at": 0, "shape": 0, "warning": 0, "radius": 2414, "lat": 35.020638, "lng": -80.077118, "type": 13, "city": "Wadesboro", "points": ""}, {"begin_at": 0, "area_id": 1132756, "name": "AMEDEE AAF", "level": 1, "country": 840, "updated_at": 1455674299, "disable": 0, "end_at": 0, "shape": 0, "warning": 0, "radius": 2414, "lat": 40.265918, "lng": -120.150613, "type": 13, "city": "Janesville", "points": ""}, {"begin_at": 0, "area_id": 1132758, "name": "AMERY MUNI", "level": 1, "country": 840, "updated_at": 1455674299, "disable": 0, "end_at": 0, "shape": 0, "warning": 0, "radius": 2414, "lat": 45.281148, "lng": -92.375392, "type": 13, "city": "Amery", "points": ""}, {"begin_at": 0, "area_id": 1132770, "name": "LANGLADE COUNTY", "level": 1, "country": 840, "updated_at": 1455674299, "disable": 0, "end_at": 0, "shape": 0, "warning": 0, "radius": 2414, "lat": 45.15395, "lng": -89.110617, "type": 13, "city": "Antigo", "points": ""}, {"begin_at": 0, "area_id": 1132776, "name": "AITKIN MUNI-STEVE KURTZ FIELD", "level": 1, "country": 840, "updated_at": 1455674299, "disable": 0, "end_at": 0, "shape": 0, "warning": 0, "radius": 2414, "lat": 46.548462, "lng": -93.676632, "type": 13, "city": "Aitkin", "points": ""}, {"begin_at": 0, "area_id": 1132784, "name": "CORONA MUNI", "level": 1, "country": 840, "updated_at": 1455674299, "disable": 0, "end_at": 0, "shape": 0, "warning": 0, "radius": 2414, "lat": 33.897654, "lng": -117.60244, "type": 13, "city": "Corona", "points": ""}, {"begin_at": 0, "area_id": 1132788, "name": "BLAKE FIELD", "level": 1, "country": 840, "updated_at": 1455674299, "disable": 0, "end_at": 0, "shape": 0, "warning": 0, "radius": 2414, "lat": 38.786417, "lng": -108.063639, "type": 13, "city": "Delta", "points": ""}, {"begin_at": 0, "area_id": 1132802, "name": "ALAMOGORDO-WHITE SANDS RGNL", "level": 1, "country": 840, "updated_at": 1455674299, "disable": 0, "end_at": 0, "shape": 0, "warning": 0, "radius": 2414, "lat": 32.841278, "lng": -105.988861, "type": 13, "city": "Boles Acres", "points": ""}, {"begin_at": 0, "area_id": 1132808, "name": "SAN LUIS VALLEY RGNL/BERGMAN FIELD", "level": 1, "country": 840, "updated_at": 1455674299, "disable": 0, "end_at": 0, "shape": 0, "warning": 0, "radius": 2414, "lat": 37.435126, "lng": -105.867876, "type": 13, "city": "Alamosa", "points": ""}, {"begin_at": 0, "area_id": 1132820, "name": "ALEXANDER SALAMON", "level": 1, "country": 840, "updated_at": 1455674299, "disable": 0, "end_at": 0, "shape": 0, "warning": 0, "radius": 2414, "lat": 38.851475, "lng": -83.566261, "type": 13, "city": "West Union", "points": ""},