{"release_limits": [{"begin_at": 0, "area_id": 1240326, "name": "IRKUTSK CTR 1", "level": 0, "country": 643, "updated_at": 1457569401, "disable": 0, "end_at": 0, "shape": 0, "warning": 1, "radius": 10119, "lat": 52.539722, "lng": 103.950833, "type": 16, "city": "Angarsk", "points": ""}, {"begin_at": 0, "area_id": 1240327, "name": "KHABAROVSK CTR 1", "level": 0, "country": 643, "updated_at": 1457569401, "disable": 0, "end_at": 0, "shape": 0, "warning": 1, "radius": 14211, "lat": 48.527639, "lng": 135.193333, "type": 16, "city": "Topol\u00ebvo", "points": ""}, {"begin_at": 0, "area_id": 1240328, "name": "KHABAROVSK CTR 2", "level": 0, "country": 643, "updated_at": 1457569401, "disable": 0, "end_at": 0, "shape": 0, "warning": 1, "radius": 9414, "lat": 48.534444, "lng": 135.282117, "type": 16, "city": "Topol\u00ebvo", "points": ""}, {"begin_at": 0, "area_id": 1240329, "name": "KHABAROVSK CTR 3", "level": 0, "country": 643, "updated_at": 1457569401, "disable": 0, "end_at": 0, "shape": 0, "warning": 1, "radius": 11576, "lat": 48.589177, "lng": 135.167917, "type": 16, "city": "Topol\u00ebvo", "points": ""}, {"begin_at": 0, "area_id": 1241788, "name": "R584", "level": 3, "country": 643, "updated_at": 1457569401, "disable": 0, "end_at": 0, "shape": 0, "warning": 0, "radius": 12128, "lat": 42.164837, "lng": 45.982222, "type": 28, "city": "Bezhta", "points": "POLYGON ((45.8775 42.241389, 46.080278 42.241667, 46.086944 42.088333, 45.933333 42.088333, 45.916667 42.111667, 45.876667 42.113333, 45.8775 42.241389))"}, {"begin_at": 0, "area_id": 1240330, "name": "ARKHANGELSK/TALAGI CTR 1", "level": 0, "country": 643, "updated_at": 1457569401, "disable": 0, "end_at": 0, "shape": 0, "warning": 1, "radius": 64333, "lat": 64.687742, "lng": 40.718975, "type": 16, "city": "", "points": ""}, {"begin_at": 0, "area_id": 1240331, "name": "ARKHANGELSK/TALAGI CTR 2", "level": 0, "country": 643, "updated_at": 1457569401, "disable": 0, "end_at": 0, "shape": 0, "warning": 1, "radius": 50257, "lat": 64.350661, "lng": 40.615139, "type": 16, "city": "Katunino", "points": ""}, {"begin_at": 0, "area_id": 1241831, "name": "OSORIO", "level": 3, "country": 76, "updated_at": 1457569401, "disable": 0, "end_at": 0, "shape": 0, "warning": 0, "radius": 13698, "lat": -29.825377, "lng": -50.292167, "type": 28, "city": "", "points": "POLYGON ((-50.317167 -29.917167, -50.417167 -29.883667, -50.167167 -29.767167, -50.2005 -29.883667, -50.317167 -29.917167))"}, {"begin_at": 0, "area_id": 1240332, "name": "ULAN-UDE/MUKHINO CTR", "level": 0, "country": 643, "updated_at": 1457569401, "disable": 0, "end_at": 0, "shape": 0, "warning": 1, "radius": 53259, "lat": 51.808194, "lng": 107.510227, "type": 16, "city": "Sokol", "points": ""}, {"begin_at": 0, "area_id": 274308, "name": "Brea Expansion Plant", "level": 0, "country": 840, "updated_at": 1442279667, "disable": 0, "end_at": 0, "shape": 0, "warning": 1, "radius": 805, "lat": 33.932022, "lng": -117.840233, "type": 23, "city": "Brea", "points": ""}, {"begin_at": 0, "area_id": 1240338, "name": "MINERALNYYE VODY CTR", "level": 0, "country": 643, "updated_at": 1457569401, "disable": 0, "end_at": 0, "shape": 0, "warning": 1, "radius": 42463, "lat": 44.226723, "lng": 43.083039, "type": 16, "city": "Andzhiyevskiy", "points": ""}, {"begin_at": 0, "area_id": 1241868, "name": "R523", "level": 3, "country": 458, "updated_at": 1457569401, "disable": 0, "end_at": 0, "shape": 0, "warning": 0, "radius": 52145, "lat": 6.233282, "lng": 115.7, "type": 28, "city": "", "points": "POLYGON ((115.366667 5.9, 115.367992 5.941898, 115.37194 5.983628, 115.378497 6.025025, 115.387637 6.065926, 115.399325 6.10617, 115.413514 6.145597, 115.430149 6.184053, 115.449164 6.221386, 115.470485 6.257448, 115.494027 6.292097, 115.519698 6.325196, 115.547396 6.356614, 115.577013 6.386228, 115.608431 6.413921, 115.641526 6.439583, 115.676167 6.463113, 115.712217 6.484419, 115.749534 6.503415, 115.78797 6.520028, 115.827373 6.534191, 115.867587 6.54585, 115.908452 6.554957, 115.949808 6.561478, 115.99149 6.565386, 116.033333 6.566667, 116.033333 6.233333, 116.002603 6.231937, 115.97213 6.227707, 115.942175 6.220681, 115.912995 6.210916, 115.884838 6.198497, 115.857946 6.183529, 115.832547 6.166139, 115.80886 6.146476, 115.787086 6.124707, 115.767411 6.101018, 115.750004 6.075611, 115.735013 6.048702, 115.722566 6.020521, 115.71277 5.991307, 115.705707 5.961312, 115.701438 5.930789, 115.7 5.9, 115.366667 5.9))"}, {"begin_at": 0, "area_id": 1241873, "name": "MEUCON", "level": 3, "country": 250, "updated_at": 1457569401, "disable": 0, "end_at": 0, "shape": 0, "warning": 0, "radius": 2576, "lat": 47.743053, "lng": -2.79522, "type": 28, "city": "Meucon", "points": "POLYGON ((-2.826389 47.752778, -2.772222 47.752778, -2.761111 47.740278, -2.772222 47.733333, -2.826389 47.733333, -2.826389 47.752778))"}, {"begin_at": 0, "area_id": 1128155, "name": "KINGSTON RANCH", "level": 0, "country": 840, "updated_at": 1455674299, "disable": 0, "end_at": 0, "shape": 0, "warning": 1, "radius": 8047, "lat": 35.755531, "lng": -115.664728, "type": 31, "city": "Sandy Valley", "points": ""}, {"begin_at": 0, "area_id": 1240339, "name": "SAUCE VIEJO ATZ", "level": 0, "country": 32, "updated_at": 1457569401, "disable": 0, "end_at": 0, "shape": 0, "warning": 1, "radius": 13093, "lat": -31.711666, "lng": -64.806389, "type": 16, "city": "", "points": ""}, {"begin_at": 0, "area_id": 270136, "name": "Boyds Mill Hydro", "level": 0, "country": 840, "updated_at": 1442279561, "disable": 0, "end_at": 0, "shape": 0, "warning": 1, "radius": 805, "lat": 34.455514, "lng": -82.199339, "type": 23, "city": "Laurens", "points": ""}, {"begin_at": 0, "area_id": 1240340, "name": "ESCUELA DE AVIACION ATZ", "level": 0, "country": 32, "updated_at": 1457569401, "disable": 0, "end_at": 0, "shape": 0, "warning": 1, "radius": 10475, "lat": -31.437778, "lng": -64.275833, "type": 16, "city": "C\u00f3rdoba", "points": ""}, {"begin_at": 0, "area_id": 274342, "name": "Atlantic Coast Freezers Solar Facility", "level": 0, "country": 840, "updated_at": 1442279668, "disable": 0, "end_at": 0, "shape": 0, "warning": 1, "radius": 805, "lat": 39.518889, "lng": -75.023889, "type": 23, "city": "Vineland", "points": ""}, {"begin_at": 0, "area_id": 1240344, "name": "SANTA ROSA CTR", "level": 0, "country": 32, "updated_at": 1457569401, "disable": 0, "end_at": 0, "shape": 0, "warning": 1, "radius": 26177, "lat": -36.583887, "lng": -64.2725, "type": 16, "city": "Santa Rosa", "points": ""}, {"begin_at": 0, "area_id": 1240347, "name": "VIEDMA CTR", "level": 0, "country": 32, "updated_at": 1457569401, "disable": 0, "end_at": 0, "shape": 0, "warning": 1, "radius": 26175, "lat": -40.867219, "lng": -63.000833, "type": 16, "city": "", "points": ""}, {"begin_at": 0, "area_id": 1240348, "name": "PUERTO MADRYN CTR", "level": 0, "country": 32, "updated_at": 1457569401, "disable": 0, "end_at": 0, "shape": 0, "warning": 1, "radius": 26173, "lat": -43.758887, "lng": -65.101667, "type": 16, "city": "", "points": ""}, {"begin_at": 0, "area_id": 1240372, "name": "TRAT CTR", "level": 0, "country": 764, "updated_at": 1457569401, "disable": 0, "end_at": 0, "shape": 0, "warning": 1, "radius": 26195, "lat": 12.274471, "lng": 102.313911, "type": 16, "city": "Tambon Tha Som", "points": ""}, {"begin_at": 0, "area_id": 1240377, "name": "OVDA CTR 1", "level": 0, "country": 376, "updated_at": 1457569401, "disable": 0, "end_at": 0, "shape": 0, "warning": 1, "radius": 11989, "lat": 29.891389, "lng": 34.825556, "type": 16, "city": "", "points": ""}, {"begin_at": 0, "area_id": 1240378, "name": "OVDA CTR 2", "level": 0, "country": 376, "updated_at": 1457569401, "disable": 0, "end_at": 0, "shape": 0, "warning": 1, "radius": 15052, "lat": 29.921389, "lng": 34.908056, "type": 16, "city": "", "points": ""}, {"begin_at": 0, "area_id": 1240380, "name": "OVDA CTR 3", "level": 0, "country": 376, "updated_at": 1457569401, "disable": 0, "end_at": 0, "shape": 0, "warning": 1, "radius": 11156, "lat": 29.927222, "lng": 35.003194, "type": 16, "city": "", "points": ""}, {"begin_at": 0, "area_id": 1240402, "name": "EL TARI ATZ", "level": 0, "country": 360, "updated_at": 1457569401, "disable": 0, "end_at": 0, "shape": 0, "warning": 1, "radius": 26188, "lat": -10.173999, "lng": 123.677583, "type": 16, "city": "", "points": ""}, {"begin_at": 0, "area_id": 1240403, "name": "BALIKPAPAN CTR", "level": 0, "country": 360, "updated_at": 1457569401, "disable": 0, "end_at": 0, "shape": 0, "warning": 1, "radius": 78570, "lat": -1.245688, "lng": 116.940372, "type": 16, "city": "", "points": ""}, {"begin_at": 0, "area_id": 1240428, "name": "BATAM ATZ", "level": 0, "country": 360, "updated_at": 1457569401, "disable": 0, "end_at": 0, "shape": 0, "warning": 1, "radius": 33831, "lat": 1.110416, "lng": 104.133195, "type": 16, "city": "", "points": ""}, {"begin_at": 0, "area_id": 270205, "name": "Norway (MI)", "level": 0, "country": 840, "updated_at": 1442279562, "disable": 0, "end_at": 0, "shape": 0, "warning": 1, "radius": 805, "lat": 45.7889, "lng": -87.9058, "type": 23, "city": "Norway", "points": ""}, {"begin_at": 0, "area_id": 1240432, "name": "TARAZ TMA", "level": 0, "country": 398, "updated_at": 1457569401, "disable": 0, "end_at": 0, "shape": 0, "warning": 1, "radius": 96710, "lat": 43.067083, "lng": 71.049306, "type": 16, "city": "", "points": ""}, {"begin_at": 0, "area_id": 274366, "name": "ReEnergy Biomass LLC", "level": 0, "country": 840, "updated_at": 1442279668, "disable": 0, "end_at": 0, "shape": 0, "warning": 1, "radius": 805, "lat": 43.617965, "lng": -75.305443, "type": 23, "city": "Lyons Falls", "points": ""}, {"begin_at": 0, "area_id": 1240433, "name": "PAVLODAR TMA", "level": 0, "country": 398, "updated_at": 1457569401, "disable": 0, "end_at": 0, "shape": 0, "warning": 1, "radius": 173834, "lat": 52.149445, "lng": 76.650833, "type": 16, "city": "", "points": ""}, {"begin_at": 0, "area_id": 1240434, "name": "KOSTANAY TMA", "level": 0, "country": 398, "updated_at": 1457569401, "disable": 0, "end_at": 0, "shape": 0, "warning": 1, "radius": 190724, "lat": 53.264931, "lng": 63.126599, "type": 16, "city": "Akkabak", "points": ""}, {"begin_at": 0, "area_id": 274373, "name": "MillerCoors Trenton Brewery", "level": 0, "country": 840, "updated_at": 1442279669, "disable": 0, "end_at": 0, "shape": 0, "warning": 1, "radius": 805, "lat": 39.454722, "lng": -84.476667, "type": 23, "city": "Trenton", "points": ""}, {"begin_at": 0, "area_id": 1240511, "name": "GENERAL ARTIGAS ATZ", "level": 0, "country": 858, "updated_at": 1457569401, "disable": 0, "end_at": 0, "shape": 0, "warning": 1, "radius": 4190, "lat": -34.747222, "lng": -55.961111, "type": 16, "city": "Barros Blancos", "points": ""}, {"begin_at": 0, "area_id": 272137, "name": "GRS Sunset Farms", "level": 0, "country": 840, "updated_at": 1442279617, "disable": 0, "end_at": 0, "shape": 0, "warning": 1, "radius": 805, "lat": 30.3431, "lng": -97.6203, "type": 23, "city": "Austin", "points": ""}, {"begin_at": 0, "area_id": 274375, "name": "Imperial Valley Solar Company 1 LLC", "level": 0, "country": 840, "updated_at": 1442279669, "disable": 0, "end_at": 0, "shape": 0, "warning": 1, "radius": 805, "lat": 33.245833, "lng": -115.496667, "type": 23, "city": "Niland", "points": ""}, {"begin_at": 0, "area_id": 274382, "name": "PRSI FCC Generator", "level": 0, "country": 840, "updated_at": 1442279669, "disable": 0, "end_at": 0, "shape": 0, "warning": 1, "radius": 805, "lat": 29.723333, "lng": -95.210278, "type": 23, "city": "Pasadena", "points": ""}, {"begin_at": 0, "area_id": 270219, "name": "Bayou Cove Peaking Power", "level": 0, "country": 840, "updated_at": 1442279563, "disable": 0, "end_at": 0, "shape": 0, "warning": 1, "radius": 805, "lat": 30.2825, "lng": -92.5997, "type": 23, "city": "Jennings", "points": ""}, {"begin_at": 0, "area_id": 272154, "name": "Plaquemine", "level": 0, "country": 840, "updated_at": 1442279617, "disable": 0, "end_at": 0, "shape": 0, "warning": 1, "radius": 805, "lat": 30.273333, "lng": -91.2567, "type": 23, "city": "Plaquemine", "points": ""}, {"begin_at": 0, "area_id": 1240512, "name": "MELO ATZ", "level": 0, "country": 858, "updated_at": 1457569401, "disable": 0, "end_at": 0, "shape": 0, "warning": 1, "radius": 10475, "lat": -32.342444, "lng": -54.221972, "type": 16, "city": "", "points": ""}, {"begin_at": 0, "area_id": 270236, "name": "Naval Station", "level": 0, "country": 840, "updated_at": 1442279563, "disable": 0, "end_at": 0, "shape": 0, "warning": 1, "radius": 805, "lat": 32.681667, "lng": -117.120277, "type": 23, "city": "San Diego", "points": ""}, {"begin_at": 0, "area_id": 274405, "name": "Fullerton Mill CHP", "level": 0, "country": 840, "updated_at": 1442279669, "disable": 0, "end_at": 0, "shape": 0, "warning": 1, "radius": 805, "lat": 33.861667, "lng": -117.893056, "type": 23, "city": "Fullerton", "points": ""}, {"begin_at": 0, "area_id": 1240544, "name": "PRAIA CTR", "level": 0, "country": 132, "updated_at": 1457569401, "disable": 0, "end_at": 0, "shape": 0, "warning": 1, "radius": 55074, "lat": 15.053845, "lng": -23.575843, "type": 16, "city": "", "points": ""}, {"begin_at": 0, "area_id": 272203, "name": "Wells IC", "level": 0, "country": 840, "updated_at": 1442279618, "disable": 0, "end_at": 0, "shape": 0, "warning": 1, "radius": 805, "lat": 43.74453, "lng": -93.724129, "type": 23, "city": "Wells", "points": ""}, {"begin_at": 0, "area_id": 1240567, "name": "SURABAYA CTR", "level": 0, "country": 360, "updated_at": 1457569401, "disable": 0, "end_at": 0, "shape": 0, "warning": 1, "radius": 96375, "lat": -7.266828, "lng": 112.769222, "type": 16, "city": "", "points": ""}, {"begin_at": 0, "area_id": 274410, "name": "BBB Corporate Headquarters", "level": 0, "country": 840, "updated_at": 1442279669, "disable": 0, "end_at": 0, "shape": 0, "warning": 1, "radius": 805, "lat": 40.697222, "lng": -74.305, "type": 23, "city": "Union", "points": ""}, {"begin_at": 0, "area_id": 270281, "name": "North Road Peak", "level": 0, "country": 840, "updated_at": 1442279564, "disable": 0, "end_at": 0, "shape": 0, "warning": 1, "radius": 805, "lat": 33.4919, "lng": -80.8633, "type": 23, "city": "Orangeburg", "points": ""}, {"begin_at": 0, "area_id": 1232750, "name": "ANTANANARIVO/ARIVONIMAMO CTR", "level": 0, "country": 450, "updated_at": 1457569401, "disable": 0, "end_at": 0, "shape": 0, "warning": 1, "radius": 13088, "lat": -19.033369, "lng": 47.166657, "type": 17, "city": "Avironimamo", "points": ""}, {"begin_at": 0, "area_id": 1232754, "name": "KHARKIV CTR", "level": 0, "country": 804, "updated_at": 1457569401, "disable": 0, "end_at": 0, "shape": 0, "warning": 1, "radius": 24126, "lat": 49.928889, "lng": 36.297639, "type": 17, "city": "Bezlyudivka", "points": ""}, {"begin_at": 0, "area_id": 1232755, "name": "KRYVYI RIH CTR", "level": 0, "country": 804, "updated_at": 1457569401, "disable": 0, "end_at": 0, "shape": 0, "warning": 1, "radius": 26159, "lat": 48.040833, "lng": 33.233334, "type": 17, "city": "Lozuvatka", "points": ""}, {"begin_at": 0, "area_id": 1232757, "name": "REGGIO CALABRIA CTR 1", "level": 0, "country": 380, "updated_at": 1457569401, "disable": 0, "end_at": 0, "shape": 0, "warning": 1, "radius": 40857, "lat": 37.975038, "lng": 15.567771, "type": 17, "city": "Reggio Calabria", "points": ""}, {"begin_at": 0, "area_id": 274416, "name": "Foundation Superior Farms", "level": 0, "country": 840, "updated_at": 1442279670, "disable": 0, "end_at": 0, "shape": 0, "warning": 1, "radius": 805, "lat": 38.42, "lng": -121.818056, "type": 23, "city": "Dixon", "points": ""}, {"begin_at": 0, "area_id": 1232759, "name": "FORLI ATZ", "level": 0, "country": 380, "updated_at": 1457569401, "disable": 0, "end_at": 0, "shape": 0, "warning": 1, "radius": 11082, "lat": 44.186635, "lng": 12.076152, "type": 17, "city": "Forl\u00ec", "points": ""}, {"begin_at": 0, "area_id": 272226, "name": "JM Shafer Generating Station", "level": 0, "country": 840, "updated_at": 1442279619, "disable": 0, "end_at": 0, "shape": 0, "warning": 1, "radius": 805, "lat": 40.0986, "lng": -104.7736, "type": 23, "city": "Fort Lupton", "points": ""}, {"begin_at": 0, "area_id": 1232760, "name": "GRAZZANISE ATZ", "level": 0, "country": 380, "updated_at": 1457569401, "disable": 0, "end_at": 0, "shape": 0, "warning": 1, "radius": 13058, "lat": 41.062523, "lng": 14.08273, "type": 17, "city": "Grazzanise", "points": ""}, {"begin_at": 0, "area_id": 274418, "name": "Kern Oil & Refining Co", "level": 0, "country": 840, "updated_at": 1442279670, "disable": 0, "end_at": 0, "shape": 0, "warning": 1, "radius": 805, "lat": 35.295556, "lng": -118.918333, "type": 23, "city": "Bakersfield", "points": ""}, {"begin_at": 0, "area_id": 1232761, "name": "PESCARA ATZ", "level": 0, "country": 380, "updated_at": 1457569401, "disable": 0, "end_at": 0, "shape": 0, "warning": 1, "radius": 13100, "lat": 42.435832, "lng": 14.192222, "type": 17, "city": "Sambuceto", "points": ""}, {"begin_at": 0, "area_id": 1232762, "name": "RONCHI DEI LEGIONARI ATZ", "level": 0, "country": 380, "updated_at": 1457569401, "disable": 0, "end_at": 0, "shape": 0, "warning": 1, "radius": 15344, "lat": 45.827828, "lng": 13.397476, "type": 17, "city": "Ruda", "points": ""}, {"begin_at": 0, "area_id": 272266, "name": "Kings Mountain Energy Center", "level": 0, "country": 840, "updated_at": 1442279620, "disable": 0, "end_at": 0, "shape": 0, "warning": 1, "radius": 805, "lat": 35.2025, "lng": -81.363056, "type": 23, "city": "Kings Mountain", "points": ""}, {"begin_at": 0, "area_id": 272279, "name": "Taloga Wind LLC", "level": 0, "country": 840, "updated_at": 1442279620, "disable": 0, "end_at": 0, "shape": 0, "warning": 1, "radius": 805, "lat": 35.855556, "lng": -98.968333, "type": 23, "city": "Custer City", "points": ""}, {"begin_at": 0, "area_id": 1232764, "name": "REGGIO CALABRIA ATZ", "level": 0, "country": 380, "updated_at": 1457569401, "disable": 0, "end_at": 0, "shape": 0, "warning": 1, "radius": 7859, "lat": 38.083333, "lng": 15.65, "type": 17, "city": "Reggio Calabria", "points": ""}, {"begin_at": 0, "area_id": 1232765, "name": "ZIELONA GORA CTR", "level": 0, "country": 616, "updated_at": 1457569401, "disable": 0, "end_at": 0, "shape": 0, "warning": 1, "radius": 19962, "lat": 52.138596, "lng": 15.778056, "type": 17, "city": "Babimost", "points": ""}, {"begin_at": 0, "area_id": 274422, "name": "International Paper Red River Mill", "level": 0, "country": 840, "updated_at": 1442279670, "disable": 0, "end_at": 0, "shape": 0, "warning": 1, "radius": 805, "lat": 31.903333, "lng": -93.173889, "type": 23, "city": "Campti", "points": ""}, {"begin_at": 0, "area_id": 1232766, "name": "CAGLIARI ATZ", "level": 0, "country": 380, "updated_at": 1457569401, "disable": 0, "end_at": 0, "shape": 0, "warning": 1, "radius": 10479, "lat": 39.247222, "lng": 9.056111, "type": 17, "city": "", "points": ""}, {"begin_at": 0, "area_id": 268718, "name": "Bobcat Bluff Wind Project LLC", "level": 0, "country": 840, "updated_at": 1442279525, "disable": 0, "end_at": 0, "shape": 0, "warning": 1, "radius": 805, "lat": 33.493056, "lng": -98.581944, "type": 23, "city": "Windthorst", "points": ""}, {"begin_at": 0, "area_id": 274438, "name": "Ivanpah 3", "level": 0, "country": 840, "updated_at": 1442279670, "disable": 0, "end_at": 0, "shape": 0, "warning": 1, "radius": 805, "lat": 35.580833, "lng": -115.4825, "type": 23, "city": "", "points": ""}, {"begin_at": 0, "area_id": 274441, "name": "Limon Wind I", "level": 0, "country": 840, "updated_at": 1442279670, "disable": 0, "end_at": 0, "shape": 0, "warning": 1, "radius": 805, "lat": 39.380975, "lng": -103.573236, "type": 23, "city": "Limon", "points": ""}, {"begin_at": 0, "area_id": 270319, "name": "Tunnel 1 Power Project", "level": 0, "country": 840, "updated_at": 1442279565, "disable": 0, "end_at": 0, "shape": 0, "warning": 1, "radius": 805, "lat": 43.642023, "lng": -117.232674, "type": 23, "city": "Nyssa", "points": ""}, {"begin_at": 0, "area_id": 274448, "name": "Ensign Wind LLC", "level": 0, "country": 840, "updated_at": 1442279670, "disable": 0, "end_at": 0, "shape": 0, "warning": 1, "radius": 805, "lat": 37.614473, "lng": -100.278666, "type": 23, "city": "", "points": ""}, {"begin_at": 0, "area_id": 1232768, "name": "MARSA ALAM CTR", "level": 0, "country": 818, "updated_at": 1457569401, "disable": 0, "end_at": 0, "shape": 0, "warning": 1, "radius": 65534, "lat": 25.583044, "lng": 34.567222, "type": 17, "city": "", "points": ""}, {"begin_at": 0, "area_id": 274447, "name": "24 Applegate Solar LLC", "level": 0, "country": 840, "updated_at": 1442279670, "disable": 0, "end_at": 0, "shape": 0, "warning": 1, "radius": 805, "lat": 40.205833, "lng": -74.579722, "type": 23, "city": "Robbinsville", "points": ""}, {"begin_at": 0, "area_id": 273711, "name": "San Emidio", "level": 0, "country": 840, "updated_at": 1442279654, "disable": 0, "end_at": 0, "shape": 0, "warning": 1, "radius": 805, "lat": 40.380556, "lng": -119.399722, "type": 23, "city": "Empire", "points": ""}, {"begin_at": 0, "area_id": 273712, "name": "Martins Creek Solar NC, LLC", "level": 0, "country": 840, "updated_at": 1442279654, "disable": 0, "end_at": 0, "shape": 0, "warning": 1, "radius": 805, "lat": 35.020415, "lng": -84.015676, "type": 23, "city": "Murphy", "points": ""}, {"begin_at": 0, "area_id": 272307, "name": "Ormesa IE", "level": 0, "country": 840, "updated_at": 1442279621, "disable": 0, "end_at": 0, "shape": 0, "warning": 1, "radius": 805, "lat": 32.8041, "lng": -115.2475, "type": 23, "city": "Holtville", "points": ""}, {"begin_at": 0, "area_id": 273748, "name": "Seneca Sustainable Energy LLC", "level": 0, "country": 840, "updated_at": 1442279654, "disable": 0, "end_at": 0, "shape": 0, "warning": 1, "radius": 805, "lat": 44.116306, "lng": -123.179007, "type": 23, "city": "Eugene", "points": ""}, {"begin_at": 0, "area_id": 272309, "name": "Steamboat 1A Power Plant", "level": 0, "country": 840, "updated_at": 1442279621, "disable": 0, "end_at": 0, "shape": 0, "warning": 1, "radius": 805, "lat": 39.3939, "lng": -119.7537, "type": 23, "city": "Reno", "points": ""}, {"begin_at": 0, "area_id": 273819, "name": "Gardiner", "level": 0, "country": 840, "updated_at": 1442279656, "disable": 0, "end_at": 0, "shape": 0, "warning": 1, "radius": 805, "lat": 44.221796, "lng": -69.785675, "type": 23, "city": "Gardiner", "points": ""}, {"begin_at": 0, "area_id": 274459, "name": "Western Michigan University Power Plant", "level": 0, "country": 840, "updated_at": 1442279671, "disable": 0, "end_at": 0, "shape": 0, "warning": 1, "radius": 805, "lat": 42.28, "lng": -85.606389, "type": 23, "city": "Kalamazoo", "points": ""}, {"begin_at": 0, "area_id": 272331, "name": "Williams Hydro", "level": 0, "country": 840, "updated_at": 1442279621, "disable": 0, "end_at": 0, "shape": 0, "warning": 1, "radius": 805, "lat": 44.9589, "lng": -69.8703, "type": 23, "city": "Embden", "points": ""}, {"begin_at": 0, "area_id": 1232769, "name": "HYAKURI CTR A", "level": 0, "country": 392, "updated_at": 1457569401, "disable": 0, "end_at": 0, "shape": 0, "warning": 1, "radius": 10130, "lat": 36.182361, "lng": 140.360611, "type": 17, "city": "Omitama-shi", "points": ""}, {"begin_at": 0, "area_id": 273869, "name": "Long Island Solar Farm LLC", "level": 0, "country": 840, "updated_at": 1442279657, "disable": 0, "end_at": 0, "shape": 0, "warning": 1, "radius": 805, "lat": 40.861111, "lng": -72.847777, "type": 23, "city": "Manorville", "points": ""}, {"begin_at": 0, "area_id": 268297, "name": "Collinwood", "level": 0, "country": 840, "updated_at": 1442279516, "disable": 0, "end_at": 0, "shape": 0, "warning": 1, "radius": 805, "lat": 41.556867, "lng": -81.58796, "type": 23, "city": "Cleve", "points": ""}, {"begin_at": 0, "area_id": 1232805, "name": "OWEN ROBERTS CTR", "level": 0, "country": 136, "updated_at": 1457569401, "disable": 0, "end_at": 0, "shape": 0, "warning": 1, "radius": 26198, "lat": 19.292434, "lng": -81.359189, "type": 17, "city": "George Town", "points": ""}, {"begin_at": 0, "area_id": 1232825, "name": "GHEDI ATZ", "level": 0, "country": 380, "updated_at": 1457569401, "disable": 0, "end_at": 0, "shape": 0, "warning": 1, "radius": 22232, "lat": 45.357084, "lng": 10.280139, "type": 17, "city": "Castelletto", "points": ""}, {"begin_at": 0, "area_id": 268298, "name": "Lake Road (OH)", "level": 0, "country": 840, "updated_at": 1442279516, "disable": 0, "end_at": 0, "shape": 0, "warning": 1, "radius": 805, "lat": 41.527778, "lng": -81.649444, "type": 23, "city": "Cleve", "points": ""}, {"begin_at": 0, "area_id": 272355, "name": "Weston Hydro", "level": 0, "country": 840, "updated_at": 1442279622, "disable": 0, "end_at": 0, "shape": 0, "warning": 1, "radius": 805, "lat": 44.763875, "lng": -69.71828, "type": 23, "city": "Skowhegan", "points": ""}, {"begin_at": 0, "area_id": 1232961, "name": "MANZANILLO CTR", "level": 0, "country": 192, "updated_at": 1457569401, "disable": 0, "end_at": 0, "shape": 0, "warning": 1, "radius": 26198, "lat": 20.288054, "lng": -77.089167, "type": 17, "city": "", "points": ""}, {"begin_at": 0, "area_id": 1233038, "name": "TIRANA CTR", "level": 0, "country": 8, "updated_at": 1457569401, "disable": 0, "end_at": 0, "shape": 0, "warning": 1, "radius": 32595, "lat": 41.441667, "lng": 19.666667, "type": 17, "city": "Prez\u00eb", "points": ""}, {"begin_at": 0, "area_id": 1233049, "name": "VALLADOLID CTR", "level": 0, "country": 724, "updated_at": 1457569401, "disable": 0, "end_at": 0, "shape": 0, "warning": 1, "radius": 65346, "lat": 41.790585, "lng": -4.737208, "type": 17, "city": "Corcos", "points": ""}, {"begin_at": 0, "area_id": 1233052, "name": "SPLIT CTR 1", "level": 0, "country": 191, "updated_at": 1457569401, "disable": 0, "end_at": 0, "shape": 0, "warning": 1, "radius": 28752, "lat": 43.515139, "lng": 16.241944, "type": 17, "city": "Trogir", "points": ""}, {"begin_at": 0, "area_id": 268723, "name": "Longhorn Wind", "level": 0, "country": 840, "updated_at": 1442279525, "disable": 0, "end_at": 0, "shape": 0, "warning": 1, "radius": 805, "lat": 34.311111, "lng": -101.251111, "type": 23, "city": "Silverton", "points": ""}, {"begin_at": 0, "area_id": 268308, "name": "Detour", "level": 0, "country": 840, "updated_at": 1442279516, "disable": 0, "end_at": 0, "shape": 0, "warning": 1, "radius": 805, "lat": 46.3292, "lng": -84.3847, "type": 23, "city": "Dafter", "points": ""}, {"begin_at": 0, "area_id": 1233101, "name": "CIEGO DE AVILA CTR", "level": 0, "country": 192, "updated_at": 1457569401, "disable": 0, "end_at": 0, "shape": 0, "warning": 1, "radius": 26199, "lat": 22.026943, "lng": -78.789444, "type": 17, "city": "", "points": ""}, {"begin_at": 0, "area_id": 1233106, "name": "ARICA CTR", "level": 0, "country": 152, "updated_at": 1457569401, "disable": 0, "end_at": 0, "shape": 0, "warning": 1, "radius": 32813, "lat": -18.441598, "lng": -70.338674, "type": 17, "city": "Arica", "points": ""}, {"begin_at": 0, "area_id": 1233111, "name": "ORLAND CTR", "level": 0, "country": 578, "updated_at": 1457569401, "disable": 0, "end_at": 0, "shape": 0, "warning": 1, "radius": 40264, "lat": 63.733334, "lng": 9.547225, "type": 17, "city": "Brekstad", "points": ""}, {"begin_at": 0, "area_id": 272378, "name": "Wabash Valley Power IGCC", "level": 0, "country": 840, "updated_at": 1442279622, "disable": 0, "end_at": 0, "shape": 0, "warning": 1, "radius": 805, "lat": 39.53, "lng": -87.4247, "type": 23, "city": "West Terre Haute", "points": ""}, {"begin_at": 0, "area_id": 274481, "name": "Vintner Solar", "level": 0, "country": 840, "updated_at": 1442279671, "disable": 0, "end_at": 0, "shape": 0, "warning": 1, "radius": 805, "lat": 35.557778, "lng": -120.681389, "type": 23, "city": "Templeton", "points": ""}, {"begin_at": 0, "area_id": 272393, "name": "LaFarge Alpena", "level": 0, "country": 840, "updated_at": 1442279622, "disable": 0, "end_at": 0, "shape": 0, "warning": 1, "radius": 805, "lat": 45.069929, "lng": -83.408182, "type": 23, "city": "Alpena", "points": ""}, {"begin_at": 0, "area_id": 268726, "name": "Spinning Spur Wind III", "level": 0, "country": 840, "updated_at": 1442279525, "disable": 0, "end_at": 0, "shape": 0, "warning": 1, "radius": 805, "lat": 35.295, "lng": -102.721111, "type": 23, "city": "Adrian", "points": ""}, {"begin_at": 0, "area_id": 268311, "name": "Craven County Wood Energy LP", "level": 0, "country": 840, "updated_at": 1442279516, "disable": 0, "end_at": 0, "shape": 0, "warning": 1, "radius": 805, "lat": 35.130193, "lng": -77.167883, "type": 23, "city": "New Bern", "points": ""}, {"begin_at": 0, "area_id": 1233133, "name": "LAMEZIA CTR 1", "level": 0, "country": 380, "updated_at": 1457569401, "disable": 0, "end_at": 0, "shape": 0, "warning": 1, "radius": 28731, "lat": 38.886579, "lng": 16.345749, "type": 17, "city": "", "points": ""}, {"begin_at": 0, "area_id": 274483, "name": "William Floyd School District", "level": 0, "country": 840, "updated_at": 1442279671, "disable": 0, "end_at": 0, "shape": 0, "warning": 1, "radius": 805, "lat": 40.776944, "lng": -72.850833, "type": 23, "city": "Mastic Beach", "points": ""}, {"begin_at": 0, "area_id": 268724, "name": "TX Hereford Wind", "level": 0, "country": 840, "updated_at": 1442279525, "disable": 0, "end_at": 0, "shape": 0, "warning": 1, "radius": 805, "lat": 34.748056, "lng": -102.174444, "type": 23, "city": "Hereford", "points": ""}, {"begin_at": 0, "area_id": 1233214, "name": "MANZANILLO ATZ", "level": 0, "country": 192, "updated_at": 1457569401, "disable": 0, "end_at": 0, "shape": 0, "warning": 1, "radius": 7858, "lat": 20.288056, "lng": -77.089167, "type": 17, "city": "", "points": ""}, {"begin_at": 0, "area_id": 274495, "name": "Danbury Dam", "level": 0, "country": 840, "updated_at": 1442279671, "disable": 0, "end_at": 0, "shape": 0, "warning": 1, "radius": 805, "lat": 46.0, "lng": -92.3725, "type": 23, "city": "Danbury", "points": ""}, {"begin_at": 0, "area_id": 268315, "name": "Aniak", "level": 0, "country": 840, "updated_at": 1442279516, "disable": 0, "end_at": 0, "shape": 0, "warning": 1, "radius": 805, "lat": 61.5875, "lng": -159.5317, "type": 23, "city": "Aniak", "points": ""}, {"begin_at": 0, "area_id": 274496, "name": "Cataract (MI)", "level": 0, "country": 840, "updated_at": 1442279671, "disable": 0, "end_at": 0, "shape": 0, "warning": 1, "radius": 805, "lat": 46.3156, "lng": -87.5128, "type": 23, "city": "Gwinn", "points": ""}, {"begin_at": 0, "area_id": 1244328, "name": "HIGHGROVE HOUSE", "level": 3, "country": 826, "updated_at": 1457569401, "disable": 0, "end_at": 0, "shape": 0, "warning": 0, "radius": 2778, "lat": 51.622223, "lng": -2.180556, "type": 28, "city": "Tetbury", "points": "POLYGON ((-2.180556 51.64719, -2.177058 51.647095, -2.173587 51.646811, -2.170169 51.646339, -2.16683 51.645684, -2.163595 51.64485, -2.16049 51.643844, -2.157538 51.642673, -2.154761 51.641346, -2.152181 51.639874, -2.149817 51.638267, -2.147687 51.636539, -2.145808 51.634701, -2.144193 51.632769, -2.142855 51.630756, -2.141804 51.628678, -2.141049 51.626551, -2.140594 51.624391, -2.140443 51.622215, -2.140598 51.620039, -2.141056 51.61788, -2.141815 51.615753, -2.142869 51.613676, -2.14421 51.611664, -2.145827 51.609733, -2.147708 51.607896, -2.149839 51.606169, -2.152203 51.604563, -2.154783 51.603092, -2.157559 51.601767, -2.160509 51.600597, -2.163612 51.599592, -2.166844 51.598758, -2.17018 51.598104, -2.173594 51.597633, -2.177062 51.597348, -2.180556 51.597253, -2.18405 51.597348, -2.187518 51.597633, -2.190932 51.598104, -2.194268 51.598758, -2.1975 51.599592, -2.200603 51.600597, -2.203553 51.601767, -2.206329 51.603092, -2.208909 51.604563, -2.211273 51.606169, -2.213404 51.607896, -2.215285 51.609733, -2.216902 51.611664, -2.218243 51.613676, -2.219297 51.615753, -2.220056 51.61788, -2.220514 51.620039, -2.220669 51.622215, -2.220518 51.624391, -2.220063 51.626551, -2.219308 51.628678, -2.218257 51.630756, -2.216919 51.632769, -2.215304 51.634701, -2.213425 51.636539, -2.211295 51.638267, -2.208931 51.639874, -2.206351 51.641346, -2.203574 51.642673, -2.200622 51.643844, -2.197517 51.64485, -2.194282 51.645684, -2.190943 51.646339, -2.187525 51.646811, -2.184054 51.647095, -2.180556 51.64719))"}, {"begin_at": 0, "area_id": 1233345, "name": "RONNE CTR", "level": 0, "country": 208, "updated_at": 1457569401, "disable": 0, "end_at": 0, "shape": 0, "warning": 1, "radius": 20690, "lat": 55.059917, "lng": 14.746772, "type": 17, "city": "R\u00f8nne", "points": ""}, {"begin_at": 0, "area_id": 1233377, "name": "ALTA CTR", "level": 0, "country": 578, "updated_at": 1457569401, "disable": 0, "end_at": 0, "shape": 0, "warning": 1, "radius": 26958, "lat": 69.966667, "lng": 23.341667, "type": 17, "city": "Alta", "points": ""}, {"begin_at": 0, "area_id": 272400, "name": "Escalante Solar III, LLC", "level": 0, "country": 840, "updated_at": 1442279623, "disable": 0, "end_at": 0, "shape": 0, "warning": 1, "radius": 805, "lat": 38.497778, "lng": -112.986944, "type": 23, "city": "", "points": ""}, {"begin_at": 0, "area_id": 274503, "name": "HVCC Cogen Plant", "level": 0, "country": 840, "updated_at": 1442279672, "disable": 0, "end_at": 0, "shape": 0, "warning": 1, "radius": 805, "lat": 42.696944, "lng": -73.68, "type": 23, "city": "Troy", "points": ""}, {"begin_at": 0, "area_id": 274505, "name": "Prairie Horizon Agri Energy", "level": 0, "country": 840, "updated_at": 1442279672, "disable": 0, "end_at": 0, "shape": 0, "warning": 1, "radius": 805, "lat": 39.761111, "lng": -99.305833, "type": 23, "city": "Phillipsburg", "points": ""}, {"begin_at": 0, "area_id": 272419, "name": "Shelby North", "level": 0, "country": 840, "updated_at": 1442279623, "disable": 0, "end_at": 0, "shape": 0, "warning": 1, "radius": 805, "lat": 40.8969, "lng": -82.6625, "type": 23, "city": "Shelby", "points": ""}, {"begin_at": 0, "area_id": 1233378, "name": "OUARZAZATE CTR", "level": 0, "country": 504, "updated_at": 1457569401, "disable": 0, "end_at": 0, "shape": 0, "warning": 1, "radius": 20960, "lat": 30.937174, "lng": -6.905992, "type": 17, "city": "Ouarzazate", "points": ""}, {"begin_at": 0, "area_id": 1233466, "name": "TSUIKI CTR A", "level": 0, "country": 392, "updated_at": 1457569401, "disable": 0, "end_at": 0, "shape": 0, "warning": 1, "radius": 5523, "lat": 33.749059, "lng": 131.010811, "type": 17, "city": "Yukuhashi-shi", "points": ""}, {"begin_at": 0, "area_id": 274507, "name": "East Campus Steam Plant", "level": 0, "country": 840, "updated_at": 1442279672, "disable": 0, "end_at": 0, "shape": 0, "warning": 1, "radius": 805, "lat": 40.809167, "lng": -77.8475, "type": 23, "city": "State College", "points": ""}, {"begin_at": 0, "area_id": 1234999, "name": "KARIBA CTR", "level": 0, "country": 716, "updated_at": 1457569401, "disable": 0, "end_at": 0, "shape": 0, "warning": 1, "radius": 46788, "lat": -16.519683, "lng": 28.88981, "type": 17, "city": "", "points": ""}, {"begin_at": 0, "area_id": 274506, "name": "West Campus Steam Plant", "level": 0, "country": 840, "updated_at": 1442279672, "disable": 0, "end_at": 0, "shape": 0, "warning": 1, "radius": 805, "lat": 40.792778, "lng": -77.864722, "type": 23, "city": "State College", "points": ""}, {"begin_at": 0, "area_id": 270424, "name": "West Gates Solar Station", "level": 0, "country": 840, "updated_at": 1442279571, "disable": 0, "end_at": 0, "shape": 0, "warning": 1, "radius": 805, "lat": 36.142222, "lng": -120.1325, "type": 23, "city": "Coalinga", "points": ""}, {"begin_at": 0, "area_id": 270425, "name": "Vaca Dixon Battery Storage System", "level": 0, "country": 840, "updated_at": 1442279571, "disable": 0, "end_at": 0, "shape": 0, "warning": 1, "radius": 805, "lat": 38.393333, "lng": -121.927778, "type": 23, "city": "Vacaville", "points": ""}, {"begin_at": 0, "area_id": 274512, "name": "Rio Mesa SEGF 2", "level": 0, "country": 840, "updated_at": 1442279672, "disable": 0, "end_at": 0, "shape": 0, "warning": 1, "radius": 805, "lat": 33.466389, "lng": -114.793611, "type": 23, "city": "", "points": ""}, {"begin_at": 0, "area_id": 1244334, "name": "BERKELEY", "level": 3, "country": 826, "updated_at": 1457569401, "disable": 0, "end_at": 0, "shape": 0, "warning": 0, "radius": 3704, "lat": 51.692781, "lng": -2.493333, "type": 28, "city": "Berkeley", "points": "POLYGON ((-2.493333 51.726069, -2.488661 51.725942, -2.484024 51.725563, -2.479459 51.724934, -2.474999 51.72406, -2.47068 51.722948, -2.466533 51.721606, -2.46259 51.720044, -2.458881 51.718275, -2.455436 51.716312, -2.452279 51.71417, -2.449435 51.711865, -2.446926 51.709414, -2.44477 51.706837, -2.442984 51.704153, -2.441582 51.701383, -2.440573 51.698547, -2.439967 51.695667, -2.439766 51.692766, -2.439973 51.689864, -2.440587 51.686985, -2.441601 51.68415, -2.443009 51.681381, -2.4448 51.678699, -2.44696 51.676123, -2.449472 51.673675, -2.452318 51.671372, -2.455475 51.669232, -2.45892 51.667271, -2.462627 51.665504, -2.466567 51.663944, -2.47071 51.662604, -2.475025 51.661493, -2.479479 51.660621, -2.484038 51.659992, -2.488668 51.659614, -2.493333 51.659487, -2.497998 51.659614, -2.502628 51.659992, -2.507187 51.660621, -2.511641 51.661493, -2.515956 51.662604, -2.520099 51.663944, -2.524039 51.665504, -2.527746 51.667271, -2.531191 51.669232, -2.534348 51.671372, -2.537194 51.673675, -2.539706 51.676123, -2.541866 51.678699, -2.543657 51.681381, -2.545065 51.68415, -2.546079 51.686985, -2.546693 51.689864, -2.5469 51.692766, -2.546699 51.695667, -2.546093 51.698547, -2.545084 51.701383, -2.543682 51.704153, -2.541896 51.706837, -2.53974 51.709414, -2.537231 51.711865, -2.534387 51.71417, -2.53123 51.716312, -2.527785 51.718275, -2.524076 51.720044, -2.520133 51.721606, -2.515986 51.722948, -2.511667 51.72406, -2.507207 51.724934, -2.502642 51.725563, -2.498005 51.725942, -2.493333 51.726069))"}, {"begin_at": 0, "area_id": 270426, "name": "Yerba Buena", "level": 0, "country": 840, "updated_at": 1442279571, "disable": 0, "end_at": 0, "shape": 0, "warning": 1, "radius": 805, "lat": 37.305833, "lng": -121.755, "type": 23, "city": "San Jose", "points": ""}, {"begin_at": 0, "area_id": 1244352, "name": "NAGAMBIE-WIRRATE PARACHUTING", "level": 3, "country": 36, "updated_at": 1457569401, "disable": 0, "end_at": 0, "shape": 0, "warning": 0, "radius": 9422, "lat": -36.781875, "lng": 145.022638, "type": 28, "city": "Bailieston", "points": "POLYGON ((144.956389 -36.741667, 145.058611 -36.698611, 145.123611 -36.806667, 145.111944 -36.833333, 145.033333 -36.833333, 144.933333 -36.833333, 144.956389 -36.741667))"}, {"begin_at": 0, "area_id": 1244362, "name": "BALVI-VILANI", "level": 3, "country": 428, "updated_at": 1457569401, "disable": 0, "end_at": 0, "shape": 0, "warning": 0, "radius": 48210, "lat": 56.860357, "lng": 26.970555, "type": 28, "city": "Lub\u0101na", "points": "POLYGON ((26.922778 57.111667, 27.425278 57.215278, 27.39 56.693056, 27.111111 56.571944, 26.515833 56.505833, 26.815222 56.635502, 27.116667 56.764444, 27.145556 56.8475, 26.922778 57.111667))"}, {"begin_at": 0, "area_id": 274513, "name": "Alpha Ridge LFG", "level": 0, "country": 840, "updated_at": 1442279672, "disable": 0, "end_at": 0, "shape": 0, "warning": 1, "radius": 805, "lat": 39.305, "lng": -76.901944, "type": 23, "city": "Marriottsville", "points": ""}, {"begin_at": 0, "area_id": 270439, "name": "Prospect 3", "level": 0, "country": 840, "updated_at": 1442279572, "disable": 0, "end_at": 0, "shape": 0, "warning": 1, "radius": 805, "lat": 42.730606, "lng": -122.41846, "type": 23, "city": "Prospect", "points": ""}, {"begin_at": 0, "area_id": 1233473, "name": "TSUIKI CTR B", "level": 0, "country": 392, "updated_at": 1457569401, "disable": 0, "end_at": 0, "shape": 0, "warning": 1, "radius": 12983, "lat": 33.683622, "lng": 131.040294, "type": 17, "city": "Chikuj\u014d-gun", "points": ""}, {"begin_at": 0, "area_id": 1233480, "name": "KISARAZU CTR A", "level": 0, "country": 392, "updated_at": 1457569401, "disable": 0, "end_at": 0, "shape": 0, "warning": 1, "radius": 9011, "lat": 35.435694, "lng": 139.889604, "type": 17, "city": "Kisarazu-shi", "points": ""}, {"begin_at": 0, "area_id": 274538, "name": "Springview", "level": 0, "country": 840, "updated_at": 1442279672, "disable": 0, "end_at": 0, "shape": 0, "warning": 1, "radius": 805, "lat": 42.82579, "lng": -99.777467, "type": 23, "city": "Springview", "points": ""}, {"begin_at": 0, "area_id": 1233481, "name": "KISARAZU CTR C", "level": 0, "country": 392, "updated_at": 1457569401, "disable": 0, "end_at": 0, "shape": 0, "warning": 1, "radius": 11578, "lat": 35.380876, "lng": 139.913319, "type": 17, "city": "Kisarazu-shi", "points": ""}, {"begin_at": 0, "area_id": 272550, "name": "Pepperell Hydro Power Plant", "level": 0, "country": 840, "updated_at": 1442279626, "disable": 0, "end_at": 0, "shape": 0, "warning": 1, "radius": 805, "lat": 42.668889, "lng": -71.575556, "type": 23, "city": "Pepperell", "points": ""}, {"begin_at": 0, "area_id": 272573, "name": "Caithness Long Island Energy Center", "level": 0, "country": 840, "updated_at": 1442279627, "disable": 0, "end_at": 0, "shape": 0, "warning": 1, "radius": 805, "lat": 40.8142, "lng": -72.9403, "type": 23, "city": "Yaphank", "points": ""}, {"begin_at": 0, "area_id": 272598, "name": "State Auto Insurance", "level": 0, "country": 840, "updated_at": 1442279627, "disable": 0, "end_at": 0, "shape": 0, "warning": 1, "radius": 805, "lat": 45.2217, "lng": -96.2178, "type": 23, "city": "Madison", "points": ""}, {"begin_at": 0, "area_id": 272605, "name": "Camden South Carolina", "level": 0, "country": 840, "updated_at": 1442279627, "disable": 0, "end_at": 0, "shape": 0, "warning": 1, "radius": 805, "lat": 34.2338, "lng": -80.6558, "type": 23, "city": "Lugoff", "points": ""}, {"begin_at": 0, "area_id": 1233495, "name": "GIRONA CTR", "level": 0, "country": 724, "updated_at": 1457569401, "disable": 0, "end_at": 0, "shape": 0, "warning": 1, "radius": 31454, "lat": 41.931247, "lng": 2.771861, "type": 17, "city": "Aiguaviva", "points": ""}, {"begin_at": 0, "area_id": 1233499, "name": "MALABO CTR", "level": 0, "country": 226, "updated_at": 1457569401, "disable": 0, "end_at": 0, "shape": 0, "warning": 1, "radius": 52387, "lat": 3.768221, "lng": 8.72025, "type": 17, "city": "Malabo", "points": ""}, {"begin_at": 0, "area_id": 1233500, "name": "RIVNE CTR", "level": 0, "country": 804, "updated_at": 1457569401, "disable": 0, "end_at": 0, "shape": 0, "warning": 1, "radius": 26899, "lat": 50.594167, "lng": 26.156667, "type": 17, "city": "Tynne", "points": ""}, {"begin_at": 0, "area_id": 272623, "name": "Vernon Dam", "level": 0, "country": 840, "updated_at": 1442279628, "disable": 0, "end_at": 0, "shape": 0, "warning": 1, "radius": 805, "lat": 42.77165, "lng": -72.5146, "type": 23, "city": "Vernon", "points": ""}, {"begin_at": 0, "area_id": 270504, "name": "Pawtucket Power Associates", "level": 0, "country": 840, "updated_at": 1442279574, "disable": 0, "end_at": 0, "shape": 0, "warning": 1, "radius": 805, "lat": 41.861531, "lng": -71.406856, "type": 23, "city": "Pawtucket", "points": ""}, {"begin_at": 0, "area_id": 1233505, "name": "ALMIROS MCTR", "level": 0, "country": 300, "updated_at": 1457569401, "disable": 0, "end_at": 0, "shape": 0, "warning": 1, "radius": 26206, "lat": 39.219442, "lng": 22.794444, "type": 17, "city": "", "points": ""}, {"begin_at": 0, "area_id": 272694, "name": "Raft River Geothermal Power Plant", "level": 0, "country": 840, "updated_at": 1442279629, "disable": 0, "end_at": 0, "shape": 0, "warning": 1, "radius": 805, "lat": 42.099417, "lng": -113.38245, "type": 23, "city": "Malta", "points": ""}, {"begin_at": 0, "area_id": 272732, "name": "Bear Valley Power Plant", "level": 0, "country": 840, "updated_at": 1442279630, "disable": 0, "end_at": 0, "shape": 0, "warning": 1, "radius": 805, "lat": 34.2506, "lng": -116.9025, "type": 23, "city": "Big Bear Lake", "points": ""}, {"begin_at": 0, "area_id": 1233515, "name": "ANDRAVIDA MCTR", "level": 0, "country": 300, "updated_at": 1457569401, "disable": 0, "end_at": 0, "shape": 0, "warning": 1, "radius": 52441, "lat": 37.925269, "lng": 21.291389, "type": 17, "city": "", "points": ""}, {"begin_at": 0, "area_id": 274899, "name": "Cardinal", "level": 0, "country": 840, "updated_at": 1442279680, "disable": 0, "end_at": 0, "shape": 0, "warning": 1, "radius": 805, "lat": 40.2522, "lng": -80.6486, "type": 23, "city": "Mingo Junction", "points": ""}, {"begin_at": 0, "area_id": 268341, "name": "ST-1/1A Engine No 1", "level": 0, "country": 840, "updated_at": 1442279517, "disable": 0, "end_at": 0, "shape": 0, "warning": 1, "radius": 805, "lat": 39.95, "lng": -83.015833, "type": 23, "city": "Columbus", "points": ""}, {"begin_at": 0, "area_id": 270512, "name": "Indian River Plant", "level": 0, "country": 840, "updated_at": 1442279574, "disable": 0, "end_at": 0, "shape": 0, "warning": 1, "radius": 805, "lat": 28.493232, "lng": -80.780124, "type": 23, "city": "Titusville", "points": ""}, {"begin_at": 0, "area_id": 274912, "name": "Paynesville Wind Farm", "level": 0, "country": 840, "updated_at": 1442279680, "disable": 0, "end_at": 0, "shape": 0, "warning": 1, "radius": 805, "lat": 45.4525, "lng": -94.745278, "type": 23, "city": "Paynesville", "points": ""}, {"begin_at": 0, "area_id": 268348, "name": "Philadelphia", "level": 0, "country": 840, "updated_at": 1442279517, "disable": 0, "end_at": 0, "shape": 0, "warning": 1, "radius": 805, "lat": 39.2986, "lng": -76.5636, "type": 23, "city": "Balt", "points": ""}, {"begin_at": 0, "area_id": 270515, "name": "Quincy Chute", "level": 0, "country": 840, "updated_at": 1442279574, "disable": 0, "end_at": 0, "shape": 0, "warning": 1, "radius": 805, "lat": 46.982514, "lng": -119.257764, "type": 23, "city": "Moses Lake", "points": ""}, {"begin_at": 0, "area_id": 270516, "name": "Priest Rapids", "level": 0, "country": 840, "updated_at": 1442279574, "disable": 0, "end_at": 0, "shape": 0, "warning": 1, "radius": 805, "lat": 46.6451, "lng": -119.908, "type": 23, "city": "Mattawa", "points": ""}, {"begin_at": 0, "area_id": 270517, "name": "Wanapum", "level": 0, "country": 840, "updated_at": 1442279574, "disable": 0, "end_at": 0, "shape": 0, "warning": 1, "radius": 805, "lat": 46.8731, "lng": -119.9703, "type": 23, "city": "Beverly", "points": ""}, {"begin_at": 0, "area_id": 270520, "name": "Woodward Mountain I", "level": 0, "country": 840, "updated_at": 1442279574, "disable": 0, "end_at": 0, "shape": 0, "warning": 1, "radius": 805, "lat": 30.9514, "lng": -102.414067, "type": 23, "city": "", "points": ""}, {"begin_at": 0, "area_id": 268350, "name": "Westport", "level": 0, "country": 840, "updated_at": 1442279517, "disable": 0, "end_at": 0, "shape": 0, "warning": 1, "radius": 805, "lat": 39.2719, "lng": -76.6186, "type": 23, "city": "Balt", "points": ""}, {"begin_at": 0, "area_id": 274915, "name": "Colleton Solar Farm", "level": 0, "country": 840, "updated_at": 1442279680, "disable": 0, "end_at": 0, "shape": 0, "warning": 1, "radius": 805, "lat": 32.911111, "lng": -80.693889, "type": 23, "city": "Walterboro", "points": ""}, {"begin_at": 0, "area_id": 270525, "name": "Box Canyon", "level": 0, "country": 840, "updated_at": 1442279574, "disable": 0, "end_at": 0, "shape": 0, "warning": 1, "radius": 805, "lat": 48.780856, "lng": -117.418337, "type": 23, "city": "Ione", "points": ""}, {"begin_at": 0, "area_id": 268354, "name": "Bridge Street 1 & 2", "level": 0, "country": 840, "updated_at": 1442279517, "disable": 0, "end_at": 0, "shape": 0, "warning": 1, "radius": 805, "lat": 41.362778, "lng": -72.0825, "type": 23, "city": "Groton", "points": ""}, {"begin_at": 0, "area_id": 274926, "name": "Orion Solar I", "level": 0, "country": 840, "updated_at": 1442279681, "disable": 0, "end_at": 0, "shape": 0, "warning": 1, "radius": 805, "lat": 35.150694, "lng": -118.875, "type": 23, "city": "Arvin", "points": ""}, {"begin_at": 0, "area_id": 270522, "name": "Pella", "level": 0, "country": 840, "updated_at": 1442279574, "disable": 0, "end_at": 0, "shape": 0, "warning": 1, "radius": 805, "lat": 41.3981, "lng": -92.9144, "type": 23, "city": "Pella", "points": ""}, {"begin_at": 0, "area_id": 268722, "name": "Roosevelt County", "level": 0, "country": 840, "updated_at": 1442279525, "disable": 0, "end_at": 0, "shape": 0, "warning": 1, "radius": 805, "lat": 33.926111, "lng": -103.511111, "type": 23, "city": "Elida", "points": ""}, {"begin_at": 0, "area_id": 270540, "name": "Indiantown Cogeneration LP", "level": 0, "country": 840, "updated_at": 1442279574, "disable": 0, "end_at": 0, "shape": 0, "warning": 1, "radius": 805, "lat": 27.0389, "lng": -80.5125, "type": 23, "city": "Indiantown", "points": ""}, {"begin_at": 0, "area_id": 1233556, "name": "CHIOS CTR", "level": 0, "country": 300, "updated_at": 1457569401, "disable": 0, "end_at": 0, "shape": 0, "warning": 1, "radius": 25005, "lat": 38.343282, "lng": 26.120345, "type": 17, "city": "", "points": ""}, {"begin_at": 0, "area_id": 1233568, "name": "ATHENS CTR", "level": 0, "country": 300, "updated_at": 1457569401, "disable": 0, "end_at": 0, "shape": 0, "warning": 1, "radius": 40398, "lat": 37.916667, "lng": 23.966667, "type": 17, "city": "", "points": ""}, {"begin_at": 0, "area_id": 270544, "name": "Municipal Light", "level": 0, "country": 840, "updated_at": 1442279574, "disable": 0, "end_at": 0, "shape": 0, "warning": 1, "radius": 805, "lat": 36.3858, "lng": -90.1867, "type": 23, "city": "Piggott", "points": ""}, {"begin_at": 0, "area_id": 1233570, "name": "ELEFSIS CTR", "level": 0, "country": 0, "updated_at": 1457569401, "disable": 0, "end_at": 0, "shape": 0, "warning": 1, "radius": 19197, "lat": 38.014597, "lng": 23.526612, "type": 17, "city": "", "points": ""}, {"begin_at": 0, "area_id": 1233579, "name": "THANJAVUR ATZ", "level": 0, "country": 356, "updated_at": 1457569401, "disable": 0, "end_at": 0, "shape": 0, "warning": 1, "radius": 7858, "lat": 10.719881, "lng": 79.102833, "type": 17, "city": "Thanjavur", "points": ""}, {"begin_at": 0, "area_id": 1233581, "name": "PORBANDAR CTR", "level": 0, "country": 356, "updated_at": 1457569401, "disable": 0, "end_at": 0, "shape": 0, "warning": 1, "radius": 39063, "lat": 21.675556, "lng": 69.766389, "type": 17, "city": "", "points": ""}, {"begin_at": 0, "area_id": 270551, "name": "Oxbow (CA)", "level": 0, "country": 840, "updated_at": 1442279575, "disable": 0, "end_at": 0, "shape": 0, "warning": 1, "radius": 805, "lat": 39.003372, "lng": -120.746651, "type": 23, "city": "Georgetown", "points": ""}, {"begin_at": 0, "area_id": 274949, "name": "Sophie Solar", "level": 0, "country": 840, "updated_at": 1442279681, "disable": 0, "end_at": 0, "shape": 0, "warning": 1, "radius": 805, "lat": 35.305, "lng": -81.696944, "type": 23, "city": "Mooresboro", "points": ""}, {"begin_at": 0, "area_id": 274952, "name": "Carol Jean Solar", "level": 0, "country": 840, "updated_at": 1442279681, "disable": 0, "end_at": 0, "shape": 0, "warning": 1, "radius": 805, "lat": 36.316111, "lng": -80.144444, "type": 23, "city": "Walnut Cove", "points": ""}, {"begin_at": 0, "area_id": 1233587, "name": "IOANNINA CTR", "level": 0, "country": 300, "updated_at": 1457569401, "disable": 0, "end_at": 0, "shape": 0, "warning": 1, "radius": 23585, "lat": 39.69722, "lng": 20.821944, "type": 17, "city": "", "points": ""}, {"begin_at": 0, "area_id": 1233598, "name": "OSIJEK CTR", "level": 0, "country": 191, "updated_at": 1457569401, "disable": 0, "end_at": 0, "shape": 0, "warning": 1, "radius": 27296, "lat": 45.449444, "lng": 18.76688, "type": 17, "city": "Tenja", "points": ""}, {"begin_at": 0, "area_id": 1233599, "name": "BRAC CTR", "level": 0, "country": 191, "updated_at": 1457569401, "disable": 0, "end_at": 0, "shape": 0, "warning": 1, "radius": 28168, "lat": 43.254166, "lng": 16.741805, "type": 17, "city": "Bol", "points": ""}, {"begin_at": 0, "area_id": 1233616, "name": "MONCHENGLADBACH  CTR", "level": 0, "country": 276, "updated_at": 1457569401, "disable": 0, "end_at": 0, "shape": 0, "warning": 1, "radius": 14471, "lat": 51.23125, "lng": 6.513472, "type": 17, "city": "Willich", "points": ""}, {"begin_at": 0, "area_id": 1233617, "name": "LAHR CTR", "level": 0, "country": 276, "updated_at": 1457569401, "disable": 0, "end_at": 0, "shape": 0, "warning": 1, "radius": 15564, "lat": 48.370278, "lng": 7.832043, "type": 17, "city": "Friesenheim", "points": ""}, {"begin_at": 0, "area_id": 1233631, "name": "IRAKLION NIKOS KAZANTZAKIS CTR", "level": 0, "country": 300, "updated_at": 1457569401, "disable": 0, "end_at": 0, "shape": 0, "warning": 1, "radius": 33362, "lat": 35.288534, "lng": 25.232453, "type": 17, "city": "", "points": ""}, {"begin_at": 0, "area_id": 1233650, "name": "WITTMUND CTR", "level": 0, "country": 276, "updated_at": 1457569401, "disable": 0, "end_at": 0, "shape": 0, "warning": 1, "radius": 14902, "lat": 53.55125, "lng": 7.678195, "type": 17, "city": "Dunum", "points": ""}, {"begin_at": 0, "area_id": 275101, "name": "Temple SEGF", "level": 0, "country": 840, "updated_at": 1442279684, "disable": 0, "end_at": 0, "shape": 0, "warning": 1, "radius": 805, "lat": 39.98, "lng": -75.150556, "type": 23, "city": "Philadelphia", "points": ""}, {"begin_at": 0, "area_id": 275103, "name": "Patriots Stadium", "level": 0, "country": 840, "updated_at": 1442279684, "disable": 0, "end_at": 0, "shape": 0, "warning": 1, "radius": 805, "lat": 40.560556, "lng": -74.551389, "type": 23, "city": "Bridgewater", "points": ""}, {"begin_at": 0, "area_id": 1233653, "name": "KOCHI CTR", "level": 0, "country": 392, "updated_at": 1457569401, "disable": 0, "end_at": 0, "shape": 0, "warning": 1, "radius": 13099, "lat": 33.549999, "lng": 133.666667, "type": 17, "city": "Nankoku-shi", "points": ""}, {"begin_at": 0, "area_id": 274980, "name": "Jackson Power Facility", "level": 0, "country": 840, "updated_at": 1442279682, "disable": 0, "end_at": 0, "shape": 0, "warning": 1, "radius": 805, "lat": 42.2488, "lng": -84.3767, "type": 23, "city": "Jackson", "points": ""}, {"begin_at": 0, "area_id": 1233664, "name": "MATSUYAMA CTR", "level": 0, "country": 392, "updated_at": 1457569401, "disable": 0, "end_at": 0, "shape": 0, "warning": 1, "radius": 13099, "lat": 33.827222, "lng": 132.699722, "type": 17, "city": "Matsuyama-shi", "points": ""}, {"begin_at": 0, "area_id": 1233678, "name": "GENEVA CTR", "level": 0, "country": 250, "updated_at": 1457569401, "disable": 0, "end_at": 0, "shape": 0, "warning": 1, "radius": 21524, "lat": 46.246302, "lng": 6.122154, "type": 17, "city": "Ferney-Voltaire", "points": ""}, {"begin_at": 0, "area_id": 275107, "name": "Valley Center 1", "level": 0, "country": 840, "updated_at": 1442279684, "disable": 0, "end_at": 0, "shape": 0, "warning": 1, "radius": 805, "lat": 33.234167, "lng": -117.001667, "type": 23, "city": "Valley Center", "points": ""}, {"begin_at": 0, "area_id": 274545, "name": "Milford Solar Farm", "level": 0, "country": 840, "updated_at": 1442279673, "disable": 0, "end_at": 0, "shape": 0, "warning": 1, "radius": 805, "lat": 38.923056, "lng": -75.453333, "type": 23, "city": "Milford", "points": ""}, {"begin_at": 0, "area_id": 273993, "name": "The City of Vineland at West Vineland", "level": 0, "country": 840, "updated_at": 1442279660, "disable": 0, "end_at": 0, "shape": 0, "warning": 1, "radius": 805, "lat": 39.462376, "lng": -75.070039, "type": 23, "city": "Vineland", "points": ""}, {"begin_at": 0, "area_id": 268007, "name": "Johnson County", "level": 0, "country": 840, "updated_at": 1442279509, "disable": 0, "end_at": 0, "shape": 0, "warning": 1, "radius": 805, "lat": 32.3994, "lng": -97.4078, "type": 23, "city": "Cleburne", "points": ""}, {"begin_at": 0, "area_id": 275114, "name": "Ramona 2", "level": 0, "country": 840, "updated_at": 1442279684, "disable": 0, "end_at": 0, "shape": 0, "warning": 1, "radius": 805, "lat": 33.012222, "lng": -116.875, "type": 23, "city": "Ramona", "points": ""}, {"begin_at": 0, "area_id": 1233679, "name": "VATRY CTR", "level": 0, "country": 250, "updated_at": 1457569401, "disable": 0, "end_at": 0, "shape": 0, "warning": 1, "radius": 20660, "lat": 48.77624, "lng": 4.184156, "type": 17, "city": "Vassimont-et-Chapelaine", "points": ""}, {"begin_at": 0, "area_id": 1233694, "name": "KVERNBERGET CTR", "level": 0, "country": 578, "updated_at": 1457569401, "disable": 0, "end_at": 0, "shape": 0, "warning": 1, "radius": 30920, "lat": 63.091667, "lng": 7.641667, "type": 17, "city": "Bruhagen", "points": ""}, {"begin_at": 0, "area_id": 1233708, "name": "CALICUT CTR", "level": 0, "country": 356, "updated_at": 1457569401, "disable": 0, "end_at": 0, "shape": 0, "warning": 1, "radius": 71057, "lat": 11.1356, "lng": 76.023727, "type": 17, "city": "Mongam", "points": ""}, {"begin_at": 0, "area_id": 1233711, "name": "KHERSON CTR", "level": 0, "country": 804, "updated_at": 1457569401, "disable": 0, "end_at": 0, "shape": 0, "warning": 1, "radius": 38735, "lat": 46.669584, "lng": 32.507083, "type": 17, "city": "Komyshany", "points": ""}, {"begin_at": 0, "area_id": 270261, "name": "Sooner", "level": 0, "country": 840, "updated_at": 1442279564, "disable": 0, "end_at": 0, "shape": 0, "warning": 1, "radius": 805, "lat": 36.45307, "lng": -97.05279, "type": 23, "city": "Red Rock", "points": ""}, {"begin_at": 0, "area_id": 269181, "name": "Lansing Smith", "level": 0, "country": 840, "updated_at": 1442279536, "disable": 0, "end_at": 0, "shape": 0, "warning": 1, "radius": 805, "lat": 30.2686, "lng": -85.7003, "type": 23, "city": "Panama City", "points": ""}, {"begin_at": 0, "area_id": 269186, "name": "NRG Energy Center Dover", "level": 0, "country": 840, "updated_at": 1442279536, "disable": 0, "end_at": 0, "shape": 0, "warning": 1, "radius": 805, "lat": 39.149549, "lng": -75.547335, "type": 23, "city": "Dover", "points": ""}, {"begin_at": 0, "area_id": 269192, "name": "Hamilton Hydro", "level": 0, "country": 840, "updated_at": 1442279536, "disable": 0, "end_at": 0, "shape": 0, "warning": 1, "radius": 805, "lat": 39.4128, "lng": -84.5558, "type": 23, "city": "Hamilton", "points": ""}, {"begin_at": 0, "area_id": 1233723, "name": "KALAMATA MCTR", "level": 0, "country": 300, "updated_at": 1457569401, "disable": 0, "end_at": 0, "shape": 0, "warning": 1, "radius": 26205, "lat": 37.068331, "lng": 22.025278, "type": 17, "city": "", "points": ""}, {"begin_at": 0, "area_id": 274577, "name": "Venable Solar 2", "level": 0, "country": 840, "updated_at": 1442279673, "disable": 0, "end_at": 0, "shape": 0, "warning": 1, "radius": 805, "lat": 33.597222, "lng": -114.571667, "type": 23, "city": "Blythe", "points": ""}, {"begin_at": 0, "area_id": 1233729, "name": "MONASTIR CTR", "level": 0, "country": 788, "updated_at": 1457569401, "disable": 0, "end_at": 0, "shape": 0, "warning": 1, "radius": 33609, "lat": 35.737083, "lng": 10.754734, "type": 17, "city": "", "points": ""}, {"begin_at": 0, "area_id": 1233744, "name": "ENTEBBE CTR 2", "level": 0, "country": 800, "updated_at": 1457569401, "disable": 0, "end_at": 0, "shape": 0, "warning": 1, "radius": 23997, "lat": 0.06848, "lng": 32.562778, "type": 17, "city": "", "points": ""}, {"begin_at": 0, "area_id": 274578, "name": "Oxnard Paper Mill", "level": 0, "country": 840, "updated_at": 1442279673, "disable": 0, "end_at": 0, "shape": 0, "warning": 1, "radius": 805, "lat": 34.1414, "lng": -119.1831, "type": 23, "city": "Oxnard", "points": ""}, {"begin_at": 0, "area_id": 1233746, "name": "ENTEBBE CTR 4", "level": 0, "country": 800, "updated_at": 1457569401, "disable": 0, "end_at": 0, "shape": 0, "warning": 1, "radius": 21766, "lat": 0.079012, "lng": 32.313314, "type": 17, "city": "", "points": ""}, {"begin_at": 0, "area_id": 1233750, "name": "PALENQUE ATZ", "level": 0, "country": 484, "updated_at": 1457569401, "disable": 0, "end_at": 0, "shape": 0, "warning": 1, "radius": 13097, "lat": 17.533014, "lng": -92.015589, "type": 17, "city": "Palenque", "points": ""}, {"begin_at": 0, "area_id": 269201, "name": "Pleasant Valley (VA)", "level": 0, "country": 840, "updated_at": 1442279537, "disable": 0, "end_at": 0, "shape": 0, "warning": 1, "radius": 805, "lat": 38.4006, "lng": -78.8983, "type": 23, "city": "Harrisonburg", "points": ""}, {"begin_at": 0, "area_id": 269197, "name": "Hartford Hospital Cogeneration", "level": 0, "country": 840, "updated_at": 1442279537, "disable": 0, "end_at": 0, "shape": 0, "warning": 1, "radius": 805, "lat": 41.7631, "lng": -72.6733, "type": 23, "city": "Hartford", "points": ""}, {"begin_at": 0, "area_id": 269199, "name": "Harrisburg Facility", "level": 0, "country": 840, "updated_at": 1442279537, "disable": 0, "end_at": 0, "shape": 0, "warning": 1, "radius": 805, "lat": 40.244242, "lng": -76.853872, "type": 23, "city": "Harrisburg", "points": ""}, {"begin_at": 0, "area_id": 1233751, "name": "MELILLA ATZ", "level": 0, "country": 724, "updated_at": 1457569401, "disable": 0, "end_at": 0, "shape": 0, "warning": 1, "radius": 11317, "lat": 35.279722, "lng": -2.956389, "type": 17, "city": "Melilla", "points": ""}, {"begin_at": 0, "area_id": 1233752, "name": "ALICANTE ATZ", "level": 0, "country": 724, "updated_at": 1457569401, "disable": 0, "end_at": 0, "shape": 0, "warning": 1, "radius": 18084, "lat": 38.28125, "lng": -0.558194, "type": 17, "city": "Elche", "points": ""}, {"begin_at": 0, "area_id": 270277, "name": "Elk City Station", "level": 0, "country": 840, "updated_at": 1442279564, "disable": 0, "end_at": 0, "shape": 0, "warning": 1, "radius": 805, "lat": 41.383889, "lng": -96.254444, "type": 23, "city": "Bennington", "points": ""}, {"begin_at": 0, "area_id": 269204, "name": "Whelan Energy Center", "level": 0, "country": 840, "updated_at": 1442279537, "disable": 0, "end_at": 0, "shape": 0, "warning": 1, "radius": 805, "lat": 40.580872, "lng": -98.312437, "type": 23, "city": "Hastings", "points": ""}, {"begin_at": 0, "area_id": 1233760, "name": "JALALABAD CTR", "level": 0, "country": 4, "updated_at": 1457569401, "disable": 0, "end_at": 0, "shape": 0, "warning": 1, "radius": 13099, "lat": 34.400482, "lng": 70.497222, "type": 17, "city": "Jalalabad", "points": ""}, {"begin_at": 0, "area_id": 269202, "name": "Harrisonburg Power Plant", "level": 0, "country": 840, "updated_at": 1442279537, "disable": 0, "end_at": 0, "shape": 0, "warning": 1, "radius": 805, "lat": 38.4319, "lng": -78.8642, "type": 23, "city": "Harrisonburg", "points": ""}, {"begin_at": 0, "area_id": 269203, "name": "Hart", "level": 0, "country": 840, "updated_at": 1442279537, "disable": 0, "end_at": 0, "shape": 0, "warning": 1, "radius": 805, "lat": 43.7067, "lng": -86.4367, "type": 23, "city": "Mears", "points": ""}, {"begin_at": 0, "area_id": 1233762, "name": "BOBO DIOULASSO CTR", "level": 0, "country": 854, "updated_at": 1457569401, "disable": 0, "end_at": 0, "shape": 0, "warning": 1, "radius": 39295, "lat": 11.145025, "lng": -4.350861, "type": 17, "city": "Bobo-Dioulasso", "points": ""}, {"begin_at": 0, "area_id": 274657, "name": "Pantex", "level": 0, "country": 840, "updated_at": 1442279675, "disable": 0, "end_at": 0, "shape": 0, "warning": 1, "radius": 805, "lat": 35.322778, "lng": -101.5325, "type": 23, "city": "Panhandle", "points": ""}, {"begin_at": 0, "area_id": 269207, "name": "Hastings City Hydroelectric", "level": 0, "country": 840, "updated_at": 1442279537, "disable": 0, "end_at": 0, "shape": 0, "warning": 1, "radius": 805, "lat": 44.760249, "lng": -92.867743, "type": 23, "city": "Hastings", "points": ""}, {"begin_at": 0, "area_id": 268894, "name": "Avon Park", "level": 0, "country": 840, "updated_at": 1442279529, "disable": 0, "end_at": 0, "shape": 0, "warning": 1, "radius": 805, "lat": 27.579444, "lng": -81.492778, "type": 23, "city": "Avon Park", "points": ""}, {"begin_at": 0, "area_id": 1235001, "name": "VICTORIA FALLS CTR", "level": 0, "country": 716, "updated_at": 1457569401, "disable": 0, "end_at": 0, "shape": 0, "warning": 1, "radius": 46827, "lat": -18.105193, "lng": 25.831142, "type": 17, "city": "", "points": ""}, {"begin_at": 0, "area_id": 269209, "name": "Kaheka Hydro", "level": 0, "country": 840, "updated_at": 1442279537, "disable": 0, "end_at": 0, "shape": 0, "warning": 1, "radius": 805, "lat": 20.8886, "lng": -156.3569, "type": 23, "city": "Makawao", "points": ""}, {"begin_at": 0, "area_id": 1235002, "name": "MINNERIYA CTR", "level": 0, "country": 144, "updated_at": 1457569401, "disable": 0, "end_at": 0, "shape": 0, "warning": 1, "radius": 26194, "lat": 8.05, "lng": 80.966667, "type": 17, "city": "", "points": ""}, {"begin_at": 0, "area_id": 1235008, "name": "CHANNEL ISLANDS CTR SOUTH", "level": 0, "country": 831, "updated_at": 1457569401, "disable": 0, "end_at": 0, "shape": 0, "warning": 1, "radius": 72407, "lat": 49.516666, "lng": -2.333334, "type": 17, "city": "Saint Peter Port", "points": ""}, {"begin_at": 0, "area_id": 269211, "name": "Kanoelehua", "level": 0, "country": 840, "updated_at": 1442279537, "disable": 0, "end_at": 0, "shape": 0, "warning": 1, "radius": 805, "lat": 19.7052, "lng": -155.0625, "type": 23, "city": "Hilo", "points": ""}, {"begin_at": 0, "area_id": 270289, "name": "Oroville Cogeneration LP", "level": 0, "country": 840, "updated_at": 1442279564, "disable": 0, "end_at": 0, "shape": 0, "warning": 1, "radius": 805, "lat": 39.5125, "lng": -121.5817, "type": 23, "city": "Oroville", "points": ""}, {"begin_at": 0, "area_id": 273613, "name": "Lost Hills", "level": 0, "country": 840, "updated_at": 1442279651, "disable": 0, "end_at": 0, "shape": 0, "warning": 1, "radius": 805, "lat": 35.62, "lng": -119.85, "type": 23, "city": "Lost Hills", "points": ""}, {"begin_at": 0, "area_id": 270291, "name": "Orlando Cogen LP", "level": 0, "country": 840, "updated_at": 1442279564, "disable": 0, "end_at": 0, "shape": 0, "warning": 1, "radius": 805, "lat": 28.442623, "lng": -81.412343, "type": 23, "city": "Orlando", "points": ""}, {"begin_at": 0, "area_id": 1235009, "name": "VALLADOLID ATZ", "level": 0, "country": 724, "updated_at": 1457569401, "disable": 0, "end_at": 0, "shape": 0, "warning": 1, "radius": 11318, "lat": 41.706111, "lng": -4.851944, "type": 17, "city": "Villanubla", "points": ""}, {"begin_at": 0, "area_id": 275456, "name": "LAX Solar", "level": 0, "country": 840, "updated_at": 1442279697, "disable": 0, "end_at": 0, "shape": 0, "warning": 1, "radius": 805, "lat": 33.932778, "lng": -118.374167, "type": 23, "city": "LA", "points": ""}, {"begin_at": 0, "area_id": 1235010, "name": "IBIZA CTR", "level": 0, "country": 724, "updated_at": 1457569401, "disable": 0, "end_at": 0, "shape": 0, "warning": 1, "radius": 18851, "lat": 38.872373, "lng": 1.373055, "type": 17, "city": "Sant Josep de sa Talaia", "points": ""}, {"begin_at": 0, "area_id": 1235011, "name": "PIURA CTR", "level": 0, "country": 604, "updated_at": 1457569401, "disable": 0, "end_at": 0, "shape": 0, "warning": 1, "radius": 26190, "lat": -5.21, "lng": -80.616111, "type": 17, "city": "Piura", "points": ""}, {"begin_at": 0, "area_id": 269218, "name": "Keahole", "level": 0, "country": 840, "updated_at": 1442279537, "disable": 0, "end_at": 0, "shape": 0, "warning": 1, "radius": 805, "lat": 19.7317, "lng": -156.0283, "type": 23, "city": "Kailua-Kona", "points": ""}, {"begin_at": 0, "area_id": 1235064, "name": "DUSSELDORF CTR", "level": 0, "country": 276, "updated_at": 1457569401, "disable": 0, "end_at": 0, "shape": 0, "warning": 1, "radius": 19584, "lat": 51.288055, "lng": 6.767222, "type": 17, "city": "Ratingen", "points": ""}, {"begin_at": 0, "area_id": 1235071, "name": "FRIEDRICHSHAFEN CTR", "level": 0, "country": 276, "updated_at": 1457569401, "disable": 0, "end_at": 0, "shape": 0, "warning": 1, "radius": 20828, "lat": 47.691576, "lng": 9.532222, "type": 17, "city": "Meckenbeuren", "points": ""}, {"begin_at": 0, "area_id": 1235077, "name": "GWERU/THORNHILL CTR", "level": 0, "country": 716, "updated_at": 1457569401, "disable": 0, "end_at": 0, "shape": 0, "warning": 1, "radius": 47123, "lat": -19.436662, "lng": 29.860833, "type": 17, "city": "Gweru", "points": ""}, {"begin_at": 0, "area_id": 269221, "name": "Sprague Hydro", "level": 0, "country": 840, "updated_at": 1442279537, "disable": 0, "end_at": 0, "shape": 0, "warning": 1, "radius": 805, "lat": 42.50136, "lng": -120.98944, "type": 23, "city": "", "points": ""}, {"begin_at": 0, "area_id": 269222, "name": "Wilson Lake Hydroelectric Project", "level": 0, "country": 840, "updated_at": 1442279537, "disable": 0, "end_at": 0, "shape": 0, "warning": 1, "radius": 805, "lat": 42.628889, "lng": -114.174722, "type": 23, "city": "Hazelton", "points": ""}, {"begin_at": 0, "area_id": 269228, "name": "PInova Inc", "level": 0, "country": 840, "updated_at": 1442279537, "disable": 0, "end_at": 0, "shape": 0, "warning": 1, "radius": 805, "lat": 31.164772, "lng": -81.478724, "type": 23, "city": "Brunswick", "points": ""}, {"begin_at": 0, "area_id": 269227, "name": "Hendricks Regional Health", "level": 0, "country": 840, "updated_at": 1442279537, "disable": 0, "end_at": 0, "shape": 0, "warning": 1, "radius": 805, "lat": 39.76, "lng": -86.5144, "type": 23, "city": "Danville", "points": ""}, {"begin_at": 0, "area_id": 269213, "name": "W H Hill", "level": 0, "country": 840, "updated_at": 1442279537, "disable": 0, "end_at": 0, "shape": 0, "warning": 1, "radius": 805, "lat": 19.7041, "lng": -155.0607, "type": 23, "city": "Hilo", "points": ""}, {"begin_at": 0, "area_id": 1235083, "name": "PRISTINA CTR", "level": 0, "country": 0, "updated_at": 1457569401, "disable": 0, "end_at": 0, "shape": 0, "warning": 1, "radius": 26118, "lat": 42.572598, "lng": 21.080585, "type": 17, "city": "Glanica", "points": ""}, {"begin_at": 0, "area_id": 269225, "name": "Snake Creek", "level": 0, "country": 840, "updated_at": 1442279537, "disable": 0, "end_at": 0, "shape": 0, "warning": 1, "radius": 805, "lat": 40.544942, "lng": -111.502911, "type": 23, "city": "Midway", "points": ""}, {"begin_at": 0, "area_id": 1235086, "name": "ANTONIO MACEO CTR", "level": 0, "country": 192, "updated_at": 1457569401, "disable": 0, "end_at": 0, "shape": 0, "warning": 1, "radius": 26198, "lat": 19.969998, "lng": -75.835556, "type": 17, "city": "Santiago de Cuba", "points": ""}, {"begin_at": 0, "area_id": 269229, "name": "Herington", "level": 0, "country": 840, "updated_at": 1442279537, "disable": 0, "end_at": 0, "shape": 0, "warning": 1, "radius": 805, "lat": 38.6728, "lng": -96.9411, "type": 23, "city": "Herington", "points": ""}, {"begin_at": 0, "area_id": 269232, "name": "Hibbing", "level": 0, "country": 840, "updated_at": 1442279537, "disable": 0, "end_at": 0, "shape": 0, "warning": 1, "radius": 805, "lat": 47.4294, "lng": -92.935, "type": 23, "city": "Hibbing", "points": ""}, {"begin_at": 0, "area_id": 1235087, "name": "VILO ACUNA CTR", "level": 0, "country": 192, "updated_at": 1457569401, "disable": 0, "end_at": 0, "shape": 0, "warning": 1, "radius": 26199, "lat": 21.616109, "lng": -81.545556, "type": 17, "city": "", "points": ""}, {"begin_at": 0, "area_id": 269233, "name": "High Winds LLC", "level": 0, "country": 840, "updated_at": 1442279537, "disable": 0, "end_at": 0, "shape": 0, "warning": 1, "radius": 805, "lat": 38.1381, "lng": -121.8053, "type": 23, "city": "Rio Vista", "points": ""}, {"begin_at": 0, "area_id": 1235088, "name": "HOLGUIN CTR", "level": 0, "country": 192, "updated_at": 1457569401, "disable": 0, "end_at": 0, "shape": 0, "warning": 1, "radius": 39303, "lat": 20.785553, "lng": -76.315, "type": 17, "city": "", "points": ""}, {"begin_at": 0, "area_id": 269234, "name": "Higginsville", "level": 0, "country": 840, "updated_at": 1442279537, "disable": 0, "end_at": 0, "shape": 0, "warning": 1, "radius": 805, "lat": 39.073315, "lng": -93.714748, "type": 23, "city": "Higginsville", "points": ""}, {"begin_at": 0, "area_id": 269236, "name": "IMEA Highland", "level": 0, "country": 840, "updated_at": 1442279538, "disable": 0, "end_at": 0, "shape": 0, "warning": 1, "radius": 805, "lat": 38.7417, "lng": -89.6847, "type": 23, "city": "Highland", "points": ""}, {"begin_at": 0, "area_id": 269237, "name": "High Shoals Hydro (GA)", "level": 0, "country": 840, "updated_at": 1442279538, "disable": 0, "end_at": 0, "shape": 0, "warning": 1, "radius": 805, "lat": 33.816547, "lng": -83.504932, "type": 23, "city": "Good Hope", "points": ""}, {"begin_at": 0, "area_id": 1235089, "name": "IGNACIO AGRAMONTE CTR", "level": 0, "country": 192, "updated_at": 1457569401, "disable": 0, "end_at": 0, "shape": 0, "warning": 1, "radius": 52412, "lat": 21.420271, "lng": -77.8475, "type": 17, "city": "Camag\u00fcey", "points": ""}, {"begin_at": 0, "area_id": 1235090, "name": "HAVANA CTR", "level": 0, "country": 192, "updated_at": 1457569401, "disable": 0, "end_at": 0, "shape": 0, "warning": 1, "radius": 52414, "lat": 22.989159, "lng": -82.409167, "type": 17, "city": "La Habana", "points": ""}, {"begin_at": 0, "area_id": 269241, "name": "Hillsborough County Resource Recovery", "level": 0, "country": 840, "updated_at": 1442279538, "disable": 0, "end_at": 0, "shape": 0, "warning": 1, "radius": 805, "lat": 27.954901, "lng": -82.340469, "type": 23, "city": "Tampa", "points": ""}, {"begin_at": 0, "area_id": 273931, "name": "Carroll Area Wind Farm", "level": 0, "country": 840, "updated_at": 1442279659, "disable": 0, "end_at": 0, "shape": 0, "warning": 1, "radius": 805, "lat": 41.941389, "lng": -94.886111, "type": 23, "city": "Templeton", "points": ""}, {"begin_at": 0, "area_id": 1235091, "name": "SANTA CLARA CTR", "level": 0, "country": 192, "updated_at": 1457569401, "disable": 0, "end_at": 0, "shape": 0, "warning": 1, "radius": 26199, "lat": 22.49222, "lng": -79.943611, "type": 17, "city": "Santa Clara", "points": ""}, {"begin_at": 0, "area_id": 1235092, "name": "VARADERO CTR", "level": 0, "country": 192, "updated_at": 1457569401, "disable": 0, "end_at": 0, "shape": 0, "warning": 1, "radius": 52414, "lat": 23.034436, "lng": -81.435278, "type": 17, "city": "Matanzas", "points": ""}, {"begin_at": 0, "area_id": 269246, "name": "Hoffmann LaRoche", "level": 0, "country": 840, "updated_at": 1442279538, "disable": 0, "end_at": 0, "shape": 0, "warning": 1, "radius": 805, "lat": 40.8359, "lng": -74.155, "type": 23, "city": "Clifton", "points": ""}, {"begin_at": 0, "area_id": 1235094, "name": "JARDINES DEL REY CTR", "level": 0, "country": 192, "updated_at": 1457569401, "disable": 0, "end_at": 0, "shape": 0, "warning": 1, "radius": 52413, "lat": 22.461104, "lng": -78.328611, "type": 17, "city": "", "points": ""}, {"begin_at": 0, "area_id": 273997, "name": "UCSD Fuel Cell Plant", "level": 0, "country": 840, "updated_at": 1442279660, "disable": 0, "end_at": 0, "shape": 0, "warning": 1, "radius": 805, "lat": 32.877222, "lng": -117.234722, "type": 23, "city": "San Diego", "points": ""}, {"begin_at": 0, "area_id": 274027, "name": "Kit Carson", "level": 0, "country": 840, "updated_at": 1442279661, "disable": 0, "end_at": 0, "shape": 0, "warning": 1, "radius": 805, "lat": 36.966667, "lng": -105.438056, "type": 23, "city": "Amalia", "points": ""}, {"begin_at": 0, "area_id": 1235095, "name": "JARDINES DEL REY ATZ", "level": 0, "country": 192, "updated_at": 1457569401, "disable": 0, "end_at": 0, "shape": 0, "warning": 1, "radius": 7858, "lat": 22.461111, "lng": -78.328611, "type": 17, "city": "", "points": ""}, {"begin_at": 0, "area_id": 269692, "name": "Mars Snackfood US", "level": 0, "country": 840, "updated_at": 1442279550, "disable": 0, "end_at": 0, "shape": 0, "warning": 1, "radius": 805, "lat": 41.91708, "lng": -87.79218, "type": 23, "city": "Chgo", "points": ""}, {"begin_at": 0, "area_id": 274062, "name": "St Joseph Energy Center", "level": 0, "country": 840, "updated_at": 1442279662, "disable": 0, "end_at": 0, "shape": 0, "warning": 1, "radius": 805, "lat": 41.698992, "lng": -86.479699, "type": 23, "city": "New Carlisle", "points": ""}, {"begin_at": 0, "area_id": 1235097, "name": "HAVANA ATZ", "level": 0, "country": 192, "updated_at": 1457569401, "disable": 0, "end_at": 0, "shape": 0, "warning": 1, "radius": 7858, "lat": 22.989167, "lng": -82.409167, "type": 17, "city": "La Habana", "points": ""}, {"begin_at": 0, "area_id": 269707, "name": "Ivy River Hydro", "level": 0, "country": 840, "updated_at": 1442279550, "disable": 0, "end_at": 0, "shape": 0, "warning": 1, "radius": 805, "lat": 35.771627, "lng": -82.61827, "type": 23, "city": "Marshall", "points": ""}, {"begin_at": 0, "area_id": 1235098, "name": "VARADERO ATZ", "level": 0, "country": 192, "updated_at": 1457569401, "disable": 0, "end_at": 0, "shape": 0, "warning": 1, "radius": 7858, "lat": 23.034444, "lng": -81.435278, "type": 17, "city": "Matanzas", "points": ""}, {"begin_at": 0, "area_id": 269737, "name": "Wilkins Station", "level": 0, "country": 840, "updated_at": 1442279551, "disable": 0, "end_at": 0, "shape": 0, "warning": 1, "radius": 805, "lat": 42.5139, "lng": -70.8547, "type": 23, "city": "Marblehead", "points": ""}, {"begin_at": 0, "area_id": 269245, "name": "Hoge Lumber", "level": 0, "country": 840, "updated_at": 1442279538, "disable": 0, "end_at": 0, "shape": 0, "warning": 1, "radius": 805, "lat": 40.488484, "lng": -84.3183, "type": 23, "city": "St Marys", "points": ""}, {"begin_at": 0, "area_id": 269746, "name": "Eastern Correctional Institute", "level": 0, "country": 840, "updated_at": 1442279551, "disable": 0, "end_at": 0, "shape": 0, "warning": 1, "radius": 805, "lat": 38.159, "lng": -75.704, "type": 23, "city": "Princess Anne", "points": ""}, {"begin_at": 0, "area_id": 269740, "name": "Martinez Refining", "level": 0, "country": 840, "updated_at": 1442279551, "disable": 0, "end_at": 0, "shape": 0, "warning": 1, "radius": 805, "lat": 38.0169, "lng": -122.1117, "type": 23, "city": "Martinez", "points": ""}, {"begin_at": 0, "area_id": 269757, "name": "Martinsville LFG Generator", "level": 0, "country": 840, "updated_at": 1442279552, "disable": 0, "end_at": 0, "shape": 0, "warning": 1, "radius": 805, "lat": 36.717222, "lng": -79.845278, "type": 23, "city": "Martinsville", "points": ""}, {"begin_at": 0, "area_id": 1235099, "name": "HOLGUIN ATZ", "level": 0, "country": 192, "updated_at": 1457569401, "disable": 0, "end_at": 0, "shape": 0, "warning": 1, "radius": 7858, "lat": 20.785556, "lng": -76.315, "type": 17, "city": "", "points": ""}, {"begin_at": 0, "area_id": 269247, "name": "Hoisington", "level": 0, "country": 840, "updated_at": 1442279538, "disable": 0, "end_at": 0, "shape": 0, "warning": 1, "radius": 805, "lat": 38.5275, "lng": -98.7758, "type": 23, "city": "Hoisington", "points": ""}, {"begin_at": 0, "area_id": 269775, "name": "McGrath", "level": 0, "country": 840, "updated_at": 1442279552, "disable": 0, "end_at": 0, "shape": 0, "warning": 1, "radius": 805, "lat": 63.2369, "lng": -154.219444, "type": 23, "city": "McGrath", "points": ""}, {"begin_at": 0, "area_id": 269248, "name": "Hoffer Plastics", "level": 0, "country": 840, "updated_at": 1442279538, "disable": 0, "end_at": 0, "shape": 0, "warning": 1, "radius": 805, "lat": 41.998889, "lng": -88.302222, "type": 23, "city": "South Elgin", "points": ""}, {"begin_at": 0, "area_id": 1235100, "name": "VILO ACUNA ATZ", "level": 0, "country": 192, "updated_at": 1457569401, "disable": 0, "end_at": 0, "shape": 0, "warning": 1, "radius": 7858, "lat": 21.616111, "lng": -81.545556, "type": 17, "city": "", "points": ""}, {"begin_at": 0, "area_id": 269249, "name": "James De Young", "level": 0, "country": 840, "updated_at": 1442279538, "disable": 0, "end_at": 0, "shape": 0, "warning": 1, "radius": 805, "lat": 42.7956, "lng": -86.1133, "type": 23, "city": "Holland", "points": ""}, {"begin_at": 0, "area_id": 269787, "name": "Cedar Hills Wind Farm", "level": 0, "country": 840, "updated_at": 1442279552, "disable": 0, "end_at": 0, "shape": 0, "warning": 1, "radius": 805, "lat": 46.245556, "lng": -103.767222, "type": 23, "city": "Rhame", "points": ""}, {"begin_at": 0, "area_id": 269792, "name": "McPherson 2", "level": 0, "country": 840, "updated_at": 1442279552, "disable": 0, "end_at": 0, "shape": 0, "warning": 1, "radius": 805, "lat": 38.363411, "lng": -97.68335, "type": 23, "city": "McPherson", "points": ""}, {"begin_at": 0, "area_id": 269796, "name": "Bidwell Ditch Project", "level": 0, "country": 840, "updated_at": 1442279552, "disable": 0, "end_at": 0, "shape": 0, "warning": 1, "radius": 805, "lat": 40.8014, "lng": -121.4481, "type": 23, "city": "Hat Creek", "points": ""}, {"begin_at": 0, "area_id": 270324, "name": "Elmer Smith", "level": 0, "country": 840, "updated_at": 1442279565, "disable": 0, "end_at": 0, "shape": 0, "warning": 1, "radius": 805, "lat": 37.7942, "lng": -87.0608, "type": 23, "city": "Owensboro", "points": ""}, {"begin_at": 0, "area_id": 269250, "name": "Girvin Landfill", "level": 0, "country": 840, "updated_at": 1442279538, "disable": 0, "end_at": 0, "shape": 0, "warning": 1, "radius": 805, "lat": 30.3356, "lng": -81.4639, "type": 23, "city": "Jacksonville", "points": ""}, {"begin_at": 0, "area_id": 269805, "name": "MeadWestvaco Evadale", "level": 0, "country": 840, "updated_at": 1442279553, "disable": 0, "end_at": 0, "shape": 0, "warning": 1, "radius": 805, "lat": 30.3419, "lng": -94.0656, "type": 23, "city": "Silsbee", "points": ""}, {"begin_at": 0, "area_id": 269252, "name": "491 E 48th Street", "level": 0, "country": 840, "updated_at": 1442279538, "disable": 0, "end_at": 0, "shape": 0, "warning": 1, "radius": 805, "lat": 42.7553, "lng": -86.0853, "type": 23, "city": "Holland", "points": ""}, {"begin_at": 0, "area_id": 269815, "name": "Walter Scott Jr Energy Center", "level": 0, "country": 840, "updated_at": 1442279553, "disable": 0, "end_at": 0, "shape": 0, "warning": 1, "radius": 805, "lat": 41.18, "lng": -95.8408, "type": 23, "city": "Council Bluffs", "points": ""}, {"begin_at": 0, "area_id": 1235101, "name": "IGNACIO AGRAMONTE ATZ", "level": 0, "country": 192, "updated_at": 1457569401, "disable": 0, "end_at": 0, "shape": 0, "warning": 1, "radius": 7858, "lat": 21.420277, "lng": -77.8475, "type": 17, "city": "Camag\u00fcey", "points": ""}, {"begin_at": 0, "area_id": 269259, "name": "Chemical", "level": 0, "country": 840, "updated_at": 1442279538, "disable": 0, "end_at": 0, "shape": 0, "warning": 1, "radius": 805, "lat": 42.1919, "lng": -72.6097, "type": 23, "city": "Holyoke", "points": ""}, {"begin_at": 0, "area_id": 269829, "name": "Intrepid", "level": 0, "country": 840, "updated_at": 1442279553, "disable": 0, "end_at": 0, "shape": 0, "warning": 1, "radius": 805, "lat": 42.5539, "lng": -95.3283, "type": 23, "city": "Schaller", "points": ""}, {"begin_at": 0, "area_id": 269836, "name": "Walnut Wind Farm", "level": 0, "country": 840, "updated_at": 1442279553, "disable": 0, "end_at": 0, "shape": 0, "warning": 1, "radius": 805, "lat": 41.4517, "lng": -95.2383, "type": 23, "city": "Walnut", "points": ""}, {"begin_at": 0, "area_id": 1235102, "name": "ANTONIO MACEO ATZ", "level": 0, "country": 192, "updated_at": 1457569401, "disable": 0, "end_at": 0, "shape": 0, "warning": 1, "radius": 7858, "lat": 19.97, "lng": -75.835556, "type": 17, "city": "Santiago de Cuba", "points": ""}, {"begin_at": 0, "area_id": 1235103, "name": "SANTA CLARA ATZ", "level": 0, "country": 192, "updated_at": 1457569401, "disable": 0, "end_at": 0, "shape": 0, "warning": 1, "radius": 7858, "lat": 22.492222, "lng": -79.943611, "type": 17, "city": "Santa Clara", "points": ""}, {"begin_at": 0, "area_id": 269899, "name": "Mid-Georgia Cogeneration Facility", "level": 0, "country": 840, "updated_at": 1442279555, "disable": 0, "end_at": 0, "shape": 0, "warning": 1, "radius": 805, "lat": 32.4856, "lng": -83.6039, "type": 23, "city": "Kathleen", "points": ""}, {"begin_at": 0, "area_id": 1235104, "name": "GUANTANAMO ATZ", "level": 0, "country": 192, "updated_at": 1457569401, "disable": 0, "end_at": 0, "shape": 0, "warning": 1, "radius": 7858, "lat": 20.085278, "lng": -75.158333, "type": 17, "city": "", "points": ""}, {"begin_at": 0, "area_id": 269900, "name": "Milford Power Project", "level": 0, "country": 840, "updated_at": 1442279555, "disable": 0, "end_at": 0, "shape": 0, "warning": 1, "radius": 805, "lat": 41.224355, "lng": -73.099728, "type": 23, "city": "Milford", "points": ""}, {"begin_at": 0, "area_id": 269920, "name": "Pillager", "level": 0, "country": 840, "updated_at": 1442279555, "disable": 0, "end_at": 0, "shape": 0, "warning": 1, "radius": 805, "lat": 46.316033, "lng": -94.484944, "type": 23, "city": "Pillager", "points": ""}, {"begin_at": 0, "area_id": 271113, "name": "Kapstone", "level": 0, "country": 840, "updated_at": 1442279588, "disable": 0, "end_at": 0, "shape": 0, "warning": 1, "radius": 805, "lat": 32.9, "lng": -79.9667, "type": 23, "city": "North Charleston", "points": ""}, {"begin_at": 0, "area_id": 1235106, "name": "GUANTANAMO CTR", "level": 0, "country": 192, "updated_at": 1457569401, "disable": 0, "end_at": 0, "shape": 0, "warning": 1, "radius": 26198, "lat": 20.085276, "lng": -75.158333, "type": 17, "city": "", "points": ""}, {"begin_at": 0, "area_id": 269950, "name": "Eaton", "level": 0, "country": 840, "updated_at": 1442279556, "disable": 0, "end_at": 0, "shape": 0, "warning": 1, "radius": 805, "lat": 31.3294, "lng": -89.2681, "type": 23, "city": "Petal", "points": ""}, {"begin_at": 0, "area_id": 1235107, "name": "TUNAS ATZ", "level": 0, "country": 192, "updated_at": 1457569401, "disable": 0, "end_at": 0, "shape": 0, "warning": 1, "radius": 7858, "lat": 20.987778, "lng": -76.935833, "type": 17, "city": "Las Tunas", "points": ""}, {"begin_at": 0, "area_id": 1235108, "name": "MANNHEIM CTR", "level": 0, "country": 276, "updated_at": 1457569401, "disable": 0, "end_at": 0, "shape": 0, "warning": 1, "radius": 11743, "lat": 49.472639, "lng": 8.513056, "type": 17, "city": "Mannheim", "points": ""}, {"begin_at": 0, "area_id": 271108, "name": "Urquhart", "level": 0, "country": 840, "updated_at": 1442279588, "disable": 0, "end_at": 0, "shape": 0, "warning": 1, "radius": 805, "lat": 33.435, "lng": -81.9111, "type": 23, "city": "Beech Island", "points": ""}, {"begin_at": 0, "area_id": 269948, "name": "Hinds Energy Facility", "level": 0, "country": 840, "updated_at": 1442279556, "disable": 0, "end_at": 0, "shape": 0, "warning": 1, "radius": 805, "lat": 32.378969, "lng": -90.219906, "type": 23, "city": "Jackson", "points": ""}, {"begin_at": 0, "area_id": 271193, "name": "Solar Photovoltaic Project #24", "level": 0, "country": 840, "updated_at": 1442279590, "disable": 0, "end_at": 0, "shape": 0, "warning": 1, "radius": 805, "lat": 34.038333, "lng": -117.373055, "type": 23, "city": "Bloomington", "points": ""}, {"begin_at": 0, "area_id": 271273, "name": "Plant X", "level": 0, "country": 840, "updated_at": 1442279595, "disable": 0, "end_at": 0, "shape": 0, "warning": 1, "radius": 805, "lat": 34.1661, "lng": -102.4114, "type": 23, "city": "", "points": ""}, {"begin_at": 0, "area_id": 269264, "name": "Harris Energy Realty", "level": 0, "country": 840, "updated_at": 1442279538, "disable": 0, "end_at": 0, "shape": 0, "warning": 1, "radius": 805, "lat": 42.205236, "lng": -72.592862, "type": 23, "city": "Holyoke", "points": ""}, {"begin_at": 0, "area_id": 270050, "name": "China Mill Hydro", "level": 0, "country": 840, "updated_at": 1442279559, "disable": 0, "end_at": 0, "shape": 0, "warning": 1, "radius": 805, "lat": 43.128712, "lng": -71.459866, "type": 23, "city": "Suncook", "points": ""}, {"begin_at": 0, "area_id": 271335, "name": "Stone Container Hodge", "level": 0, "country": 840, "updated_at": 1442279597, "disable": 0, "end_at": 0, "shape": 0, "warning": 1, "radius": 805, "lat": 32.2752, "lng": -92.7277, "type": 23, "city": "Hodge", "points": ""}, {"begin_at": 0, "area_id": 270102, "name": "Monroe Middle School", "level": 0, "country": 840, "updated_at": 1442279560, "disable": 0, "end_at": 0, "shape": 0, "warning": 1, "radius": 805, "lat": 34.973274, "lng": -80.540038, "type": 23, "city": "Monroe", "points": ""}, {"begin_at": 0, "area_id": 270141, "name": "Superior Falls", "level": 0, "country": 840, "updated_at": 1442279561, "disable": 0, "end_at": 0, "shape": 0, "warning": 1, "radius": 805, "lat": 46.564601, "lng": -90.416147, "type": 23, "city": "Ironwood", "points": ""}, {"begin_at": 0, "area_id": 1235109, "name": "TUNAS CTR", "level": 0, "country": 192, "updated_at": 1457569401, "disable": 0, "end_at": 0, "shape": 0, "warning": 1, "radius": 26198, "lat": 20.987776, "lng": -76.935833, "type": 17, "city": "Las Tunas", "points": ""}, {"begin_at": 0, "area_id": 270226, "name": "Tulloch", "level": 0, "country": 840, "updated_at": 1442279563, "disable": 0, "end_at": 0, "shape": 0, "warning": 1, "radius": 805, "lat": 37.876111, "lng": -120.605, "type": 23, "city": "Jamestown", "points": ""}, {"begin_at": 0, "area_id": 1235110, "name": "BAYAMO ATZ", "level": 0, "country": 192, "updated_at": 1457569401, "disable": 0, "end_at": 0, "shape": 0, "warning": 1, "radius": 7858, "lat": 20.396389, "lng": -76.621389, "type": 17, "city": "Bayamo", "points": ""}, {"begin_at": 0, "area_id": 270245, "name": "Smarr Energy Center", "level": 0, "country": 840, "updated_at": 1442279563, "disable": 0, "end_at": 0, "shape": 0, "warning": 1, "radius": 805, "lat": 32.9842, "lng": -83.8464, "type": 23, "city": "Juliette", "points": ""}, {"begin_at": 0, "area_id": 270255, "name": "Enid", "level": 0, "country": 840, "updated_at": 1442279564, "disable": 0, "end_at": 0, "shape": 0, "warning": 1, "radius": 805, "lat": 36.37125, "lng": -97.87374, "type": 23, "city": "Enid", "points": ""}, {"begin_at": 0, "area_id": 270288, "name": "Cheswick Power Plant", "level": 0, "country": 840, "updated_at": 1442279564, "disable": 0, "end_at": 0, "shape": 0, "warning": 1, "radius": 805, "lat": 40.5383, "lng": -79.7906, "type": 23, "city": "Springdale", "points": ""}, {"begin_at": 0, "area_id": 269268, "name": "Hull Wind II", "level": 0, "country": 840, "updated_at": 1442279538, "disable": 0, "end_at": 0, "shape": 0, "warning": 1, "radius": 805, "lat": 42.261111, "lng": -70.856389, "type": 23, "city": "Hull", "points": ""}, {"begin_at": 0, "area_id": 269267, "name": "G W Ivey", "level": 0, "country": 840, "updated_at": 1442279538, "disable": 0, "end_at": 0, "shape": 0, "warning": 1, "radius": 805, "lat": 25.4756, "lng": -80.47, "type": 23, "city": "Homestead", "points": ""}, {"begin_at": 0, "area_id": 1235111, "name": "BAYAMO CTR", "level": 0, "country": 192, "updated_at": 1457569401, "disable": 0, "end_at": 0, "shape": 0, "warning": 1, "radius": 26198, "lat": 20.396387, "lng": -76.621389, "type": 17, "city": "Bayamo", "points": ""}, {"begin_at": 0, "area_id": 270317, "name": "Michell Butte Power Project", "level": 0, "country": 840, "updated_at": 1442279565, "disable": 0, "end_at": 0, "shape": 0, "warning": 1, "radius": 805, "lat": 43.771896, "lng": -117.155023, "type": 23, "city": "Nyssa", "points": ""}, {"begin_at": 0, "area_id": 269272, "name": "Hunterdon Cogen Facility", "level": 0, "country": 840, "updated_at": 1442279538, "disable": 0, "end_at": 0, "shape": 0, "warning": 1, "radius": 805, "lat": 40.627823, "lng": -74.935979, "type": 23, "city": "Union Township", "points": ""}, {"begin_at": 0, "area_id": 270316, "name": "High Dam", "level": 0, "country": 840, "updated_at": 1442279565, "disable": 0, "end_at": 0, "shape": 0, "warning": 1, "radius": 805, "lat": 43.4436, "lng": -76.4961, "type": 23, "city": "Oswego", "points": ""}, {"begin_at": 0, "area_id": 270371, "name": "Lime Saddle", "level": 0, "country": 840, "updated_at": 1442279566, "disable": 0, "end_at": 0, "shape": 0, "warning": 1, "radius": 805, "lat": 39.698755, "lng": -121.57096, "type": 23, "city": "Paradise", "points": ""}, {"begin_at": 0, "area_id": 269271, "name": "Houma", "level": 0, "country": 840, "updated_at": 1442279538, "disable": 0, "end_at": 0, "shape": 0, "warning": 1, "radius": 805, "lat": 29.5806, "lng": -90.7225, "type": 23, "city": "Houma", "points": ""}, {"begin_at": 0, "area_id": 1235112, "name": "BARACOA ATZ", "level": 0, "country": 192, "updated_at": 1457569401, "disable": 0, "end_at": 0, "shape": 0, "warning": 1, "radius": 7858, "lat": 20.365278, "lng": -74.506111, "type": 17, "city": "Baracoa", "points": ""}, {"begin_at": 0, "area_id": 269269, "name": "Hopkinton", "level": 0, "country": 840, "updated_at": 1442279538, "disable": 0, "end_at": 0, "shape": 0, "warning": 1, "radius": 805, "lat": 42.343542, "lng": -91.2471, "type": 23, "city": "Hopkinton", "points": ""}, {"begin_at": 0, "area_id": 270386, "name": "Salt Springs", "level": 0, "country": 840, "updated_at": 1442279567, "disable": 0, "end_at": 0, "shape": 0, "warning": 1, "radius": 805, "lat": 38.497914, "lng": -120.21811, "type": 23, "city": "Pioneer", "points": ""}, {"begin_at": 0, "area_id": 270337, "name": "P H Glatfelter", "level": 0, "country": 840, "updated_at": 1442279566, "disable": 0, "end_at": 0, "shape": 0, "warning": 1, "radius": 805, "lat": 39.870935, "lng": -76.868117, "type": 23, "city": "Spring Grove", "points": ""}, {"begin_at": 0, "area_id": 270403, "name": "Diablo Canyon", "level": 0, "country": 840, "updated_at": 1442279567, "disable": 0, "end_at": 0, "shape": 0, "warning": 1, "radius": 805, "lat": 35.211536, "lng": -120.855542, "type": 23, "city": "", "points": ""}, {"begin_at": 0, "area_id": 1235113, "name": "BARACOA CTR", "level": 0, "country": 192, "updated_at": 1457569401, "disable": 0, "end_at": 0, "shape": 0, "warning": 1, "radius": 26198, "lat": 20.365277, "lng": -74.506111, "type": 17, "city": "Baracoa", "points": ""}, {"begin_at": 0, "area_id": 270429, "name": "Fall Creek", "level": 0, "country": 840, "updated_at": 1442279571, "disable": 0, "end_at": 0, "shape": 0, "warning": 1, "radius": 805, "lat": 41.985605, "lng": -122.360455, "type": 23, "city": "Hornbrook", "points": ""}, {"begin_at": 0, "area_id": 270441, "name": "Toketee Falls", "level": 0, "country": 840, "updated_at": 1442279572, "disable": 0, "end_at": 0, "shape": 0, "warning": 1, "radius": 805, "lat": 43.272729, "lng": -122.447498, "type": 23, "city": "", "points": ""}, {"begin_at": 0, "area_id": 271850, "name": "Suwannee River Chemical Complex", "level": 0, "country": 840, "updated_at": 1442279610, "disable": 0, "end_at": 0, "shape": 0, "warning": 1, "radius": 805, "lat": 30.4447, "lng": -82.7842, "type": 23, "city": "Jasper", "points": ""}, {"begin_at": 0, "area_id": 270454, "name": "Yale", "level": 0, "country": 840, "updated_at": 1442279572, "disable": 0, "end_at": 0, "shape": 0, "warning": 1, "radius": 805, "lat": 45.96277, "lng": -122.335467, "type": 23, "city": "Ariel", "points": ""}, {"begin_at": 0, "area_id": 267443, "name": "Amelia Energy Center", "level": 0, "country": 840, "updated_at": 1442279498, "disable": 0, "end_at": 0, "shape": 0, "warning": 1, "radius": 805, "lat": 30.0775, "lng": -94.234444, "type": 23, "city": "Beaumont", "points": ""}, {"begin_at": 0, "area_id": 269273, "name": "Cherry Street", "level": 0, "country": 840, "updated_at": 1442279538, "disable": 0, "end_at": 0, "shape": 0, "warning": 1, "radius": 805, "lat": 42.388611, "lng": -71.56, "type": 23, "city": "Hudson", "points": ""}, {"begin_at": 0, "area_id": 270500, "name": "Glenarm", "level": 0, "country": 840, "updated_at": 1442279573, "disable": 0, "end_at": 0, "shape": 0, "warning": 1, "radius": 805, "lat": 34.126, "lng": -118.1494, "type": 23, "city": "Pasadena", "points": ""}, {"begin_at": 0, "area_id": 272001, "name": "Rockton", "level": 0, "country": 840, "updated_at": 1442279613, "disable": 0, "end_at": 0, "shape": 0, "warning": 1, "radius": 805, "lat": 42.4511, "lng": -89.0756, "type": 23, "city": "Rockton", "points": ""}, {"begin_at": 0, "area_id": 270631, "name": "Cochrane", "level": 0, "country": 840, "updated_at": 1442279577, "disable": 0, "end_at": 0, "shape": 0, "warning": 1, "radius": 805, "lat": 47.5375, "lng": -111.194969, "type": 23, "city": "Great Falls", "points": ""}, {"begin_at": 0, "area_id": 1235115, "name": "MOA ATZ", "level": 0, "country": 192, "updated_at": 1457569401, "disable": 0, "end_at": 0, "shape": 0, "warning": 1, "radius": 7858, "lat": 20.654167, "lng": -74.921944, "type": 17, "city": "Moa", "points": ""}, {"begin_at": 0, "area_id": 272324, "name": "Heber Solar", "level": 0, "country": 840, "updated_at": 1442279621, "disable": 0, "end_at": 0, "shape": 0, "warning": 1, "radius": 805, "lat": 32.7125, "lng": -115.540556, "type": 23, "city": "Heber", "points": ""}, {"begin_at": 0, "area_id": 1235116, "name": "MOA CTR", "level": 0, "country": 192, "updated_at": 1457569401, "disable": 0, "end_at": 0, "shape": 0, "warning": 1, "radius": 26198, "lat": 20.654165, "lng": -74.921944, "type": 17, "city": "Moa", "points": ""}, {"begin_at": 0, "area_id": 269275, "name": "Hugoton 2", "level": 0, "country": 840, "updated_at": 1442279538, "disable": 0, "end_at": 0, "shape": 0, "warning": 1, "radius": 805, "lat": 37.175, "lng": -101.3458, "type": 23, "city": "Hugoton", "points": ""}, {"begin_at": 0, "area_id": 269274, "name": "Hugoton 1", "level": 0, "country": 840, "updated_at": 1442279538, "disable": 0, "end_at": 0, "shape": 0, "warning": 1, "radius": 805, "lat": 37.175, "lng": -101.3458, "type": 23, "city": "Hugoton", "points": ""}, {"begin_at": 0, "area_id": 270705, "name": "Dry Lake Wind II LLC", "level": 0, "country": 840, "updated_at": 1442279578, "disable": 0, "end_at": 0, "shape": 0, "warning": 1, "radius": 805, "lat": 34.6062, "lng": -110.1734, "type": 23, "city": "", "points": ""}, {"begin_at": 0, "area_id": 268618, "name": "Keowee", "level": 0, "country": 840, "updated_at": 1442279522, "disable": 0, "end_at": 0, "shape": 0, "warning": 1, "radius": 805, "lat": 34.7981, "lng": -82.8872, "type": 23, "city": "Seneca", "points": ""}, {"begin_at": 0, "area_id": 270758, "name": "Wabash River", "level": 0, "country": 840, "updated_at": 1442279580, "disable": 0, "end_at": 0, "shape": 0, "warning": 1, "radius": 805, "lat": 39.53, "lng": -87.4247, "type": 23, "city": "West Terre Haute", "points": ""}, {"begin_at": 0, "area_id": 269276, "name": "Deweys Mill", "level": 0, "country": 840, "updated_at": 1442279538, "disable": 0, "end_at": 0, "shape": 0, "warning": 1, "radius": 805, "lat": 43.6411, "lng": -72.4061, "type": 23, "city": "Hartford", "points": ""}, {"begin_at": 0, "area_id": 269278, "name": "Hutzel Hospital", "level": 0, "country": 840, "updated_at": 1442279538, "disable": 0, "end_at": 0, "shape": 0, "warning": 1, "radius": 805, "lat": 42.3578, "lng": -83.0578, "type": 23, "city": "Detroit", "points": ""}, {"begin_at": 0, "area_id": 270816, "name": "Snoqualmie 2", "level": 0, "country": 840, "updated_at": 1442279581, "disable": 0, "end_at": 0, "shape": 0, "warning": 1, "radius": 805, "lat": 47.5445, "lng": -121.8414, "type": 23, "city": "Fall City", "points": ""}, {"begin_at": 0, "area_id": 1235117, "name": "PLAYA BARACOA ATZ", "level": 0, "country": 192, "updated_at": 1457569401, "disable": 0, "end_at": 0, "shape": 0, "warning": 1, "radius": 7858, "lat": 23.032778, "lng": -82.579444, "type": 17, "city": "", "points": ""}, {"begin_at": 0, "area_id": 1235118, "name": "PLAYA BARACOA CTR", "level": 0, "country": 192, "updated_at": 1457569401, "disable": 0, "end_at": 0, "shape": 0, "warning": 1, "radius": 52414, "lat": 23.032771, "lng": -82.579444, "type": 17, "city": "", "points": ""}, {"begin_at": 0, "area_id": 275186, "name": "Stow PV", "level": 0, "country": 840, "updated_at": 1442279686, "disable": 0, "end_at": 0, "shape": 0, "warning": 1, "radius": 805, "lat": 42.436944, "lng": -71.506111, "type": 23, "city": "Stow", "points": ""}, {"begin_at": 0, "area_id": 269280, "name": "Hutchinson Plant #1", "level": 0, "country": 840, "updated_at": 1442279539, "disable": 0, "end_at": 0, "shape": 0, "warning": 1, "radius": 805, "lat": 44.895741, "lng": -94.368433, "type": 23, "city": "Hutchinson", "points": ""}, {"begin_at": 0, "area_id": 269283, "name": "Inland Empire Energy Center", "level": 0, "country": 840, "updated_at": 1442279539, "disable": 0, "end_at": 0, "shape": 0, "warning": 1, "radius": 805, "lat": 33.738839, "lng": -117.170369, "type": 23, "city": "Menifee", "points": ""}, {"begin_at": 0, "area_id": 269286, "name": "Lower No 2", "level": 0, "country": 840, "updated_at": 1442279539, "disable": 0, "end_at": 0, "shape": 0, "warning": 1, "radius": 805, "lat": 43.468398, "lng": -112.062602, "type": 23, "city": "Idaho Falls", "points": ""},