{"release_limits": [{"begin_at": 0, "area_id": 896933, "name": "CLEVELAND CLINIC FLORIDA HOSPITAL", "level": 0, "country": 840, "updated_at": 1454721780, "disable": 0, "end_at": 0, "shape": 0, "warning": 1, "radius": 152, "lat": 26.088889, "lng": -80.365833, "type": 19, "city": "Weston", "points": ""}, {"begin_at": 0, "area_id": 274192, "name": "Swinging Bridge 1", "level": 0, "country": 840, "updated_at": 1442279665, "disable": 0, "end_at": 0, "shape": 0, "warning": 1, "radius": 805, "lat": 41.571667, "lng": -74.782777, "type": 23, "city": "Forestburgh", "points": ""}, {"begin_at": 0, "area_id": 896934, "name": "WILLISTON MEMORIAL HOSPITAL", "level": 0, "country": 840, "updated_at": 1454721780, "disable": 0, "end_at": 0, "shape": 0, "warning": 1, "radius": 152, "lat": 29.383026, "lng": -82.454826, "type": 19, "city": "Williston", "points": ""}, {"begin_at": 0, "area_id": 896935, "name": "I-10 HELISTOP", "level": 0, "country": 840, "updated_at": 1454721780, "disable": 0, "end_at": 0, "shape": 0, "warning": 1, "radius": 152, "lat": 30.27325, "lng": -82.784392, "type": 19, "city": "Lake City", "points": ""}, {"begin_at": 0, "area_id": 750748, "name": "Cheshire Correctional Institution", "level": 2, "country": 840, "updated_at": 1450774230, "disable": 0, "end_at": 0, "shape": 0, "warning": 0, "radius": 304, "lat": 41.521562, "lng": -72.900143, "type": 24, "city": "Cheshire", "points": ""}, {"begin_at": 0, "area_id": 896936, "name": "ADAMS EXECUTIVE", "level": 0, "country": 840, "updated_at": 1454721780, "disable": 0, "end_at": 0, "shape": 0, "warning": 1, "radius": 152, "lat": 28.016944, "lng": -81.675, "type": 19, "city": "Winter Haven", "points": ""}, {"begin_at": 0, "area_id": 271782, "name": "Wayne IC", "level": 0, "country": 840, "updated_at": 1442279609, "disable": 0, "end_at": 0, "shape": 0, "warning": 1, "radius": 805, "lat": 42.2278, "lng": -97.0183, "type": 23, "city": "Wayne", "points": ""}, {"begin_at": 0, "area_id": 896937, "name": "LAZY B I RANCH", "level": 0, "country": 840, "updated_at": 1454721780, "disable": 0, "end_at": 0, "shape": 0, "warning": 1, "radius": 152, "lat": 28.029743, "lng": -81.654522, "type": 19, "city": "Winter Haven", "points": ""}, {"begin_at": 0, "area_id": 896938, "name": "LEGOLAND FLORIDA", "level": 0, "country": 840, "updated_at": 1454721780, "disable": 0, "end_at": 0, "shape": 0, "warning": 1, "radius": 152, "lat": 27.989722, "lng": -81.693056, "type": 19, "city": "Winter Haven", "points": ""}, {"begin_at": 0, "area_id": 750749, "name": "Manson Youth Institution", "level": 2, "country": 840, "updated_at": 1450774230, "disable": 0, "end_at": 0, "shape": 0, "warning": 0, "radius": 304, "lat": 41.528767, "lng": -72.899488, "type": 24, "city": "Cheshire", "points": ""}, {"begin_at": 0, "area_id": 896939, "name": "WINTER HAVEN HOSPITAL", "level": 0, "country": 840, "updated_at": 1454721780, "disable": 0, "end_at": 0, "shape": 0, "warning": 1, "radius": 152, "lat": 28.028056, "lng": -81.724722, "type": 19, "city": "Winter Haven", "points": ""}, {"begin_at": 0, "area_id": 271783, "name": "Weatherford", "level": 0, "country": 840, "updated_at": 1442279609, "disable": 0, "end_at": 0, "shape": 0, "warning": 1, "radius": 805, "lat": 32.7553, "lng": -97.7939, "type": 23, "city": "Weatherford", "points": ""}, {"begin_at": 0, "area_id": 896940, "name": "GATOR LAKE", "level": 0, "country": 840, "updated_at": 1454721780, "disable": 0, "end_at": 0, "shape": 0, "warning": 1, "radius": 152, "lat": 28.276673, "lng": -82.320643, "type": 19, "city": "Wesley Chapel", "points": ""}, {"begin_at": 0, "area_id": 896941, "name": "VIRGIL", "level": 0, "country": 840, "updated_at": 1454721780, "disable": 0, "end_at": 0, "shape": 0, "warning": 1, "radius": 152, "lat": 31.595278, "lng": -84.422778, "type": 19, "city": "Albany", "points": ""}, {"begin_at": 0, "area_id": 750750, "name": "New Haven Correctional Center", "level": 2, "country": 840, "updated_at": 1450774230, "disable": 0, "end_at": 0, "shape": 0, "warning": 0, "radius": 304, "lat": 41.316579, "lng": -72.940623, "type": 24, "city": "New Haven", "points": ""}, {"begin_at": 0, "area_id": 896942, "name": "PHOEBE SUMTER", "level": 0, "country": 840, "updated_at": 1454721780, "disable": 0, "end_at": 0, "shape": 0, "warning": 1, "radius": 152, "lat": 32.0675, "lng": -84.255, "type": 19, "city": "Americus", "points": ""}, {"begin_at": 0, "area_id": 271791, "name": "Fresno Cogen Partners", "level": 0, "country": 840, "updated_at": 1442279609, "disable": 0, "end_at": 0, "shape": 0, "warning": 1, "radius": 805, "lat": 36.617022, "lng": -120.099846, "type": 23, "city": "San Joaquin", "points": ""}, {"begin_at": 0, "area_id": 896943, "name": "ST MARYS HEALTH CARE SYSTEMS", "level": 0, "country": 840, "updated_at": 1454721780, "disable": 0, "end_at": 0, "shape": 0, "warning": 1, "radius": 152, "lat": 33.947893, "lng": -83.408056, "type": 19, "city": "Athens", "points": ""}, {"begin_at": 0, "area_id": 896944, "name": "BRIDGE BUILDING", "level": 0, "country": 840, "updated_at": 1454721780, "disable": 0, "end_at": 0, "shape": 0, "warning": 1, "radius": 152, "lat": 33.809669, "lng": -84.39515, "type": 19, "city": "Atlanta", "points": ""}, {"begin_at": 0, "area_id": 750751, "name": "Garner Correctional Institution", "level": 2, "country": 840, "updated_at": 1450774230, "disable": 0, "end_at": 0, "shape": 0, "warning": 0, "radius": 304, "lat": 41.399677, "lng": -73.271893, "type": 24, "city": "Newtown", "points": ""}, {"begin_at": 0, "area_id": 896945, "name": "CHILDRENS HEALTH CARE ATL AT SCOTTISH RITE", "level": 0, "country": 840, "updated_at": 1454721780, "disable": 0, "end_at": 0, "shape": 0, "warning": 1, "radius": 152, "lat": 33.907222, "lng": -84.354167, "type": 19, "city": "Atlanta", "points": ""}, {"begin_at": 0, "area_id": 271793, "name": "Yuba City Cogen Partners", "level": 0, "country": 840, "updated_at": 1442279609, "disable": 0, "end_at": 0, "shape": 0, "warning": 1, "radius": 805, "lat": 39.13667, "lng": -121.639846, "type": 23, "city": "Yuba City", "points": ""}, {"begin_at": 0, "area_id": 896946, "name": "CHILDREN'S HEALTHCARE OF ATLANTA-EGLESTON", "level": 0, "country": 840, "updated_at": 1454721780, "disable": 0, "end_at": 0, "shape": 0, "warning": 1, "radius": 152, "lat": 33.794444, "lng": -84.320278, "type": 19, "city": "Atlanta", "points": ""}, {"begin_at": 0, "area_id": 896947, "name": "EMORY UNIVERSITY HOSPITAL", "level": 0, "country": 840, "updated_at": 1454721780, "disable": 0, "end_at": 0, "shape": 0, "warning": 1, "radius": 152, "lat": 33.792327, "lng": -84.32548, "type": 19, "city": "Atlanta", "points": ""}, {"begin_at": 0, "area_id": 750752, "name": "York Correctional Institution", "level": 2, "country": 840, "updated_at": 1450774230, "disable": 0, "end_at": 0, "shape": 0, "warning": 0, "radius": 304, "lat": 41.322194, "lng": -72.236501, "type": 24, "city": "East Lyme", "points": ""}, {"begin_at": 0, "area_id": 896948, "name": "EMORY UNIVERSITY HOSPITAL MIDTOWN", "level": 0, "country": 840, "updated_at": 1454721780, "disable": 0, "end_at": 0, "shape": 0, "warning": 1, "radius": 152, "lat": 33.77, "lng": -84.389167, "type": 19, "city": "Atlanta", "points": ""}, {"begin_at": 0, "area_id": 896949, "name": "GRADY MEMORIAL HOSPITAL", "level": 0, "country": 840, "updated_at": 1454721780, "disable": 0, "end_at": 0, "shape": 0, "warning": 1, "radius": 152, "lat": 33.752222, "lng": -84.382222, "type": 19, "city": "Atlanta", "points": ""}, {"begin_at": 0, "area_id": 271799, "name": "Gates Peaker", "level": 0, "country": 840, "updated_at": 1442279609, "disable": 0, "end_at": 0, "shape": 0, "warning": 1, "radius": 805, "lat": 36.152715, "lng": -120.148245, "type": 23, "city": "Coalinga", "points": ""}, {"begin_at": 0, "area_id": 896950, "name": "HILTON GARDEN INN DOWNTOWN", "level": 0, "country": 840, "updated_at": 1454721780, "disable": 0, "end_at": 0, "shape": 0, "warning": 1, "radius": 152, "lat": 33.761944, "lng": -84.395556, "type": 19, "city": "Atlanta", "points": ""}, {"begin_at": 0, "area_id": 896951, "name": "INTERSTATE NORTH", "level": 0, "country": 840, "updated_at": 1454721780, "disable": 0, "end_at": 0, "shape": 0, "warning": 1, "radius": 152, "lat": 33.900936, "lng": -84.469167, "type": 19, "city": "Atlanta", "points": ""}, {"begin_at": 0, "area_id": 896952, "name": "LEGACY MEDICAL CENTER", "level": 0, "country": 840, "updated_at": 1454721780, "disable": 0, "end_at": 0, "shape": 0, "warning": 1, "radius": 152, "lat": 33.740278, "lng": -84.511389, "type": 19, "city": "Atlanta", "points": ""}, {"begin_at": 0, "area_id": 271801, "name": "Delano Energy Center LLC", "level": 0, "country": 840, "updated_at": 1442279609, "disable": 0, "end_at": 0, "shape": 0, "warning": 1, "radius": 805, "lat": 36.549167, "lng": -120.111111, "type": 23, "city": "Helm", "points": ""}, {"begin_at": 0, "area_id": 896953, "name": "NORTHSIDE HOSPITAL", "level": 0, "country": 840, "updated_at": 1454721780, "disable": 0, "end_at": 0, "shape": 0, "warning": 1, "radius": 152, "lat": 33.909547, "lng": -84.352703, "type": 19, "city": "Atlanta", "points": ""}, {"begin_at": 0, "area_id": 896954, "name": "RABBIT HOLE", "level": 0, "country": 840, "updated_at": 1454721780, "disable": 0, "end_at": 0, "shape": 0, "warning": 1, "radius": 152, "lat": 33.538056, "lng": -84.474444, "type": 19, "city": "Fayetteville", "points": ""}, {"begin_at": 0, "area_id": 750753, "name": "Niantic Annex Correctional Facility", "level": 2, "country": 840, "updated_at": 1450774230, "disable": 0, "end_at": 0, "shape": 0, "warning": 0, "radius": 304, "lat": 41.32213, "lng": -72.23629, "type": 24, "city": "East Lyme", "points": ""}, {"begin_at": 0, "area_id": 896955, "name": "RUFFWOOD", "level": 0, "country": 840, "updated_at": 1454721780, "disable": 0, "end_at": 0, "shape": 0, "warning": 1, "radius": 152, "lat": 33.8825, "lng": -84.435833, "type": 19, "city": "Atlanta", "points": ""}, {"begin_at": 0, "area_id": 271561, "name": "Ice Harbor", "level": 0, "country": 840, "updated_at": 1442279604, "disable": 0, "end_at": 0, "shape": 0, "warning": 1, "radius": 805, "lat": 46.249801, "lng": -118.879838, "type": 23, "city": "Pasco", "points": ""}, {"begin_at": 0, "area_id": 896956, "name": "SAINT JOSEPH'S HOSPITAL", "level": 0, "country": 840, "updated_at": 1454721780, "disable": 0, "end_at": 0, "shape": 0, "warning": 1, "radius": 152, "lat": 33.910833, "lng": -84.350833, "type": 19, "city": "Sandy Springs", "points": ""}, {"begin_at": 0, "area_id": 896957, "name": "STATE CAPITAL PARKING LOT", "level": 0, "country": 840, "updated_at": 1454721780, "disable": 0, "end_at": 0, "shape": 0, "warning": 1, "radius": 152, "lat": 33.74844, "lng": -84.387427, "type": 19, "city": "Atlanta", "points": ""}, {"begin_at": 0, "area_id": 750754, "name": "Corrigan - Radgowski Correctional Center", "level": 2, "country": 840, "updated_at": 1450774230, "disable": 0, "end_at": 0, "shape": 0, "warning": 0, "radius": 304, "lat": 41.452094, "lng": -72.108762, "type": 24, "city": "Montville", "points": ""}, {"begin_at": 0, "area_id": 896958, "name": "THE COCA COLA COMPANY", "level": 0, "country": 840, "updated_at": 1454721780, "disable": 0, "end_at": 0, "shape": 0, "warning": 1, "radius": 152, "lat": 33.770939, "lng": -84.398816, "type": 19, "city": "Atlanta", "points": ""}, {"begin_at": 0, "area_id": 268336, "name": "Columbia Energy Center", "level": 0, "country": 840, "updated_at": 1442279517, "disable": 0, "end_at": 0, "shape": 0, "warning": 1, "radius": 805, "lat": 39.0192, "lng": -92.2629, "type": 23, "city": "Columbia", "points": ""}, {"begin_at": 0, "area_id": 896959, "name": "WGCL-TV", "level": 0, "country": 840, "updated_at": 1454721780, "disable": 0, "end_at": 0, "shape": 0, "warning": 1, "radius": 152, "lat": 33.787353, "lng": -84.401053, "type": 19, "city": "Atlanta", "points": ""}, {"begin_at": 0, "area_id": 896960, "name": "WSB-TV", "level": 0, "country": 840, "updated_at": 1454721780, "disable": 0, "end_at": 0, "shape": 0, "warning": 1, "radius": 152, "lat": 33.799272, "lng": -84.385556, "type": 19, "city": "Atlanta", "points": ""}, {"begin_at": 0, "area_id": 750755, "name": "Hartford Correctional Institution", "level": 2, "country": 840, "updated_at": 1450774230, "disable": 0, "end_at": 0, "shape": 0, "warning": 0, "radius": 304, "lat": 41.792443, "lng": -72.660718, "type": 24, "city": "Hartford", "points": ""}, {"begin_at": 0, "area_id": 896961, "name": "DOCTORS HOSPITAL", "level": 0, "country": 840, "updated_at": 1454721780, "disable": 0, "end_at": 0, "shape": 0, "warning": 1, "radius": 152, "lat": 33.481667, "lng": -82.091667, "type": 19, "city": "Augusta", "points": ""}, {"begin_at": 0, "area_id": 273321, "name": "Wildcat Wind Farm I, LLC", "level": 0, "country": 840, "updated_at": 1442279645, "disable": 0, "end_at": 0, "shape": 0, "warning": 1, "radius": 805, "lat": 40.349444, "lng": -85.843056, "type": 23, "city": "Elwood", "points": ""}, {"begin_at": 0, "area_id": 896962, "name": "DWIGHT DAVID EISENHOWER ARMY MEDICAL CNTR", "level": 0, "country": 840, "updated_at": 1454721780, "disable": 0, "end_at": 0, "shape": 0, "warning": 1, "radius": 152, "lat": 33.430138, "lng": -82.12123, "type": 19, "city": "Augusta", "points": ""}, {"begin_at": 0, "area_id": 896963, "name": "MEDICAL COLLEGE OF GEORGIA", "level": 0, "country": 840, "updated_at": 1454721780, "disable": 0, "end_at": 0, "shape": 0, "warning": 1, "radius": 152, "lat": 33.471111, "lng": -81.988333, "type": 19, "city": "Augusta", "points": ""}, {"begin_at": 0, "area_id": 896964, "name": "UNIVERSITY HOSPITAL", "level": 0, "country": 840, "updated_at": 1454721780, "disable": 0, "end_at": 0, "shape": 0, "warning": 1, "radius": 152, "lat": 33.470556, "lng": -81.983889, "type": 19, "city": "Augusta", "points": ""}, {"begin_at": 0, "area_id": 896965, "name": "COBB GENERAL HOSPITAL", "level": 0, "country": 840, "updated_at": 1454721780, "disable": 0, "end_at": 0, "shape": 0, "warning": 1, "radius": 152, "lat": 33.857327, "lng": -84.607156, "type": 19, "city": "Austell", "points": ""}, {"begin_at": 0, "area_id": 273323, "name": "Grandview Wind Farm, LLC", "level": 0, "country": 840, "updated_at": 1442279645, "disable": 0, "end_at": 0, "shape": 0, "warning": 1, "radius": 805, "lat": 35.238333, "lng": -101.310833, "type": 23, "city": "Groom", "points": ""}, {"begin_at": 0, "area_id": 896966, "name": "DEKALB POLICE DEPT", "level": 0, "country": 840, "updated_at": 1454721780, "disable": 0, "end_at": 0, "shape": 0, "warning": 1, "radius": 152, "lat": 33.776798, "lng": -84.241538, "type": 19, "city": "Decatur", "points": ""}, {"begin_at": 0, "area_id": 1240753, "name": "THUMBA ZONE I", "level": 3, "country": 0, "updated_at": 1457569401, "disable": 0, "end_at": 0, "shape": 0, "warning": 0, "radius": 95461, "lat": 8.085802, "lng": 76.485986, "type": 28, "city": "", "points": "POLYGON ((76.785231 8.5147189, 76.783942 8.5219280, 76.783289 8.529221, 76.783278 8.536543, 76.783907 8.543837, 76.785173 8.5510490, 76.787066 8.558123, 76.78957 8.5650049, 76.792668 8.5716439, 76.796336 8.577988, 76.800545 8.5839890, 76.805263 8.5896019, 76.810455 8.5947840, 76.816081 8.599496, 76.822098 8.6037009, 76.828460 8.6073679, 76.835117 8.6104679, 76.842023 8.6129789, 76.849121 8.614881, 76.856359 8.6161600, 76.86368 8.616806, 76.87103 8.616814, 76.878352 8.616185, 76.885591 8.614922, 76.892691 8.613037, 76.899598 8.6105420, 76.90626 8.6074579, 76.912627 8.6038080, 76.918649 8.5996190, 76.924280 8.5949240, 76.929479 8.5897590, 76.934205 8.5841619, 76.938423 8.578177, 76.9421 8.571849, 76.945209 8.565227, 76.947725 8.55836, 76.949631 8.551301, 76.950911 8.544105, 76.951556 8.536825, 76.95156 8.529517, 76.950925 8.5222370, 76.949655 8.5150400, 76.94776 8.5079809, 76.945254 8.5011139, 76.942156 8.494491, 76.938492 8.4881620, 76.934287 8.482175, 76.929574 8.476576, 76.924389 8.471408, 76.918772 8.4667100, 76.912766 8.462517, 76.906415 8.458862, 76.89977 8.455771, 76.892878 8.4532690, 76.885797 8.4513750, 76.878575 8.450103, 76.87127 8.449462, 76.863938 8.4494570, 76.856633 8.450089, 76.849411 8.451352, 76.842327 8.453236, 76.835438 8.4557280, 76.828791 8.458809, 76.82244 8.4624539, 76.816433 8.4666359, 76.103056 7.534775, 76.068577 7.561933, 76.035064 7.590272, 76.002557 7.619758, 75.971098 7.650356, 75.940721 7.682029, 75.911468 7.714737, 75.883371 7.748443, 75.856466 7.783104, 75.830785 7.818679, 75.80636 7.855125, 75.783221 7.892398, 75.761394 7.930452, 75.740911 7.969241, 75.721793 8.008718, 75.704065 8.048836, 75.687748 8.089546, 75.672864 8.130798, 75.65943 8.172542, 75.647463 8.214727, 75.636978 8.257303, 76.785231 8.5147189))"}, {"begin_at": 0, "area_id": 896967, "name": "MEMORIAL HOSPITAL", "level": 0, "country": 840, "updated_at": 1454721780, "disable": 0, "end_at": 0, "shape": 0, "warning": 1, "radius": 152, "lat": 30.903244, "lng": -84.551858, "type": 19, "city": "Bainbridge", "points": ""}, {"begin_at": 0, "area_id": 896968, "name": "HAWKS RIDGE", "level": 0, "country": 840, "updated_at": 1454721780, "disable": 0, "end_at": 0, "shape": 0, "warning": 1, "radius": 152, "lat": 34.257778, "lng": -84.274444, "type": 19, "city": "Cumming", "points": ""}, {"begin_at": 0, "area_id": 273338, "name": "NECCO Co-Generation", "level": 0, "country": 840, "updated_at": 1442279645, "disable": 0, "end_at": 0, "shape": 0, "warning": 1, "radius": 805, "lat": 42.415, "lng": -71.0039, "type": 23, "city": "Revere", "points": ""}, {"begin_at": 0, "area_id": 750756, "name": "MacDougall - Walker Correctional Institution", "level": 2, "country": 840, "updated_at": 1450774230, "disable": 0, "end_at": 0, "shape": 0, "warning": 0, "radius": 304, "lat": 41.950649, "lng": -72.633111, "type": 24, "city": "Suffield", "points": ""}, {"begin_at": 0, "area_id": 896969, "name": "APPLING GENERAL HOSPITAL", "level": 0, "country": 840, "updated_at": 1454721780, "disable": 0, "end_at": 0, "shape": 0, "warning": 1, "radius": 152, "lat": 31.768807, "lng": -82.348462, "type": 19, "city": "Baxley", "points": ""}, {"begin_at": 0, "area_id": 896970, "name": "UNION GENERAL HOSPITAL", "level": 0, "country": 840, "updated_at": 1454721780, "disable": 0, "end_at": 0, "shape": 0, "warning": 1, "radius": 152, "lat": 34.886199, "lng": -83.962408, "type": 19, "city": "Blairsville", "points": ""}, {"begin_at": 0, "area_id": 896971, "name": "BLUE RIDGE TOURS", "level": 0, "country": 840, "updated_at": 1454721780, "disable": 0, "end_at": 0, "shape": 0, "warning": 1, "radius": 152, "lat": 34.839444, "lng": -84.336111, "type": 19, "city": "Blue Ridge", "points": ""}, {"begin_at": 0, "area_id": 896972, "name": "GEORGIA MOUNTAIN", "level": 0, "country": 840, "updated_at": 1454721780, "disable": 0, "end_at": 0, "shape": 0, "warning": 1, "radius": 152, "lat": 34.828056, "lng": -84.354722, "type": 19, "city": "Blue Ridge", "points": ""}, {"begin_at": 0, "area_id": 268667, "name": "Easton 2", "level": 0, "country": 840, "updated_at": 1442279523, "disable": 0, "end_at": 0, "shape": 0, "warning": 1, "radius": 805, "lat": 38.795, "lng": -76.07, "type": 23, "city": "Easton", "points": ""}, {"begin_at": 0, "area_id": 750757, "name": "Robinson Correctional Institution", "level": 2, "country": 840, "updated_at": 1450774230, "disable": 0, "end_at": 0, "shape": 0, "warning": 0, "radius": 304, "lat": 42.015661, "lng": -72.515557, "type": 24, "city": "Enfield", "points": ""}, {"begin_at": 0, "area_id": 750758, "name": "Enfield Correctional Institution", "level": 2, "country": 840, "updated_at": 1450774230, "disable": 0, "end_at": 0, "shape": 0, "warning": 0, "radius": 304, "lat": 42.018533, "lng": -72.511591, "type": 24, "city": "Enfield", "points": ""}, {"begin_at": 0, "area_id": 750759, "name": "Osborn Correctional Institution", "level": 2, "country": 840, "updated_at": 1450774230, "disable": 0, "end_at": 0, "shape": 0, "warning": 0, "radius": 304, "lat": 42.017475, "lng": -72.497303, "type": 24, "city": "Somers", "points": ""}, {"begin_at": 0, "area_id": 896973, "name": "SE GEORGIA HEALTH SYSTEM-BRUNSWICK", "level": 0, "country": 840, "updated_at": 1454721780, "disable": 0, "end_at": 0, "shape": 0, "warning": 1, "radius": 152, "lat": 31.175278, "lng": -81.485278, "type": 19, "city": "Brunswick", "points": ""}, {"begin_at": 0, "area_id": 273347, "name": "Pioneer Crossing Landfill Gas to Energy", "level": 0, "country": 840, "updated_at": 1442279645, "disable": 0, "end_at": 0, "shape": 0, "warning": 1, "radius": 805, "lat": 40.275, "lng": -75.8167, "type": 23, "city": "Birdsboro", "points": ""}, {"begin_at": 0, "area_id": 273349, "name": "Bayonne Energy Center", "level": 0, "country": 840, "updated_at": 1442279645, "disable": 0, "end_at": 0, "shape": 0, "warning": 1, "radius": 805, "lat": 40.652834, "lng": -74.09155, "type": 23, "city": "Bayonne", "points": ""}, {"begin_at": 0, "area_id": 896974, "name": "RABBIT HOLE II", "level": 0, "country": 840, "updated_at": 1454721780, "disable": 0, "end_at": 0, "shape": 0, "warning": 1, "radius": 152, "lat": 33.499722, "lng": -83.320556, "type": 19, "city": "Buckhead", "points": ""}, {"begin_at": 0, "area_id": 750760, "name": "Willard - Cybulski Correctional Institution", "level": 2, "country": 840, "updated_at": 1450774230, "disable": 0, "end_at": 0, "shape": 0, "warning": 0, "radius": 304, "lat": 42.017437, "lng": -72.506853, "type": 24, "city": "Enfield", "points": ""}, {"begin_at": 0, "area_id": 896975, "name": "BUFORD PRECINCT", "level": 0, "country": 840, "updated_at": 1454721780, "disable": 0, "end_at": 0, "shape": 0, "warning": 1, "radius": 152, "lat": 34.097879, "lng": -84.012407, "type": 19, "city": "Buford", "points": ""}, {"begin_at": 0, "area_id": 269261, "name": "Riverside Holyoke", "level": 0, "country": 840, "updated_at": 1442279538, "disable": 0, "end_at": 0, "shape": 0, "warning": 1, "radius": 805, "lat": 42.200592, "lng": -72.594432, "type": 23, "city": "Holyoke", "points": ""}, {"begin_at": 0, "area_id": 896976, "name": "PEACH REGIONAL MEDICAL CENTER", "level": 0, "country": 840, "updated_at": 1454721780, "disable": 0, "end_at": 0, "shape": 0, "warning": 1, "radius": 152, "lat": 32.606111, "lng": -83.758889, "type": 19, "city": "Byron", "points": ""}, {"begin_at": 0, "area_id": 896977, "name": "CURTIS PARKWAY NORTH", "level": 0, "country": 840, "updated_at": 1454721780, "disable": 0, "end_at": 0, "shape": 0, "warning": 1, "radius": 152, "lat": 34.451199, "lng": -84.934387, "type": 19, "city": "Calhoun", "points": ""}, {"begin_at": 0, "area_id": 750761, "name": "Northern Correctional Institution", "level": 2, "country": 840, "updated_at": 1450774230, "disable": 0, "end_at": 0, "shape": 0, "warning": 0, "radius": 304, "lat": 42.018947, "lng": -72.49483, "type": 24, "city": "Somers", "points": ""}, {"begin_at": 0, "area_id": 896978, "name": "GORDON HOSPITAL", "level": 0, "country": 840, "updated_at": 1454721780, "disable": 0, "end_at": 0, "shape": 0, "warning": 1, "radius": 152, "lat": 34.510933, "lng": -84.926289, "type": 19, "city": "Calhoun", "points": ""}, {"begin_at": 0, "area_id": 273392, "name": "Verdi", "level": 0, "country": 840, "updated_at": 1442279647, "disable": 0, "end_at": 0, "shape": 0, "warning": 1, "radius": 805, "lat": 39.3125, "lng": -119.585, "type": 23, "city": "Dayton", "points": ""}, {"begin_at": 0, "area_id": 896979, "name": "NORTHSIDE HOSPITAL-CHEROKEE", "level": 0, "country": 840, "updated_at": 1454721780, "disable": 0, "end_at": 0, "shape": 0, "warning": 1, "radius": 152, "lat": 34.246667, "lng": -84.499167, "type": 19, "city": "Canton", "points": ""}, {"begin_at": 0, "area_id": 896980, "name": "BEAVER CREEK LODGE", "level": 0, "country": 840, "updated_at": 1454721780, "disable": 0, "end_at": 0, "shape": 0, "warning": 1, "radius": 152, "lat": 33.9975, "lng": -83.038889, "type": 19, "city": "Carlton", "points": ""}, {"begin_at": 0, "area_id": 750762, "name": "Federal Correctional Institution Danbury", "level": 2, "country": 840, "updated_at": 1450774230, "disable": 0, "end_at": 0, "shape": 0, "warning": 0, "radius": 304, "lat": 41.436049, "lng": -73.467513, "type": 24, "city": "Danbury", "points": ""}, {"begin_at": 0, "area_id": 896981, "name": "TANNER MEDICAL CENTER", "level": 0, "country": 840, "updated_at": 1454721780, "disable": 0, "end_at": 0, "shape": 0, "warning": 1, "radius": 152, "lat": 33.570314, "lng": -85.074353, "type": 19, "city": "Carrollton", "points": ""}, {"begin_at": 0, "area_id": 273407, "name": "Santa Maria LFG Power Plant", "level": 0, "country": 840, "updated_at": 1442279647, "disable": 0, "end_at": 0, "shape": 0, "warning": 1, "radius": 805, "lat": 34.9508, "lng": -120.4131, "type": 23, "city": "Santa Maria", "points": ""}, {"begin_at": 0, "area_id": 896982, "name": "MEDICAL CENTER", "level": 0, "country": 840, "updated_at": 1454721780, "disable": 0, "end_at": 0, "shape": 0, "warning": 1, "radius": 152, "lat": 32.479309, "lng": -84.979098, "type": 19, "city": "Columbus", "points": ""}, {"begin_at": 0, "area_id": 896983, "name": "PRATT AND WHITNEY AIRCRAFT", "level": 0, "country": 840, "updated_at": 1454721780, "disable": 0, "end_at": 0, "shape": 0, "warning": 1, "radius": 152, "lat": 32.543195, "lng": -84.831874, "type": 19, "city": "Columbus", "points": ""}, {"begin_at": 0, "area_id": 750763, "name": "Bay State Correctional Center", "level": 2, "country": 840, "updated_at": 1450774230, "disable": 0, "end_at": 0, "shape": 0, "warning": 0, "radius": 304, "lat": 42.118226, "lng": -71.299096, "type": 24, "city": "Norfolk", "points": ""}, {"begin_at": 0, "area_id": 896984, "name": "TRICO", "level": 0, "country": 840, "updated_at": 1454721780, "disable": 0, "end_at": 0, "shape": 0, "warning": 1, "radius": 152, "lat": 33.664275, "lng": -84.339091, "type": 19, "city": "Conley", "points": ""}, {"begin_at": 0, "area_id": 273405, "name": "Casper Wind Farm", "level": 0, "country": 840, "updated_at": 1442279647, "disable": 0, "end_at": 0, "shape": 0, "warning": 1, "radius": 805, "lat": 42.884703, "lng": -106.221442, "type": 23, "city": "Evansville", "points": ""}, {"begin_at": 0, "area_id": 896985, "name": "NATIONAL EMS HEADQUARTERS", "level": 0, "country": 840, "updated_at": 1454721780, "disable": 0, "end_at": 0, "shape": 0, "warning": 1, "radius": 152, "lat": 33.649722, "lng": -84.021389, "type": 19, "city": "Conyers", "points": ""}, {"begin_at": 0, "area_id": 896986, "name": "ROCKDALE HOSPITAL", "level": 0, "country": 840, "updated_at": 1454721780, "disable": 0, "end_at": 0, "shape": 0, "warning": 1, "radius": 152, "lat": 33.680472, "lng": -84.002639, "type": 19, "city": "Conyers", "points": ""}, {"begin_at": 0, "area_id": 750764, "name": "Massachusetts Correctional Institution - Norfolk", "level": 2, "country": 840, "updated_at": 1450774230, "disable": 0, "end_at": 0, "shape": 0, "warning": 0, "radius": 304, "lat": 42.120374, "lng": -71.303693, "type": 24, "city": "Norfolk", "points": ""}, {"begin_at": 0, "area_id": 271809, "name": "Exira", "level": 0, "country": 840, "updated_at": 1442279609, "disable": 0, "end_at": 0, "shape": 0, "warning": 1, "radius": 805, "lat": 41.514365, "lng": -94.919729, "type": 23, "city": "Brayton", "points": ""}, {"begin_at": 0, "area_id": 896987, "name": "NEWTON MEDICAL CENTER", "level": 0, "country": 840, "updated_at": 1454721780, "disable": 0, "end_at": 0, "shape": 0, "warning": 1, "radius": 152, "lat": 33.601389, "lng": -83.848611, "type": 19, "city": "Covington", "points": ""}, {"begin_at": 0, "area_id": 896988, "name": "APPLE 1", "level": 0, "country": 840, "updated_at": 1454721780, "disable": 0, "end_at": 0, "shape": 0, "warning": 1, "radius": 152, "lat": 34.260278, "lng": -84.066389, "type": 19, "city": "Cumming", "points": ""}, {"begin_at": 0, "area_id": 750765, "name": "Old Colony Correctional Center", "level": 2, "country": 840, "updated_at": 1450774230, "disable": 0, "end_at": 0, "shape": 0, "warning": 0, "radius": 304, "lat": 41.949334, "lng": -70.957205, "type": 24, "city": "Bridgewater", "points": ""}, {"begin_at": 0, "area_id": 896989, "name": "LANIER", "level": 0, "country": 840, "updated_at": 1454721780, "disable": 0, "end_at": 0, "shape": 0, "warning": 1, "radius": 152, "lat": 34.168889, "lng": -84.171111, "type": 19, "city": "Cumming", "points": ""}, {"begin_at": 0, "area_id": 271054, "name": "Coleman", "level": 0, "country": 840, "updated_at": 1442279587, "disable": 0, "end_at": 0, "shape": 0, "warning": 1, "radius": 805, "lat": 36.8785, "lng": -89.6214, "type": 23, "city": "Sikeston", "points": ""}, {"begin_at": 0, "area_id": 896990, "name": "MAC", "level": 0, "country": 840, "updated_at": 1454721780, "disable": 0, "end_at": 0, "shape": 0, "warning": 1, "radius": 152, "lat": 34.206111, "lng": -84.295278, "type": 19, "city": "Alpharetta", "points": ""}, {"begin_at": 0, "area_id": 750766, "name": "Massachusetts Treatment Center", "level": 2, "country": 840, "updated_at": 1450774230, "disable": 0, "end_at": 0, "shape": 0, "warning": 0, "radius": 304, "lat": 41.946333, "lng": -70.956986, "type": 24, "city": "Bridgewater", "points": ""}, {"begin_at": 0, "area_id": 750767, "name": "Bridgewater State Hospital", "level": 2, "country": 840, "updated_at": 1450774230, "disable": 0, "end_at": 0, "shape": 0, "warning": 0, "radius": 304, "lat": 41.943274, "lng": -70.955558, "type": 24, "city": "Bridgewater", "points": ""}, {"begin_at": 0, "area_id": 750768, "name": "Lemuel Shattuck Hospital Correctional Unit", "level": 2, "country": 840, "updated_at": 1450774230, "disable": 0, "end_at": 0, "shape": 0, "warning": 0, "radius": 304, "lat": 42.299149, "lng": -71.101652, "type": 24, "city": "Boston", "points": ""}, {"begin_at": 0, "area_id": 1245281, "name": "ZALAEGERSZEG", "level": 3, "country": 348, "updated_at": 1457569401, "disable": 0, "end_at": 0, "shape": 0, "warning": 0, "radius": 1000, "lat": 46.804444, "lng": 16.622222, "type": 28, "city": "Zalal\u00f6v\u0151", "points": "POLYGON ((16.622222 46.81344, 16.623368 46.813406, 16.624504 46.813303, 16.625623 46.813132, 16.626716 46.812894, 16.627774 46.812593, 16.628789 46.812229, 16.629754 46.811805, 16.63066 46.811326, 16.631502 46.810795, 16.632273 46.810216, 16.632966 46.809593, 16.633578 46.808931, 16.634104 46.808236, 16.634539 46.807512, 16.63488 46.806765, 16.635126 46.806001, 16.635274 46.805225, 16.635324 46.804443, 16.635274 46.803662, 16.635125 46.802886, 16.634879 46.802122, 16.634537 46.801375, 16.634102 46.800651, 16.633576 46.799956, 16.632964 46.799294, 16.63227 46.798672, 16.6315 46.798092, 16.630658 46.797561, 16.629752 46.797082, 16.628787 46.796659, 16.627772 46.796295, 16.626715 46.795993, 16.625622 46.795756, 16.624504 46.795585, 16.623367 46.795482, 16.622222 46.795448, 16.621077 46.795482, 16.61994 46.795585, 16.618822 46.795756, 16.617729 46.795993, 16.616672 46.796295, 16.615657 46.796659, 16.614692 46.797082, 16.613786 46.797561, 16.612944 46.798092, 16.612174 46.798672, 16.61148 46.799294, 16.610868 46.799956, 16.610342 46.800651, 16.609907 46.801375, 16.609565 46.802122, 16.609319 46.802886, 16.60917 46.803662, 16.60912 46.804443, 16.60917 46.805225, 16.609318 46.806001, 16.609564 46.806765, 16.609905 46.807512, 16.61034 46.808236, 16.610866 46.808931, 16.611478 46.809593, 16.612171 46.810216, 16.612942 46.810795, 16.613784 46.811326, 16.61469 46.811805, 16.615655 46.812229, 16.61667 46.812593, 16.617728 46.812894, 16.618821 46.813132, 16.61994 46.813303, 16.621076 46.813406, 16.622222 46.81344))"}, {"begin_at": 0, "area_id": 896991, "name": "MC DONALD", "level": 0, "country": 840, "updated_at": 1454721780, "disable": 0, "end_at": 0, "shape": 0, "warning": 1, "radius": 152, "lat": 34.203988, "lng": -84.051298, "type": 19, "city": "Cumming", "points": ""}, {"begin_at": 0, "area_id": 269310, "name": "Langley Gulch Power Plant", "level": 0, "country": 840, "updated_at": 1442279539, "disable": 0, "end_at": 0, "shape": 0, "warning": 1, "radius": 805, "lat": 43.904444, "lng": -116.819722, "type": 23, "city": "Caldwell", "points": ""}, {"begin_at": 0, "area_id": 896992, "name": "PINETREE", "level": 0, "country": 840, "updated_at": 1454721780, "disable": 0, "end_at": 0, "shape": 0, "warning": 1, "radius": 152, "lat": 34.145833, "lng": -84.229722, "type": 19, "city": "Alpharetta", "points": ""}, {"begin_at": 0, "area_id": 750769, "name": "Massachusetts Correctional Institution - Cedar Junction", "level": 2, "country": 840, "updated_at": 1450774230, "disable": 0, "end_at": 0, "shape": 0, "warning": 0, "radius": 304, "lat": 42.104384, "lng": -71.29052, "type": 24, "city": "Walpole", "points": ""}, {"begin_at": 0, "area_id": 896993, "name": "MOSBY AHP", "level": 0, "country": 840, "updated_at": 1454721780, "disable": 0, "end_at": 0, "shape": 0, "warning": 1, "radius": 152, "lat": 34.626389, "lng": -84.106389, "type": 19, "city": "Dahlonega", "points": ""}, {"begin_at": 0, "area_id": 271747, "name": "Virginia", "level": 0, "country": 840, "updated_at": 1442279608, "disable": 0, "end_at": 0, "shape": 0, "warning": 1, "radius": 805, "lat": 47.522428, "lng": -92.540951, "type": 23, "city": "Virginia", "points": ""}, {"begin_at": 0, "area_id": 896994, "name": "PAULDING MEMORIAL HOSPITAL", "level": 0, "country": 840, "updated_at": 1454721780, "disable": 0, "end_at": 0, "shape": 0, "warning": 1, "radius": 152, "lat": 33.919825, "lng": -84.852718, "type": 19, "city": "Dallas", "points": ""}, {"begin_at": 0, "area_id": 1245282, "name": "REPCELAK", "level": 3, "country": 348, "updated_at": 1457569401, "disable": 0, "end_at": 0, "shape": 0, "warning": 0, "radius": 2000, "lat": 47.41889, "lng": 17.015278, "type": 28, "city": "R\u00e9pcelak", "points": "POLYGON ((17.015278 47.436879, 17.017589 47.436811, 17.019882 47.436606, 17.022141 47.436266, 17.024347 47.435794, 17.026484 47.435193, 17.028535 47.434468, 17.030486 47.433625, 17.03232 47.432669, 17.034025 47.431609, 17.035588 47.430451, 17.036995 47.429206, 17.038237 47.427882, 17.039304 47.42649, 17.040189 47.425039, 17.040883 47.423542, 17.041383 47.42201, 17.041684 47.420454, 17.041784 47.418886, 17.041683 47.417318, 17.04138 47.415762, 17.040879 47.41423, 17.040183 47.412733, 17.039297 47.411283, 17.038229 47.409891, 17.036987 47.408568, 17.035579 47.407323, 17.034016 47.406166, 17.032312 47.405106, 17.030477 47.404151, 17.028527 47.403308, 17.026477 47.402584, 17.024341 47.401983, 17.022136 47.401511, 17.019879 47.401172, 17.017587 47.400967, 17.015278 47.400899, 17.012969 47.400967, 17.010677 47.401172, 17.00842 47.401511, 17.006215 47.401983, 17.004079 47.402584, 17.002029 47.403308, 17.000079 47.404151, 16.998244 47.405106, 16.99654 47.406166, 16.994977 47.407323, 16.993569 47.408568, 16.992327 47.409891, 16.991259 47.411283, 16.990373 47.412733, 16.989677 47.41423, 16.989176 47.415762, 16.988873 47.417318, 16.988772 47.418886, 16.988872 47.420454, 16.989173 47.42201, 16.989673 47.423542, 16.990367 47.425039, 16.991252 47.42649, 16.992319 47.427882, 16.993561 47.429206, 16.994968 47.430451, 16.996531 47.431609, 16.998236 47.432669, 17.00007 47.433625, 17.002021 47.434468, 17.004072 47.435193, 17.006209 47.435794, 17.008415 47.436266, 17.010674 47.436606, 17.012967 47.436811, 17.015278 47.436879))"}, {"begin_at": 0, "area_id": 750770, "name": "Massachusetts Correctional Institution - Concord", "level": 2, "country": 840, "updated_at": 1450774230, "disable": 0, "end_at": 0, "shape": 0, "warning": 0, "radius": 304, "lat": 42.465695, "lng": -71.395409, "type": 24, "city": "Concord", "points": ""}, {"begin_at": 0, "area_id": 750771, "name": "Massachusetts Correctional Institution - Framingham", "level": 2, "country": 840, "updated_at": 1450774230, "disable": 0, "end_at": 0, "shape": 0, "warning": 0, "radius": 304, "lat": 42.267268, "lng": -71.408493, "type": 24, "city": "Framingham", "points": ""}, {"begin_at": 0, "area_id": 896995, "name": "HAMILTON MEDICAL CENTER", "level": 0, "country": 840, "updated_at": 1454721780, "disable": 0, "end_at": 0, "shape": 0, "warning": 1, "radius": 152, "lat": 34.788968, "lng": -84.972723, "type": 19, "city": "Dalton", "points": ""}, {"begin_at": 0, "area_id": 269316, "name": "Riveside Resource Recovery LLC", "level": 0, "country": 840, "updated_at": 1442279540, "disable": 0, "end_at": 0, "shape": 0, "warning": 1, "radius": 805, "lat": 41.685, "lng": -88.05, "type": 23, "city": "Bolingbrook", "points": ""}, {"begin_at": 0, "area_id": 896996, "name": "DE KALB GENERAL HOSPITAL", "level": 0, "country": 840, "updated_at": 1454721780, "disable": 0, "end_at": 0, "shape": 0, "warning": 1, "radius": 152, "lat": 33.789722, "lng": -84.282222, "type": 19, "city": "Decatur", "points": ""}, {"begin_at": 0, "area_id": 896997, "name": "WELLSTAR DOUGLAS HOSPITAL", "level": 0, "country": 840, "updated_at": 1454721780, "disable": 0, "end_at": 0, "shape": 0, "warning": 1, "radius": 152, "lat": 33.738889, "lng": -84.732778, "type": 19, "city": "Douglasville", "points": ""}, {"begin_at": 0, "area_id": 750772, "name": "Souza - Baranowski Correctional Center", "level": 2, "country": 840, "updated_at": 1450774230, "disable": 0, "end_at": 0, "shape": 0, "warning": 0, "radius": 304, "lat": 42.523911, "lng": -71.649452, "type": 24, "city": "Shirley", "points": ""}, {"begin_at": 0, "area_id": 896998, "name": "FAIRVIEW PARK HOSPITAL", "level": 0, "country": 840, "updated_at": 1454721780, "disable": 0, "end_at": 0, "shape": 0, "warning": 1, "radius": 152, "lat": 32.532945, "lng": -82.950978, "type": 19, "city": "Dublin", "points": ""}, {"begin_at": 0, "area_id": 269314, "name": "Dixon/Lee Energy Partners LLC", "level": 0, "country": 840, "updated_at": 1442279539, "disable": 0, "end_at": 0, "shape": 0, "warning": 1, "radius": 805, "lat": 41.7383, "lng": -89.3828, "type": 23, "city": "Amboy", "points": ""}, {"begin_at": 0, "area_id": 896999, "name": "EMORY JOHNS CREEK HOSPITAL", "level": 0, "country": 840, "updated_at": 1454721780, "disable": 0, "end_at": 0, "shape": 0, "warning": 1, "radius": 152, "lat": 34.0675, "lng": -84.1775, "type": 19, "city": "Duluth", "points": ""}, {"begin_at": 0, "area_id": 897000, "name": "GRAHAM", "level": 0, "country": 840, "updated_at": 1454721780, "disable": 0, "end_at": 0, "shape": 0, "warning": 1, "radius": 152, "lat": 32.528889, "lng": -82.821667, "type": 19, "city": "East Dublin", "points": ""}, {"begin_at": 0, "area_id": 750773, "name": "Massachusetts Correctional Institution - Shirley", "level": 2, "country": 840, "updated_at": 1450774230, "disable": 0, "end_at": 0, "shape": 0, "warning": 0, "radius": 304, "lat": 42.526522, "lng": -71.646204, "type": 24, "city": "Shirley", "points": ""}, {"begin_at": 0, "area_id": 897001, "name": "SOUTH FULTON MEDICAL CENTER", "level": 0, "country": 840, "updated_at": 1454721780, "disable": 0, "end_at": 0, "shape": 0, "warning": 1, "radius": 152, "lat": 33.679553, "lng": -84.42715, "type": 19, "city": "East Point", "points": ""}, {"begin_at": 0, "area_id": 270872, "name": "Rio Bravo Jasmin", "level": 0, "country": 840, "updated_at": 1442279582, "disable": 0, "end_at": 0, "shape": 0, "warning": 1, "radius": 805, "lat": 35.7415, "lng": -119.0512, "type": 23, "city": "Delano", "points": ""}, {"begin_at": 0, "area_id": 897002, "name": "GEORGIA BAPTIST URGENT CARE", "level": 0, "country": 840, "updated_at": 1454721780, "disable": 0, "end_at": 0, "shape": 0, "warning": 1, "radius": 152, "lat": 32.449033, "lng": -84.479919, "type": 19, "city": "Mauk", "points": ""}, {"begin_at": 0, "area_id": 897003, "name": "FITZGERALD JR WOMAN'S HOSPITAL", "level": 0, "country": 840, "updated_at": 1454721780, "disable": 0, "end_at": 0, "shape": 0, "warning": 1, "radius": 152, "lat": 31.697964, "lng": -83.260155, "type": 19, "city": "Fitzgerald", "points": ""}, {"begin_at": 0, "area_id": 750774, "name": "North Central Correctional Institute / Gardner", "level": 2, "country": 840, "updated_at": 1450774230, "disable": 0, "end_at": 0, "shape": 0, "warning": 0, "radius": 304, "lat": 42.57877, "lng": -71.940368, "type": 24, "city": "Gardner", "points": ""}, {"begin_at": 0, "area_id": 897004, "name": "OKEFENOKEE", "level": 0, "country": 840, "updated_at": 1454721780, "disable": 0, "end_at": 0, "shape": 0, "warning": 1, "radius": 152, "lat": 30.7375, "lng": -82.126667, "type": 19, "city": "Folkston", "points": ""}, {"begin_at": 0, "area_id": 268400, "name": "J C Weadock", "level": 0, "country": 840, "updated_at": 1442279518, "disable": 0, "end_at": 0, "shape": 0, "warning": 1, "radius": 805, "lat": 43.639927, "lng": -83.844712, "type": 23, "city": "Essexville", "points": ""}, {"begin_at": 0, "area_id": 750775, "name": "Federal Medical Center Devens", "level": 2, "country": 840, "updated_at": 1450774230, "disable": 0, "end_at": 0, "shape": 0, "warning": 0, "radius": 304, "lat": 42.525992, "lng": -71.620125, "type": 24, "city": "Devens", "points": ""}, {"begin_at": 0, "area_id": 897005, "name": "GEORGIA PUBLIC SAFETY TRAINING CENTER", "level": 0, "country": 840, "updated_at": 1454721780, "disable": 0, "end_at": 0, "shape": 0, "warning": 1, "radius": 152, "lat": 33.060129, "lng": -83.963799, "type": 19, "city": "Forsyth", "points": ""}, {"begin_at": 0, "area_id": 897006, "name": "MONROE COUNTY HOSPITAL", "level": 0, "country": 840, "updated_at": 1454721780, "disable": 0, "end_at": 0, "shape": 0, "warning": 1, "radius": 152, "lat": 33.031242, "lng": -83.944909, "type": 19, "city": "Forsyth", "points": ""}, {"begin_at": 0, "area_id": 897007, "name": "FORT GILLEM", "level": 0, "country": 840, "updated_at": 1454721780, "disable": 0, "end_at": 0, "shape": 0, "warning": 1, "radius": 152, "lat": 33.615, "lng": -84.346389, "type": 19, "city": "Forest Park", "points": ""}, {"begin_at": 0, "area_id": 270871, "name": "RCWMD Badlands Landfill Gas Project", "level": 0, "country": 840, "updated_at": 1442279582, "disable": 0, "end_at": 0, "shape": 0, "warning": 1, "radius": 805, "lat": 33.9583, "lng": -117.125, "type": 23, "city": "Moreno Valley", "points": ""}, {"begin_at": 0, "area_id": 897008, "name": "FORT GORDON HQ  HELIPAD", "level": 0, "country": 840, "updated_at": 1454721780, "disable": 0, "end_at": 0, "shape": 0, "warning": 1, "radius": 152, "lat": 33.420416, "lng": -82.139564, "type": 19, "city": "Augusta", "points": ""}, {"begin_at": 0, "area_id": 897009, "name": "FORT MCPHERSON", "level": 0, "country": 840, "updated_at": 1454721780, "disable": 0, "end_at": 0, "shape": 0, "warning": 1, "radius": 152, "lat": 33.7125, "lng": -84.430556, "type": 19, "city": "Atlanta", "points": ""}, {"begin_at": 0, "area_id": 750776, "name": "Big Muddy River Correctional Center", "level": 2, "country": 840, "updated_at": 1450774230, "disable": 0, "end_at": 0, "shape": 0, "warning": 0, "radius": 304, "lat": 38.130374, "lng": -88.90604, "type": 24, "city": "Ina", "points": ""}, {"begin_at": 0, "area_id": 897010, "name": "BEAVER TRAIL", "level": 0, "country": 840, "updated_at": 1454721780, "disable": 0, "end_at": 0, "shape": 0, "warning": 1, "radius": 152, "lat": 34.25425, "lng": -83.9685, "type": 19, "city": "Gainesville", "points": ""}, {"begin_at": 0, "area_id": 270876, "name": "Rio Bravo Rocklin", "level": 0, "country": 840, "updated_at": 1442279582, "disable": 0, "end_at": 0, "shape": 0, "warning": 1, "radius": 805, "lat": 38.8319, "lng": -121.313652, "type": 23, "city": "Lincoln", "points": ""}, {"begin_at": 0, "area_id": 897011, "name": "LANIER PARK HOSPITAL", "level": 0, "country": 840, "updated_at": 1454721780, "disable": 0, "end_at": 0, "shape": 0, "warning": 1, "radius": 152, "lat": 34.319722, "lng": -83.796667, "type": 19, "city": "Gainesville", "points": ""}, {"begin_at": 0, "area_id": 897012, "name": "LATHAM CREEK", "level": 0, "country": 840, "updated_at": 1454721780, "disable": 0, "end_at": 0, "shape": 0, "warning": 1, "radius": 152, "lat": 34.336487, "lng": -83.943517, "type": 19, "city": "Gainesville", "points": ""}, {"begin_at": 0, "area_id": 750777, "name": "Centralia Correctional Center", "level": 2, "country": 840, "updated_at": 1450774230, "disable": 0, "end_at": 0, "shape": 0, "warning": 0, "radius": 304, "lat": 38.55462, "lng": -89.192721, "type": 24, "city": "Centralia", "points": ""}, {"begin_at": 0, "area_id": 897013, "name": "SPALDING REGIONAL MEDICAL CENTER", "level": 0, "country": 840, "updated_at": 1454721780, "disable": 0, "end_at": 0, "shape": 0, "warning": 1, "radius": 152, "lat": 33.79, "lng": -84.266389, "type": 19, "city": "Scottdale", "points": ""}, {"begin_at": 0, "area_id": 271950, "name": "Sumpter", "level": 0, "country": 840, "updated_at": 1442279612, "disable": 0, "end_at": 0, "shape": 0, "warning": 1, "radius": 805, "lat": 42.167, "lng": -83.5318, "type": 23, "city": "Belleville", "points": ""}, {"begin_at": 0, "area_id": 897014, "name": "CAFFREY", "level": 0, "country": 840, "updated_at": 1454721780, "disable": 0, "end_at": 0, "shape": 0, "warning": 1, "radius": 152, "lat": 33.884167, "lng": -84.733889, "type": 19, "city": "Hiram", "points": ""}, {"begin_at": 0, "area_id": 897015, "name": "BIG CANOE", "level": 0, "country": 840, "updated_at": 1454721780, "disable": 0, "end_at": 0, "shape": 0, "warning": 1, "radius": 152, "lat": 34.454814, "lng": -84.289086, "type": 19, "city": "Marble Hill", "points": ""}, {"begin_at": 0, "area_id": 890683, "name": "SAN FERNANDO", "level": 0, "country": 352, "updated_at": 1457569401, "disable": 0, "end_at": 0, "shape": 0, "warning": 1, "radius": 5289, "lat": 65.214989, "lng": -17.870137, "type": 15, "city": "", "points": ""}, {"begin_at": 0, "area_id": 897016, "name": "WAYNE MEMORIAL HOSPITAL", "level": 0, "country": 840, "updated_at": 1454721780, "disable": 0, "end_at": 0, "shape": 0, "warning": 1, "radius": 152, "lat": 31.601603, "lng": -81.897059, "type": 19, "city": "Jesup", "points": ""}, {"begin_at": 0, "area_id": 270882, "name": "North Ninth Street", "level": 0, "country": 840, "updated_at": 1442279582, "disable": 0, "end_at": 0, "shape": 0, "warning": 1, "radius": 805, "lat": 41.9093, "lng": -89.0498, "type": 23, "city": "Rochelle", "points": ""}, {"begin_at": 0, "area_id": 897017, "name": "CLAYTON", "level": 0, "country": 840, "updated_at": 1454721780, "disable": 0, "end_at": 0, "shape": 0, "warning": 1, "radius": 152, "lat": 33.538056, "lng": -84.347222, "type": 19, "city": "Jonesboro", "points": ""}, {"begin_at": 0, "area_id": 897018, "name": "WEST GEORGIA MEDICAL CENTER", "level": 0, "country": 840, "updated_at": 1454721780, "disable": 0, "end_at": 0, "shape": 0, "warning": 1, "radius": 152, "lat": 33.031235, "lng": -85.055772, "type": 19, "city": "LaGrange", "points": ""}, {"begin_at": 0, "area_id": 750778, "name": "Danville Correctional Center", "level": 2, "country": 840, "updated_at": 1450774230, "disable": 0, "end_at": 0, "shape": 0, "warning": 0, "radius": 304, "lat": 40.131026, "lng": -87.536375, "type": 24, "city": "Danville", "points": ""}, {"begin_at": 0, "area_id": 897019, "name": "GWINNETT MEDICAL CENTER", "level": 0, "country": 840, "updated_at": 1454721780, "disable": 0, "end_at": 0, "shape": 0, "warning": 1, "radius": 152, "lat": 33.963889, "lng": -84.018056, "type": 19, "city": "Lawrenceville", "points": ""}, {"begin_at": 0, "area_id": 268416, "name": "Prairie Energy", "level": 0, "country": 840, "updated_at": 1442279518, "disable": 0, "end_at": 0, "shape": 0, "warning": 1, "radius": 805, "lat": 39.995, "lng": -89.485833, "type": 23, "city": "Elkhart", "points": ""}, {"begin_at": 0, "area_id": 897020, "name": "HCA PARKWAY MEDICAL CENTER", "level": 0, "country": 840, "updated_at": 1454721780, "disable": 0, "end_at": 0, "shape": 0, "warning": 1, "radius": 152, "lat": 33.778056, "lng": -84.611389, "type": 19, "city": "Lithia Springs", "points": ""}, {"begin_at": 0, "area_id": 897021, "name": "THE MEDICAL CENTER OF CENTRAL GEORGIA", "level": 0, "country": 840, "updated_at": 1454721780, "disable": 0, "end_at": 0, "shape": 0, "warning": 1, "radius": 152, "lat": 32.834444, "lng": -83.636111, "type": 19, "city": "Macon", "points": ""}, {"begin_at": 0, "area_id": 750779, "name": "Decatur Correctional Center", "level": 2, "country": 840, "updated_at": 1450774230, "disable": 0, "end_at": 0, "shape": 0, "warning": 0, "radius": 304, "lat": 39.893969, "lng": -88.927038, "type": 24, "city": "Decatur", "points": ""}, {"begin_at": 0, "area_id": 897022, "name": "RAMADA INN ANTEBELLUM", "level": 0, "country": 840, "updated_at": 1454721780, "disable": 0, "end_at": 0, "shape": 0, "warning": 1, "radius": 152, "lat": 33.55346, "lng": -83.471556, "type": 19, "city": "Madison", "points": ""}, {"begin_at": 0, "area_id": 270884, "name": "1515 S Caron Road", "level": 0, "country": 840, "updated_at": 1442279582, "disable": 0, "end_at": 0, "shape": 0, "warning": 1, "radius": 805, "lat": 41.9084, "lng": -89.0466, "type": 23, "city": "Rochelle", "points": ""}, {"begin_at": 0, "area_id": 897023, "name": "CALHOUN", "level": 0, "country": 840, "updated_at": 1454721780, "disable": 0, "end_at": 0, "shape": 0, "warning": 1, "radius": 152, "lat": 34.004444, "lng": -84.447778, "type": 19, "city": "Marietta", "points": ""}, {"begin_at": 0, "area_id": 1245288, "name": "VAC-DERECSKEDULO", "level": 3, "country": 348, "updated_at": 1457569401, "disable": 0, "end_at": 0, "shape": 0, "warning": 0, "radius": 2000, "lat": 47.745557, "lng": 19.141944, "type": 28, "city": "Sz\u0151dliget", "points": "POLYGON ((19.141944 47.763545, 19.144269 47.763477, 19.146577 47.763272, 19.148849 47.762932, 19.151069 47.76246, 19.15322 47.761859, 19.155284 47.761134, 19.157247 47.760291, 19.159093 47.759335, 19.160808 47.758275, 19.16238 47.757118, 19.163797 47.755872, 19.165046 47.754548, 19.16612 47.753156, 19.16701 47.751706, 19.167709 47.750209, 19.168212 47.748677, 19.168515 47.747121, 19.168616 47.745553, 19.168514 47.743985, 19.168209 47.742429, 19.167705 47.740897, 19.167004 47.739401, 19.166113 47.737951, 19.165038 47.736559, 19.163788 47.735236, 19.162371 47.733991, 19.160799 47.732834, 19.159084 47.731774, 19.157238 47.730819, 19.155276 47.729976, 19.153212 47.729251, 19.151063 47.728651, 19.148845 47.728179, 19.146574 47.72784, 19.144268 47.727635, 19.141944 47.727567, 19.13962 47.727635, 19.137314 47.72784, 19.135043 47.728179, 19.132825 47.728651, 19.130676 47.729251, 19.128612 47.729976, 19.12665 47.730819, 19.124804 47.731774, 19.123089 47.732834, 19.121517 47.733991, 19.1201 47.735236, 19.11885 47.736559, 19.117775 47.737951, 19.116884 47.739401, 19.116183 47.740897, 19.115679 47.742429, 19.115374 47.743985, 19.115272 47.745553, 19.115373 47.747121, 19.115676 47.748677, 19.116179 47.750209, 19.116878 47.751706, 19.117768 47.753156, 19.118842 47.754548, 19.120091 47.755872, 19.121508 47.757118, 19.12308 47.758275, 19.124795 47.759335, 19.126641 47.760291, 19.128604 47.761134, 19.130668 47.761859, 19.132819 47.76246, 19.135039 47.762932, 19.137311 47.763272, 19.139619 47.763477, 19.141944 47.763545))"}, {"begin_at": 0, "area_id": 1232587, "name": "LAHORE CTR", "level": 0, "country": 586, "updated_at": 1457569401, "disable": 0, "end_at": 0, "shape": 0, "warning": 1, "radius": 57815, "lat": 31.499599, "lng": 74.276961, "type": 15, "city": "Lahore", "points": ""}, {"begin_at": 0, "area_id": 897024, "name": "GALLERIA", "level": 0, "country": 840, "updated_at": 1454721780, "disable": 0, "end_at": 0, "shape": 0, "warning": 1, "radius": 152, "lat": 33.885103, "lng": -84.462708, "type": 19, "city": "Atlanta", "points": ""}, {"begin_at": 0, "area_id": 273456, "name": "McKittrick Cogen Facility", "level": 0, "country": 840, "updated_at": 1442279648, "disable": 0, "end_at": 0, "shape": 0, "warning": 1, "radius": 805, "lat": 35.319503, "lng": -119.661992, "type": 23, "city": "McKittrick", "points": ""}, {"begin_at": 0, "area_id": 897025, "name": "KENNESTONE", "level": 0, "country": 840, "updated_at": 1454721780, "disable": 0, "end_at": 0, "shape": 0, "warning": 1, "radius": 152, "lat": 33.967601, "lng": -84.551044, "type": 19, "city": "Marietta", "points": ""}, {"begin_at": 0, "area_id": 897026, "name": "MATTHEWS", "level": 0, "country": 840, "updated_at": 1454721780, "disable": 0, "end_at": 0, "shape": 0, "warning": 1, "radius": 152, "lat": 33.980934, "lng": -84.563266, "type": 19, "city": "Marietta", "points": ""}, {"begin_at": 0, "area_id": 750780, "name": "Dixon Correctional Center", "level": 2, "country": 840, "updated_at": 1450774230, "disable": 0, "end_at": 0, "shape": 0, "warning": 0, "radius": 304, "lat": 41.8736, "lng": -89.481259, "type": 24, "city": "Dixon", "points": ""}, {"begin_at": 0, "area_id": 897027, "name": "CANDLER CO HOSPITAL", "level": 0, "country": 840, "updated_at": 1454721780, "disable": 0, "end_at": 0, "shape": 0, "warning": 1, "radius": 152, "lat": 32.408506, "lng": -82.065953, "type": 19, "city": "Metter", "points": ""}, {"begin_at": 0, "area_id": 269321, "name": "International Paper Riegelwood Mill", "level": 0, "country": 840, "updated_at": 1442279540, "disable": 0, "end_at": 0, "shape": 0, "warning": 1, "radius": 805, "lat": 34.3533, "lng": -78.2137, "type": 23, "city": "Riegelwood", "points": ""}, {"begin_at": 0, "area_id": 897028, "name": "CENTRAL STATE HOSPITAL", "level": 0, "country": 840, "updated_at": 1454721780, "disable": 0, "end_at": 0, "shape": 0, "warning": 1, "radius": 152, "lat": 33.023201, "lng": -83.200986, "type": 19, "city": "Milledgeville", "points": ""}, {"begin_at": 0, "area_id": 897029, "name": "BECKER", "level": 0, "country": 840, "updated_at": 1454721780, "disable": 0, "end_at": 0, "shape": 0, "warning": 1, "radius": 152, "lat": 33.766389, "lng": -83.763056, "type": 19, "city": "Monroe", "points": ""}, {"begin_at": 0, "area_id": 1233513, "name": "JEJU CTR 1", "level": 0, "country": 410, "updated_at": 1457569401, "disable": 0, "end_at": 0, "shape": 0, "warning": 1, "radius": 13086, "lat": 33.512271, "lng": 126.492831, "type": 15, "city": "Cheju", "points": ""}, {"begin_at": 0, "area_id": 897030, "name": "WALTON RGNL MEDICAL CENTER", "level": 0, "country": 840, "updated_at": 1454721780, "disable": 0, "end_at": 0, "shape": 0, "warning": 1, "radius": 152, "lat": 33.799997, "lng": -83.749653, "type": 19, "city": "Monroe", "points": ""}, {"begin_at": 0, "area_id": 273768, "name": "Taylorsville Solar LLC", "level": 0, "country": 840, "updated_at": 1442279655, "disable": 0, "end_at": 0, "shape": 0, "warning": 1, "radius": 805, "lat": 35.909074, "lng": -81.152498, "type": 23, "city": "Taylorsville", "points": ""}, {"begin_at": 0, "area_id": 897031, "name": "PIEDMONT HOSPITAL-NEWNAN", "level": 0, "country": 840, "updated_at": 1454721780, "disable": 0, "end_at": 0, "shape": 0, "warning": 1, "radius": 152, "lat": 33.358333, "lng": -84.755833, "type": 19, "city": "Newnan", "points": ""}, {"begin_at": 0, "area_id": 750781, "name": "East Moline Correctional Center", "level": 2, "country": 840, "updated_at": 1450774230, "disable": 0, "end_at": 0, "shape": 0, "warning": 0, "radius": 304, "lat": 41.536471, "lng": -90.419112, "type": 24, "city": "East Moline", "points": ""}, {"begin_at": 0, "area_id": 897032, "name": "ELITE HELICOPTERS", "level": 0, "country": 840, "updated_at": 1454721780, "disable": 0, "end_at": 0, "shape": 0, "warning": 1, "radius": 152, "lat": 31.518333, "lng": -83.1325, "type": 19, "city": "Wray", "points": ""}, {"begin_at": 0, "area_id": 271542, "name": "J Strom Thurmond", "level": 0, "country": 840, "updated_at": 1442279603, "disable": 0, "end_at": 0, "shape": 0, "warning": 1, "radius": 805, "lat": 33.6602, "lng": -82.1961, "type": 23, "city": "Clarks Hill", "points": ""}, {"begin_at": 0, "area_id": 897033, "name": "GUARDIAN CENTERS OF GEORGIA", "level": 0, "country": 840, "updated_at": 1454721780, "disable": 0, "end_at": 0, "shape": 0, "warning": 1, "radius": 152, "lat": 32.501278, "lng": -83.749611, "type": 19, "city": "Perry", "points": ""}, {"begin_at": 0, "area_id": 897034, "name": "SMITH", "level": 0, "country": 840, "updated_at": 1454721780, "disable": 0, "end_at": 0, "shape": 0, "warning": 1, "radius": 152, "lat": 33.75344, "lng": -84.16214, "type": 19, "city": "Stone Mountain", "points": ""}, {"begin_at": 0, "area_id": 750782, "name": "Graham Correctional Center", "level": 2, "country": 840, "updated_at": 1450774230, "disable": 0, "end_at": 0, "shape": 0, "warning": 0, "radius": 304, "lat": 39.127608, "lng": -89.47379, "type": 24, "city": "Hillsboro", "points": ""}, {"begin_at": 0, "area_id": 897035, "name": "SOUTHERN RGNL MEDICAL CENTER", "level": 0, "country": 840, "updated_at": 1454721780, "disable": 0, "end_at": 0, "shape": 0, "warning": 1, "radius": 152, "lat": 33.579555, "lng": -84.389092, "type": 19, "city": "Riverdale", "points": ""}, {"begin_at": 0, "area_id": 270897, "name": "Robbins Lumber", "level": 0, "country": 840, "updated_at": 1442279583, "disable": 0, "end_at": 0, "shape": 0, "warning": 1, "radius": 805, "lat": 44.3331, "lng": -69.2019, "type": 23, "city": "Searsmont", "points": ""}, {"begin_at": 0, "area_id": 897036, "name": "ROSWELL ANIMAL HOSPITAL", "level": 0, "country": 840, "updated_at": 1454721780, "disable": 0, "end_at": 0, "shape": 0, "warning": 1, "radius": 152, "lat": 34.030933, "lng": -84.356037, "type": 19, "city": "Roswell", "points": ""}, {"begin_at": 0, "area_id": 897037, "name": "WASHINGTON COUNTY REGIONAL MEDICAL CENTER", "level": 0, "country": 840, "updated_at": 1454721780, "disable": 0, "end_at": 0, "shape": 0, "warning": 1, "radius": 152, "lat": 32.997931, "lng": -82.804582, "type": 19, "city": "Sandersville", "points": ""}, {"begin_at": 0, "area_id": 750783, "name": "Hill Correctional Center", "level": 2, "country": 840, "updated_at": 1450774230, "disable": 0, "end_at": 0, "shape": 0, "warning": 0, "radius": 304, "lat": 40.94011, "lng": -90.4048, "type": 24, "city": "Galesburg", "points": ""}, {"begin_at": 0, "area_id": 897038, "name": "HARTRAMPF", "level": 0, "country": 840, "updated_at": 1454721780, "disable": 0, "end_at": 0, "shape": 0, "warning": 1, "radius": 152, "lat": 33.989544, "lng": -84.332147, "type": 19, "city": "Atlanta", "points": ""}, {"begin_at": 0, "area_id": 270907, "name": "Roseville", "level": 0, "country": 840, "updated_at": 1442279583, "disable": 0, "end_at": 0, "shape": 0, "warning": 1, "radius": 805, "lat": 38.810677, "lng": -121.323807, "type": 23, "city": "Rocklin", "points": ""}, {"begin_at": 0, "area_id": 897039, "name": "MEMORIAL HOSPITAL", "level": 0, "country": 840, "updated_at": 1454721780, "disable": 0, "end_at": 0, "shape": 0, "warning": 1, "radius": 152, "lat": 32.021111, "lng": -81.080278, "type": 19, "city": "Savannah", "points": ""}, {"begin_at": 0, "area_id": 897040, "name": "ST JOSEPH'S HOSPITAL", "level": 0, "country": 840, "updated_at": 1454721780, "disable": 0, "end_at": 0, "shape": 0, "warning": 1, "radius": 152, "lat": 31.984933, "lng": -81.155667, "type": 19, "city": "Savannah", "points": ""}, {"begin_at": 0, "area_id": 750784, "name": "Illinois River Correctional Center", "level": 2, "country": 840, "updated_at": 1450774230, "disable": 0, "end_at": 0, "shape": 0, "warning": 0, "radius": 304, "lat": 40.558658, "lng": -90.082134, "type": 24, "city": "Canton", "points": ""}, {"begin_at": 0, "area_id": 897041, "name": "SMYRNA HOSPITAL", "level": 0, "country": 840, "updated_at": 1454721780, "disable": 0, "end_at": 0, "shape": 0, "warning": 1, "radius": 152, "lat": 33.859826, "lng": -84.51382, "type": 19, "city": "Smyrna", "points": ""}, {"begin_at": 0, "area_id": 270922, "name": "McClellan (CA)", "level": 0, "country": 840, "updated_at": 1442279583, "disable": 0, "end_at": 0, "shape": 0, "warning": 1, "radius": 805, "lat": 38.652731, "lng": -121.393336, "type": 23, "city": "McClellan Park", "points": ""}, {"begin_at": 0, "area_id": 897042, "name": "CALEB", "level": 0, "country": 840, "updated_at": 1454721780, "disable": 0, "end_at": 0, "shape": 0, "warning": 1, "radius": 152, "lat": 33.781219, "lng": -84.014634, "type": 19, "city": "Snellville", "points": ""}, {"begin_at": 0, "area_id": 897043, "name": "GWINNETT COMM HOSP D/B/A EASTSIDE MED CNTR", "level": 0, "country": 840, "updated_at": 1454721780, "disable": 0, "end_at": 0, "shape": 0, "warning": 1, "radius": 152, "lat": 33.875, "lng": -84.020556, "type": 19, "city": "Snellville", "points": ""}, {"begin_at": 0, "area_id": 897044, "name": "EAST GEORGIA RGNL MEDICAL CENTER", "level": 0, "country": 840, "updated_at": 1454721780, "disable": 0, "end_at": 0, "shape": 0, "warning": 1, "radius": 152, "lat": 32.405278, "lng": -81.768333, "type": 19, "city": "Statesboro", "points": ""}, {"begin_at": 0, "area_id": 1245447, "name": "PAROLA", "level": 3, "country": 246, "updated_at": 1457569401, "disable": 0, "end_at": 0, "shape": 0, "warning": 0, "radius": 7125, "lat": 61.015069, "lng": 24.303957, "type": 28, "city": "Parola", "points": "POLYGON ((24.401944 61.057778, 24.433333 61.027222, 24.27 60.964167, 24.176667 60.998611, 24.401944 61.057778))"}, {"begin_at": 0, "area_id": 270930, "name": "Norton Powerhouse", "level": 0, "country": 840, "updated_at": 1442279583, "disable": 0, "end_at": 0, "shape": 0, "warning": 1, "radius": 805, "lat": 42.309555, "lng": -71.805218, "type": 23, "city": "Worcester", "points": ""}, {"begin_at": 0, "area_id": 897045, "name": "HENRY MEDICAL CENTER INC", "level": 0, "country": 840, "updated_at": 1454721780, "disable": 0, "end_at": 0, "shape": 0, "warning": 1, "radius": 152, "lat": 33.511223, "lng": -84.227142, "type": 19, "city": "Stockbridge", "points": ""}, {"begin_at": 0, "area_id": 897046, "name": "STONE MOUNTAIN PARK PUBLIC SAFETY", "level": 0, "country": 840, "updated_at": 1454721780, "disable": 0, "end_at": 0, "shape": 0, "warning": 1, "radius": 152, "lat": 33.818889, "lng": -84.150556, "type": 19, "city": "Stone Mountain", "points": ""}, {"begin_at": 0, "area_id": 750785, "name": "Jacksonville Correctional Center", "level": 2, "country": 840, "updated_at": 1450774230, "disable": 0, "end_at": 0, "shape": 0, "warning": 0, "radius": 304, "lat": 39.726185, "lng": -90.176728, "type": 24, "city": "Jacksonville", "points": ""}, {"begin_at": 0, "area_id": 897047, "name": "STONE MOUNTAIN PARK SKYLIFT", "level": 0, "country": 840, "updated_at": 1454721780, "disable": 0, "end_at": 0, "shape": 0, "warning": 1, "radius": 152, "lat": 33.813056, "lng": -84.140833, "type": 19, "city": "Stone Mountain", "points": ""}, {"begin_at": 0, "area_id": 270938, "name": "Agua Fria", "level": 0, "country": 840, "updated_at": 1442279583, "disable": 0, "end_at": 0, "shape": 0, "warning": 1, "radius": 805, "lat": 33.5561, "lng": -112.2153, "type": 23, "city": "Glendale", "points": ""}, {"begin_at": 0, "area_id": 897048, "name": "WILLIAMS", "level": 0, "country": 840, "updated_at": 1454721780, "disable": 0, "end_at": 0, "shape": 0, "warning": 1, "radius": 152, "lat": 33.820833, "lng": -84.128056, "type": 19, "city": "Stone Mountain", "points": ""}, {"begin_at": 0, "area_id": 897049, "name": "EMANUEL COUNTY HOSPITAL", "level": 0, "country": 840, "updated_at": 1454721780, "disable": 0, "end_at": 0, "shape": 0, "warning": 1, "radius": 152, "lat": 32.59295, "lng": -82.347349, "type": 19, "city": "Swainsboro", "points": ""}, {"begin_at": 0, "area_id": 750786, "name": "Lawrence Correctional Center", "level": 2, "country": 840, "updated_at": 1450774230, "disable": 0, "end_at": 0, "shape": 0, "warning": 0, "radius": 304, "lat": 38.728442, "lng": -87.906974, "type": 24, "city": "Claremont", "points": ""}, {"begin_at": 0, "area_id": 897050, "name": "SCREVEN EMS", "level": 0, "country": 840, "updated_at": 1454721780, "disable": 0, "end_at": 0, "shape": 0, "warning": 1, "radius": 152, "lat": 32.750999, "lng": -81.672054, "type": 19, "city": "Sylvania", "points": ""}, {"begin_at": 0, "area_id": 268495, "name": "O H Hutchings", "level": 0, "country": 840, "updated_at": 1442279520, "disable": 0, "end_at": 0, "shape": 0, "warning": 1, "radius": 805, "lat": 39.6088, "lng": -84.2921, "type": 23, "city": "Miamisburg", "points": ""}, {"begin_at": 0, "area_id": 897051, "name": "STAKELY", "level": 0, "country": 840, "updated_at": 1454721780, "disable": 0, "end_at": 0, "shape": 0, "warning": 1, "radius": 152, "lat": 34.78555, "lng": -85.453725, "type": 19, "city": "Rising Fawn", "points": ""}, {"begin_at": 0, "area_id": 897052, "name": "STONEWALL", "level": 0, "country": 840, "updated_at": 1454721780, "disable": 0, "end_at": 0, "shape": 0, "warning": 1, "radius": 152, "lat": 33.600944, "lng": -84.549097, "type": 19, "city": "Union City", "points": ""}, {"begin_at": 0, "area_id": 750787, "name": "Lincoln Correctional Center", "level": 2, "country": 840, "updated_at": 1450774230, "disable": 0, "end_at": 0, "shape": 0, "warning": 0, "radius": 304, "lat": 40.114639, "lng": -89.388614, "type": 24, "city": "Lincoln", "points": ""}, {"begin_at": 0, "area_id": 897053, "name": "S.G.M.C.", "level": 0, "country": 840, "updated_at": 1454721780, "disable": 0, "end_at": 0, "shape": 0, "warning": 1, "radius": 152, "lat": 30.862, "lng": -83.285667, "type": 19, "city": "Valdosta", "points": ""}, {"begin_at": 0, "area_id": 268499, "name": "Yankee Street", "level": 0, "country": 840, "updated_at": 1442279520, "disable": 0, "end_at": 0, "shape": 0, "warning": 1, "radius": 805, "lat": 39.603, "lng": -84.2047, "type": 23, "city": "Centerville", "points": ""}, {"begin_at": 0, "area_id": 897054, "name": "TANNER MEDICAL CENTER/VILLA RICA", "level": 0, "country": 840, "updated_at": 1454721780, "disable": 0, "end_at": 0, "shape": 0, "warning": 1, "radius": 152, "lat": 33.743981, "lng": -84.918156, "type": 19, "city": "Villa Rica", "points": ""}, {"begin_at": 0, "area_id": 897055, "name": "LINSCOTT", "level": 0, "country": 840, "updated_at": 1454721780, "disable": 0, "end_at": 0, "shape": 0, "warning": 1, "radius": 152, "lat": 33.646167, "lng": -82.65445, "type": 19, "city": "Washington", "points": ""}, {"begin_at": 0, "area_id": 750788, "name": "Logan Correctional Center", "level": 2, "country": 840, "updated_at": 1450774230, "disable": 0, "end_at": 0, "shape": 0, "warning": 0, "radius": 304, "lat": 40.116844, "lng": -89.389806, "type": 24, "city": "Lincoln", "points": ""}, {"begin_at": 0, "area_id": 897056, "name": "MAYO CLINIC HEALTH SYSTEM", "level": 0, "country": 840, "updated_at": 1454721780, "disable": 0, "end_at": 0, "shape": 0, "warning": 1, "radius": 152, "lat": 31.251389, "lng": -82.335556, "type": 19, "city": "Waycross", "points": ""}, {"begin_at": 0, "area_id": 270949, "name": "Mesquite Generating Station Block 1", "level": 0, "country": 840, "updated_at": 1442279584, "disable": 0, "end_at": 0, "shape": 0, "warning": 1, "radius": 805, "lat": 33.345, "lng": -112.864167, "type": 23, "city": "Arlington", "points": ""}, {"begin_at": 0, "area_id": 897057, "name": "BURKE COUNTY HOSPITAL", "level": 0, "country": 840, "updated_at": 1454721780, "disable": 0, "end_at": 0, "shape": 0, "warning": 1, "radius": 152, "lat": 33.084444, "lng": -82.013056, "type": 19, "city": "Waynesboro", "points": ""}, {"begin_at": 0, "area_id": 897058, "name": "VOGTLE ELECTRIC GENERATING PLANT", "level": 0, "country": 840, "updated_at": 1454721780, "disable": 0, "end_at": 0, "shape": 0, "warning": 1, "radius": 152, "lat": 33.125151, "lng": -81.745391, "type": 19, "city": "Waynesboro", "points": ""}, {"begin_at": 0, "area_id": 750789, "name": "Menard Correctional Center", "level": 2, "country": 840, "updated_at": 1450774230, "disable": 0, "end_at": 0, "shape": 0, "warning": 0, "radius": 304, "lat": 37.911788, "lng": -89.842807, "type": 24, "city": "Chester", "points": ""}, {"begin_at": 0, "area_id": 897059, "name": "BARROW MEDICAL CENTER", "level": 0, "country": 840, "updated_at": 1454721780, "disable": 0, "end_at": 0, "shape": 0, "warning": 1, "radius": 152, "lat": 34.013721, "lng": -83.711559, "type": 19, "city": "Winder", "points": ""}, {"begin_at": 0, "area_id": 274605, "name": "Fuquay Farm", "level": 0, "country": 840, "updated_at": 1442279674, "disable": 0, "end_at": 0, "shape": 0, "warning": 1, "radius": 805, "lat": 35.564444, "lng": -78.709722, "type": 23, "city": "", "points": ""}, {"begin_at": 0, "area_id": 897060, "name": "BIG EYE", "level": 0, "country": 840, "updated_at": 1454721780, "disable": 0, "end_at": 0, "shape": 0, "warning": 1, "radius": 152, "lat": 13.498056, "lng": 144.805, "type": 19, "city": "Tamuning", "points": ""}, {"begin_at": 0, "area_id": 897061, "name": "HILO MEDICAL CENTER", "level": 0, "country": 840, "updated_at": 1454721780, "disable": 0, "end_at": 0, "shape": 0, "warning": 1, "radius": 152, "lat": 19.702517, "lng": -155.125008, "type": 19, "city": "Hilo", "points": ""}, {"begin_at": 0, "area_id": 750790, "name": "Pinckneyville Correctional Center", "level": 2, "country": 840, "updated_at": 1450774230, "disable": 0, "end_at": 0, "shape": 0, "warning": 0, "radius": 304, "lat": 38.084633, "lng": -89.327774, "type": 24, "city": "Pinckneyville", "points": ""}, {"begin_at": 0, "area_id": 897062, "name": "HECO-WAIAU", "level": 0, "country": 840, "updated_at": 1454721780, "disable": 0, "end_at": 0, "shape": 0, "warning": 1, "radius": 152, "lat": 21.390833, "lng": -157.964722, "type": 19, "city": "Wahiawa", "points": ""}, {"begin_at": 0, "area_id": 1233730, "name": "TABA CTR", "level": 0, "country": 818, "updated_at": 1457569401, "disable": 0, "end_at": 0, "shape": 0, "warning": 1, "radius": 27239, "lat": 29.60662, "lng": 34.7306, "type": 15, "city": "", "points": ""}, {"begin_at": 0, "area_id": 897063, "name": "KUAKINI MEDICAL CENTER", "level": 0, "country": 840, "updated_at": 1454721780, "disable": 0, "end_at": 0, "shape": 0, "warning": 1, "radius": 152, "lat": 21.313502, "lng": -157.847257, "type": 19, "city": "Honolulu", "points": ""}, {"begin_at": 0, "area_id": 897064, "name": "MOANALUA MEDICAL CENTER", "level": 0, "country": 840, "updated_at": 1454721780, "disable": 0, "end_at": 0, "shape": 0, "warning": 1, "radius": 152, "lat": 21.364056, "lng": -157.899199, "type": 19, "city": "Honolulu", "points": ""}, {"begin_at": 0, "area_id": 270959, "name": "Arthur Von Rosenberg", "level": 0, "country": 840, "updated_at": 1442279584, "disable": 0, "end_at": 0, "shape": 0, "warning": 1, "radius": 805, "lat": 29.257046, "lng": -98.384045, "type": 23, "city": "Elmendorf", "points": ""}, {"begin_at": 0, "area_id": 750791, "name": "Pontiac Correctional Center", "level": 2, "country": 840, "updated_at": 1450774230, "disable": 0, "end_at": 0, "shape": 0, "warning": 0, "radius": 304, "lat": 40.870706, "lng": -88.636017, "type": 24, "city": "Pontiac", "points": ""}, {"begin_at": 0, "area_id": 897065, "name": "THE QUEEN'S MEDICAL CENTER", "level": 0, "country": 840, "updated_at": 1454721780, "disable": 0, "end_at": 0, "shape": 0, "warning": 1, "radius": 152, "lat": 21.309169, "lng": -157.85298, "type": 19, "city": "Honolulu", "points": ""}, {"begin_at": 0, "area_id": 897066, "name": "KAHUKU FIRE & POLICE STATION", "level": 0, "country": 840, "updated_at": 1454721780, "disable": 0, "end_at": 0, "shape": 0, "warning": 1, "radius": 152, "lat": 21.675151, "lng": -157.946969, "type": 19, "city": "Kahuku", "points": ""}, {"begin_at": 0, "area_id": 275175, "name": "Mariah Renewable Energy Center Phase 3", "level": 0, "country": 840, "updated_at": 1442279686, "disable": 0, "end_at": 0, "shape": 0, "warning": 1, "radius": 805, "lat": 34.694444, "lng": -102.671667, "type": 23, "city": "Friona", "points": ""}, {"begin_at": 0, "area_id": 750792, "name": "Robinson Correctional Center", "level": 2, "country": 840, "updated_at": 1450774230, "disable": 0, "end_at": 0, "shape": 0, "warning": 0, "radius": 304, "lat": 39.021148, "lng": -87.698189, "type": 24, "city": "Robinson", "points": ""}, {"begin_at": 0, "area_id": 897067, "name": "KAHUKU HOSPITAL", "level": 0, "country": 840, "updated_at": 1454721780, "disable": 0, "end_at": 0, "shape": 0, "warning": 1, "radius": 152, "lat": 21.676263, "lng": -157.953914, "type": 19, "city": "Kahuku", "points": ""}, {"begin_at": 0, "area_id": 897068, "name": "TURTLE BAY RESORT", "level": 0, "country": 840, "updated_at": 1454721780, "disable": 0, "end_at": 0, "shape": 0, "warning": 1, "radius": 152, "lat": 21.70487, "lng": -158.005579, "type": 19, "city": "Kahuku", "points": ""}, {"begin_at": 0, "area_id": 897069, "name": "KAUPULEHU", "level": 0, "country": 840, "updated_at": 1454721780, "disable": 0, "end_at": 0, "shape": 0, "warning": 1, "radius": 152, "lat": 19.832512, "lng": -155.981659, "type": 19, "city": "Kailua-Kona", "points": ""}, {"begin_at": 0, "area_id": 897070, "name": "LUCY HENRIQUES MEDICAL CENTER", "level": 0, "country": 840, "updated_at": 1454721780, "disable": 0, "end_at": 0, "shape": 0, "warning": 1, "radius": 152, "lat": 20.021667, "lng": -155.660556, "type": 19, "city": "Waimea", "points": ""}, {"begin_at": 0, "area_id": 274612, "name": "Moorings Farm", "level": 0, "country": 840, "updated_at": 1442279674, "disable": 0, "end_at": 0, "shape": 0, "warning": 1, "radius": 805, "lat": 35.305833, "lng": -77.829167, "type": 23, "city": "La Grange", "points": ""}, {"begin_at": 0, "area_id": 897071, "name": "KAWELA FARM", "level": 0, "country": 840, "updated_at": 1454721780, "disable": 0, "end_at": 0, "shape": 0, "warning": 1, "radius": 152, "lat": 21.082778, "lng": -156.973611, "type": 19, "city": "Kaunakakai", "points": ""}, {"begin_at": 0, "area_id": 897072, "name": "HYATT REGENCY MAUI HOTEL", "level": 0, "country": 840, "updated_at": 1454721780, "disable": 0, "end_at": 0, "shape": 0, "warning": 1, "radius": 152, "lat": 20.911827, "lng": -156.692738, "type": 19, "city": "Lahaina", "points": ""}, {"begin_at": 0, "area_id": 1242058, "name": "RUCPHENSE HEIDE", "level": 3, "country": 528, "updated_at": 1457569401, "disable": 0, "end_at": 0, "shape": 0, "warning": 0, "radius": 1851, "lat": 51.512026, "lng": 4.536458, "type": 28, "city": "Rucphen", "points": "POLYGON ((4.536458 51.528671, 4.538784 51.528608, 4.541092 51.528418, 4.543365 51.528104, 4.545585 51.527667, 4.547736 51.527111, 4.549801 51.52644, 4.551764 51.52566, 4.553611 51.524775, 4.555327 51.523794, 4.556899 51.522723, 4.558315 51.521571, 4.559565 51.520346, 4.56064 51.519057, 4.56153 51.517716, 4.562229 51.51633, 4.562732 51.514913, 4.563035 51.513473, 4.563135 51.512022, 4.563033 51.510571, 4.562728 51.509132, 4.562224 51.507714, 4.561523 51.506329, 4.560632 51.504988, 4.559557 51.5037, 4.558306 51.502475, 4.556889 51.501323, 4.555317 51.500253, 4.553601 51.499272, 4.551755 51.498388, 4.549792 51.497608, 4.547729 51.496938, 4.545579 51.496383, 4.54336 51.495946, 4.541089 51.495632, 4.538782 51.495442, 4.536458 51.495379, 4.534134 51.495442, 4.531827 51.495632, 4.529556 51.495946, 4.527337 51.496383, 4.525187 51.496938, 4.523124 51.497608, 4.521161 51.498388, 4.519315 51.499272, 4.517599 51.500253, 4.516027 51.501323, 4.51461 51.502475, 4.513359 51.5037, 4.512284 51.504988, 4.511393 51.506329, 4.510692 51.507714, 4.510188 51.509132, 4.509883 51.510571, 4.509781 51.512022, 4.509881 51.513473, 4.510184 51.514913, 4.510687 51.51633, 4.511386 51.517716, 4.512276 51.519057, 4.513351 51.520346, 4.514601 51.521571, 4.516017 51.522723, 4.517589 51.523794, 4.519305 51.524775, 4.521152 51.52566, 4.523115 51.52644, 4.52518 51.527111, 4.527331 51.527667, 4.529551 51.528104, 4.531824 51.528418, 4.534132 51.528608, 4.536458 51.528671))"}, {"begin_at": 0, "area_id": 274616, "name": "Wilson Farm 1", "level": 0, "country": 840, "updated_at": 1442279674, "disable": 0, "end_at": 0, "shape": 0, "warning": 1, "radius": 805, "lat": 35.803611, "lng": -77.873611, "type": 23, "city": "Elm City", "points": ""}, {"begin_at": 0, "area_id": 750793, "name": "Shawnee Correctional Center", "level": 2, "country": 840, "updated_at": 1450774230, "disable": 0, "end_at": 0, "shape": 0, "warning": 0, "radius": 304, "lat": 37.399717, "lng": -88.776849, "type": 24, "city": "Vienna", "points": ""}, {"begin_at": 0, "area_id": 897073, "name": "K3 HELIPAD", "level": 0, "country": 840, "updated_at": 1454721780, "disable": 0, "end_at": 0, "shape": 0, "warning": 1, "radius": 152, "lat": 21.362028, "lng": -157.950722, "type": 19, "city": "Honolulu", "points": ""}, {"begin_at": 0, "area_id": 1242059, "name": "LOW OLIKTOK, AK", "level": 3, "country": 0, "updated_at": 1457569401, "disable": 0, "end_at": 0, "shape": 0, "warning": 0, "radius": 100454, "lat": 76.62796, "lng": -149.859306, "type": 28, "city": "", "points": "POLYGON ((-151.320833 75.783333, -151.359681 76.200031, -151.400899 76.616708, -151.444716 77.033365, -151.491389 77.45, -148.227222 77.45, -148.273819 77.033365, -148.317564 76.616708, -148.358715 76.200031, -148.3975 75.783333, -151.320833 75.783333))"}, {"begin_at": 0, "area_id": 897074, "name": "RAINSHED", "level": 0, "country": 840, "updated_at": 1454721780, "disable": 0, "end_at": 0, "shape": 0, "warning": 1, "radius": 152, "lat": 19.433087, "lng": -155.259723, "type": 19, "city": "Volcano", "points": ""}, {"begin_at": 0, "area_id": 897075, "name": "WAIKOLOA", "level": 0, "country": 840, "updated_at": 1454721780, "disable": 0, "end_at": 0, "shape": 0, "warning": 1, "radius": 152, "lat": 19.913616, "lng": -155.863884, "type": 19, "city": "Waikoloa Village", "points": ""}, {"begin_at": 0, "area_id": 268527, "name": "Mistersky", "level": 0, "country": 840, "updated_at": 1442279521, "disable": 0, "end_at": 0, "shape": 0, "warning": 1, "radius": 805, "lat": 42.3039, "lng": -83.0903, "type": 23, "city": "Detroit", "points": ""}, {"begin_at": 0, "area_id": 750794, "name": "Sheridan Correctional Center", "level": 2, "country": 840, "updated_at": 1450774230, "disable": 0, "end_at": 0, "shape": 0, "warning": 0, "radius": 304, "lat": 41.517021, "lng": -88.681479, "type": 24, "city": "Sheridan", "points": ""}, {"begin_at": 0, "area_id": 897076, "name": "MAUI MEMORIAL MEDICAL", "level": 0, "country": 840, "updated_at": 1454721780, "disable": 0, "end_at": 0, "shape": 0, "warning": 1, "radius": 152, "lat": 20.88525, "lng": -156.490306, "type": 19, "city": "Wailuku", "points": ""}, {"begin_at": 0, "area_id": 897077, "name": "MONROE COUNTY HOSPITAL", "level": 0, "country": 840, "updated_at": 1454721780, "disable": 0, "end_at": 0, "shape": 0, "warning": 1, "radius": 152, "lat": 41.043057, "lng": -92.7977, "type": 19, "city": "Albia", "points": ""}, {"begin_at": 0, "area_id": 274617, "name": "Yanceyville Farm", "level": 0, "country": 840, "updated_at": 1442279674, "disable": 0, "end_at": 0, "shape": 0, "warning": 1, "radius": 805, "lat": 36.439444, "lng": -79.278889, "type": 23, "city": "Blanch", "points": ""}, {"begin_at": 0, "area_id": 897078, "name": "ANAMOSA COMMUNITY HOSPITAL", "level": 0, "country": 840, "updated_at": 1454721780, "disable": 0, "end_at": 0, "shape": 0, "warning": 1, "radius": 152, "lat": 42.112781, "lng": -91.288215, "type": 19, "city": "Anamosa", "points": ""}, {"begin_at": 0, "area_id": 1245455, "name": "MTA D532Z-D1Z", "level": 3, "country": 578, "updated_at": 1457569401, "disable": 0, "end_at": 0, "shape": 0, "warning": 0, "radius": 76968, "lat": 67.611723, "lng": 8.808889, "type": 28, "city": "R\u00f8st", "points": "POLYGON ((8.1388890 68.201111, 8.451642 68.144109, 8.7628400 68.086518, 9.072481 68.028345, 9.380561 67.969592, 9.687077 67.910265, 9.992027 67.85037, 10.29541 67.789910, 10.597222 67.728889, 10.424078 67.635003, 10.252307 67.540933, 10.081895 67.446682, 9.9128279 67.352251, 9.745091 67.257643, 9.5786700 67.162859, 9.4135519 67.067905, 9.249722 66.972778, 8.9765029 67.041507, 8.701739 67.109765, 8.4254270 67.177546, 8.1475639 67.244848, 7.868148 67.311665, 7.587176 67.377993, 7.304646 67.443828, 7.020556 67.509167, 7.156758 67.596075, 7.293965 67.682868, 7.432187 67.769543, 7.571434 67.8561, 7.711716 67.942536, 7.853046 68.028851, 7.995433 68.115043, 8.1388890 68.201111))"}, {"begin_at": 0, "area_id": 897079, "name": "CASS COUNTY MEMORIAL HOSPITAL", "level": 0, "country": 840, "updated_at": 1454721780, "disable": 0, "end_at": 0, "shape": 0, "warning": 1, "radius": 152, "lat": 41.401101, "lng": -94.991932, "type": 19, "city": "Atlantic", "points": ""}, {"begin_at": 0, "area_id": 270972, "name": "San Miguel", "level": 0, "country": 840, "updated_at": 1442279584, "disable": 0, "end_at": 0, "shape": 0, "warning": 1, "radius": 805, "lat": 28.7044, "lng": -98.4775, "type": 23, "city": "Jourdanton", "points": ""}, {"begin_at": 0, "area_id": 750795, "name": "Southwestern Illinois Correctional Center", "level": 2, "country": 840, "updated_at": 1450774230, "disable": 0, "end_at": 0, "shape": 0, "warning": 0, "radius": 304, "lat": 38.617064, "lng": -90.09198, "type": 24, "city": "East St Louis", "points": ""}, {"begin_at": 0, "area_id": 897080, "name": "AUDUBON COUNTY MEMORIAL HOSPITAL", "level": 0, "country": 840, "updated_at": 1454721780, "disable": 0, "end_at": 0, "shape": 0, "warning": 1, "radius": 152, "lat": 41.715542, "lng": -94.938598, "type": 19, "city": "Audubon", "points": ""}, {"begin_at": 0, "area_id": 897081, "name": "DAVIS COUNTY HOSPITAL", "level": 0, "country": 840, "updated_at": 1454721780, "disable": 0, "end_at": 0, "shape": 0, "warning": 1, "radius": 152, "lat": 40.759325, "lng": -92.415461, "type": 19, "city": "Bloomfield", "points": ""}, {"begin_at": 0, "area_id": 1191627, "name": "La Roca", "level": 0, "country": 188, "updated_at": 1455674299, "disable": 0, "end_at": 0, "shape": 0, "warning": 1, "radius": 8047, "lat": 10.345167, "lng": -85.104917, "type": 31, "city": "Ca\u00f1as", "points": ""}, {"begin_at": 0, "area_id": 274624, "name": "McCallum Farm", "level": 0, "country": 840, "updated_at": 1442279674, "disable": 0, "end_at": 0, "shape": 0, "warning": 1, "radius": 805, "lat": 34.543889, "lng": -79.3, "type": 23, "city": "Rowland", "points": ""}, {"begin_at": 0, "area_id": 897082, "name": "BOONE COUNTY HOSPITAL", "level": 0, "country": 840, "updated_at": 1454721780, "disable": 0, "end_at": 0, "shape": 0, "warning": 1, "radius": 152, "lat": 42.056092, "lng": -93.878003, "type": 19, "city": "Boone", "points": ""}, {"begin_at": 0, "area_id": 1242086, "name": "R35", "level": 3, "country": 398, "updated_at": 1457569401, "disable": 0, "end_at": 0, "shape": 0, "warning": 0, "radius": 5000, "lat": 42.433337, "lng": 68.8, "type": 28, "city": "Arys", "points": "POLYGON ((68.8 42.478348, 68.8053 42.478177, 68.81056 42.477664, 68.815738 42.476813, 68.820798 42.475632, 68.825698 42.474128, 68.830403 42.472313, 68.834875 42.470202, 68.839083 42.46781, 68.842991 42.465156, 68.846573 42.462259, 68.849799 42.459142, 68.852645 42.455829, 68.855091 42.452344, 68.857118 42.448715, 68.858709 42.444969, 68.859853 42.441134, 68.860541 42.43724, 68.860767 42.433317, 68.860533 42.429394, 68.859838 42.425501, 68.858687 42.421667, 68.85709 42.417923, 68.855058 42.414295, 68.852608 42.410813, 68.849757 42.407502, 68.84653 42.404388, 68.842948 42.401494, 68.83904 42.398842, 68.834835 42.396453, 68.830365 42.394344, 68.825665 42.392532, 68.82077 42.39103, 68.815717 42.38985, 68.810545 42.389001, 68.805293 42.388488, 68.8 42.388317, 68.794707 42.388488, 68.789455 42.389001, 68.784283 42.38985, 68.77923 42.39103, 68.774334 42.392532, 68.769634 42.394344, 68.765165 42.396453, 68.76096 42.398842, 68.757052 42.401494, 68.753469 42.404388, 68.750242 42.407502, 68.747392 42.410813, 68.744941 42.414295, 68.742909 42.417923, 68.741313 42.421667, 68.740162 42.425501, 68.739467 42.429394, 68.739232 42.433317, 68.739459 42.43724, 68.740146 42.441134, 68.741291 42.444969, 68.742881 42.448715, 68.744909 42.452344, 68.747354 42.455829, 68.750201 42.459142, 68.753427 42.462259, 68.757009 42.465156, 68.760917 42.46781, 68.765124 42.470202, 68.769597 42.472313, 68.774302 42.474128, 68.779202 42.475632, 68.784261 42.476813, 68.78944 42.477664, 68.794700 42.478177, 68.8 42.478348))"}, {"begin_at": 0, "area_id": 897083, "name": "ST ANTHONY RGNL HOSPITAL", "level": 0, "country": 840, "updated_at": 1454721780, "disable": 0, "end_at": 0, "shape": 0, "warning": 1, "radius": 152, "lat": 42.058318, "lng": -94.868319, "type": 19, "city": "Carroll", "points": ""}, {"begin_at": 0, "area_id": 268533, "name": "Hancock", "level": 0, "country": 840, "updated_at": 1442279521, "disable": 0, "end_at": 0, "shape": 0, "warning": 1, "radius": 805, "lat": 42.5497, "lng": -83.4425, "type": 23, "city": "Commerce Charter Township", "points": ""}, {"begin_at": 0, "area_id": 750796, "name": "Stateville Correctional Center", "level": 2, "country": 840, "updated_at": 1450774230, "disable": 0, "end_at": 0, "shape": 0, "warning": 0, "radius": 304, "lat": 41.578763, "lng": -88.091361, "type": 24, "city": "Crest Hill", "points": ""}, {"begin_at": 0, "area_id": 897084, "name": "MERCY HOSPITAL", "level": 0, "country": 840, "updated_at": 1454721780, "disable": 0, "end_at": 0, "shape": 0, "warning": 1, "radius": 152, "lat": 41.978612, "lng": -91.655179, "type": 19, "city": "Cedar Rapids", "points": ""}, {"begin_at": 0, "area_id": 897085, "name": "ST LUKES HOSPITAL EMERGENCY", "level": 0, "country": 840, "updated_at": 1454721780, "disable": 0, "end_at": 0, "shape": 0, "warning": 1, "radius": 152, "lat": 41.984723, "lng": -91.661569, "type": 19, "city": "Cedar Rapids", "points": ""}, {"begin_at": 0, "area_id": 267516, "name": "Duplin Solar LLC", "level": 0, "country": 840, "updated_at": 1442279499, "disable": 0, "end_at": 0, "shape": 0, "warning": 1, "radius": 805, "lat": 35.011944, "lng": -78.078333, "type": 23, "city": "Warsaw", "points": ""}, {"begin_at": 0, "area_id": 750797, "name": "Taylorville Correctional Center", "level": 2, "country": 840, "updated_at": 1450774230, "disable": 0, "end_at": 0, "shape": 0, "warning": 0, "radius": 304, "lat": 39.51461, "lng": -89.228622, "type": 24, "city": "Taylorville", "points": ""}, {"begin_at": 0, "area_id": 750798, "name": "Vandalia Correctional Center", "level": 2, "country": 840, "updated_at": 1450774230, "disable": 0, "end_at": 0, "shape": 0, "warning": 0, "radius": 304, "lat": 39.014524, "lng": -89.096928, "type": 24, "city": "Vandalia", "points": ""}, {"begin_at": 0, "area_id": 750799, "name": "Vienna Correctional Center", "level": 2, "country": 840, "updated_at": 1450774230, "disable": 0, "end_at": 0, "shape": 0, "warning": 0, "radius": 304, "lat": 37.404894, "lng": -88.771818, "type": 24, "city": "Grantsburg", "points": ""}, {"begin_at": 0, "area_id": 897086, "name": "MERCY MEDICAL CENTER - CENTERVILLE", "level": 0, "country": 840, "updated_at": 1454721780, "disable": 0, "end_at": 0, "shape": 0, "warning": 1, "radius": 152, "lat": 40.756424, "lng": -92.856845, "type": 19, "city": "Centerville", "points": ""}, {"begin_at": 0, "area_id": 897087, "name": "LUCAS COUNTY HEALTH CENTER", "level": 0, "country": 840, "updated_at": 1454721780, "disable": 0, "end_at": 0, "shape": 0, "warning": 1, "radius": 152, "lat": 41.027499, "lng": -93.302431, "type": 19, "city": "Chariton", "points": ""}, {"begin_at": 0, "area_id": 897088, "name": "FLOYD COUNTY MEMORIAL HOSPITAL", "level": 0, "country": 840, "updated_at": 1454721780, "disable": 0, "end_at": 0, "shape": 0, "warning": 1, "radius": 152, "lat": 43.050803, "lng": -92.684356, "type": 19, "city": "Charles City", "points": ""}, {"begin_at": 0, "area_id": 270989, "name": "S D Warren Westbrook", "level": 0, "country": 840, "updated_at": 1442279585, "disable": 0, "end_at": 0, "shape": 0, "warning": 1, "radius": 805, "lat": 43.684857, "lng": -70.353152, "type": 23, "city": "Westbrook", "points": ""}, {"begin_at": 0, "area_id": 750800, "name": "Western Illinois Correctional Center", "level": 2, "country": 840, "updated_at": 1450774230, "disable": 0, "end_at": 0, "shape": 0, "warning": 0, "radius": 304, "lat": 39.962845, "lng": -90.751687, "type": 24, "city": "Mt Sterling", "points": ""}, {"begin_at": 0, "area_id": 897089, "name": "CHEROKEE REGIONAL MEDICAL CENTER", "level": 0, "country": 840, "updated_at": 1454721780, "disable": 0, "end_at": 0, "shape": 0, "warning": 1, "radius": 152, "lat": 42.085266, "lng": -95.570002, "type": 19, "city": "Charter Oak", "points": ""}, {"begin_at": 0, "area_id": 897090, "name": "WRIGHT MEDICAL CENTER", "level": 0, "country": 840, "updated_at": 1454721780, "disable": 0, "end_at": 0, "shape": 0, "warning": 1, "radius": 152, "lat": 42.724972, "lng": -93.741881, "type": 19, "city": "Clarion", "points": ""}, {"begin_at": 0, "area_id": 750801, "name": "Metropolitan Correctional Center", "level": 2, "country": 840, "updated_at": 1450774230, "disable": 0, "end_at": 0, "shape": 0, "warning": 0, "radius": 304, "lat": 41.876563, "lng": -87.630399, "type": 24, "city": "Chgo", "points": ""}, {"begin_at": 0, "area_id": 268546, "name": "Wilmot", "level": 0, "country": 840, "updated_at": 1442279521, "disable": 0, "end_at": 0, "shape": 0, "warning": 1, "radius": 805, "lat": 43.4566, "lng": -83.1889, "type": 23, "city": "Kingston", "points": ""}, {"begin_at": 0, "area_id": 750802, "name": "Federal Correctional Institution Greenville", "level": 2, "country": 840, "updated_at": 1450774230, "disable": 0, "end_at": 0, "shape": 0, "warning": 0, "radius": 304, "lat": 38.86586, "lng": -89.41174, "type": 24, "city": "Greenville", "points": ""}, {"begin_at": 0, "area_id": 750803, "name": "United States Penitentiary Marion", "level": 2, "country": 840, "updated_at": 1450774230, "disable": 0, "end_at": 0, "shape": 0, "warning": 0, "radius": 304, "lat": 37.661655, "lng": -88.984018, "type": 24, "city": "Marion", "points": ""}, {"begin_at": 0, "area_id": 897091, "name": "SAMARITAN HOSPITAL NORTH", "level": 0, "country": 840, "updated_at": 1454721780, "disable": 0, "end_at": 0, "shape": 0, "warning": 1, "radius": 152, "lat": 41.860862, "lng": -90.190127, "type": 19, "city": "Clinton", "points": ""}, {"begin_at": 0, "area_id": 897092, "name": "WAYNE COUNTY HOSPITAL", "level": 0, "country": 840, "updated_at": 1454721780, "disable": 0, "end_at": 0, "shape": 0, "warning": 1, "radius": 152, "lat": 40.757783, "lng": -93.318545, "type": 19, "city": "Corydon", "points": ""}, {"begin_at": 0, "area_id": 897093, "name": "JENNIE EDMUNDSON HOSPITAL", "level": 0, "country": 840, "updated_at": 1454721780, "disable": 0, "end_at": 0, "shape": 0, "warning": 1, "radius": 152, "lat": 41.269165, "lng": -95.835289, "type": 19, "city": "Council Bluffs", "points": ""}, {"begin_at": 0, "area_id": 271816, "name": "WFEC GenCo LLC", "level": 0, "country": 840, "updated_at": 1442279609, "disable": 0, "end_at": 0, "shape": 0, "warning": 1, "radius": 805, "lat": 35.0833, "lng": -98.2264, "type": 23, "city": "Anadarko", "points": ""}, {"begin_at": 0, "area_id": 750804, "name": "Federal Correctional Institution Pekin", "level": 2, "country": 840, "updated_at": 1450774230, "disable": 0, "end_at": 0, "shape": 0, "warning": 0, "radius": 304, "lat": 40.53555, "lng": -89.661954, "type": 24, "city": "Pekin", "points": ""}, {"begin_at": 0, "area_id": 897094, "name": "GREATER COMMUNITY HOSPITAL", "level": 0, "country": 840, "updated_at": 1454721780, "disable": 0, "end_at": 0, "shape": 0, "warning": 1, "radius": 152, "lat": 41.072211, "lng": -94.394404, "type": 19, "city": "Creston", "points": ""}, {"begin_at": 0, "area_id": 897095, "name": "CROMWELL", "level": 0, "country": 840, "updated_at": 1454721780, "disable": 0, "end_at": 0, "shape": 0, "warning": 1, "radius": 152, "lat": 41.038877, "lng": -94.466907, "type": 19, "city": "Cromwell", "points": ""}, {"begin_at": 0, "area_id": 750805, "name": "Thomson Correctional Center", "level": 2, "country": 840, "updated_at": 1450774230, "disable": 0, "end_at": 0, "shape": 0, "warning": 0, "radius": 304, "lat": 41.972691, "lng": -90.111672, "type": 24, "city": "Thomson", "points": ""}, {"begin_at": 0, "area_id": 271009, "name": "SEMASS Resource Recovery", "level": 0, "country": 840, "updated_at": 1442279585, "disable": 0, "end_at": 0, "shape": 0, "warning": 1, "radius": 805, "lat": 41.8022, "lng": -70.7875, "type": 23, "city": "Rochester", "points": ""}, {"begin_at": 0, "area_id": 750806, "name": "Illinois Youth Center - Chicago", "level": 2, "country": 840, "updated_at": 1450774230, "disable": 0, "end_at": 0, "shape": 0, "warning": 0, "radius": 304, "lat": 41.884082, "lng": -87.688011, "type": 24, "city": "Chgo", "points": ""}, {"begin_at": 0, "area_id": 750807, "name": "Illinois Youth Center - Harrisburg", "level": 2, "country": 840, "updated_at": 1450774230, "disable": 0, "end_at": 0, "shape": 0, "warning": 0, "radius": 304, "lat": 37.736821, "lng": -88.559168, "type": 24, "city": "Harrisburg", "points": ""}, {"begin_at": 0, "area_id": 897096, "name": "GENESIS MEDICAL CENTER EAST CAMPUS", "level": 0, "country": 840, "updated_at": 1454721780, "disable": 0, "end_at": 0, "shape": 0, "warning": 1, "radius": 152, "lat": 41.541697, "lng": -90.556522, "type": 19, "city": "Davenport", "points": ""}, {"begin_at": 0, "area_id": 897097, "name": "GENESIS MEDICAL CENTER WEST CAMPUS", "level": 0, "country": 840, "updated_at": 1454721780, "disable": 0, "end_at": 0, "shape": 0, "warning": 1, "radius": 152, "lat": 41.54281, "lng": -90.592359, "type": 19, "city": "Davenport", "points": ""}, {"begin_at": 0, "area_id": 273441, "name": "SunEdison Walmart Apple Valley DC", "level": 0, "country": 840, "updated_at": 1442279648, "disable": 0, "end_at": 0, "shape": 0, "warning": 1, "radius": 805, "lat": 34.5975, "lng": -117.2, "type": 23, "city": "Apple Valley", "points": ""}, {"begin_at": 0, "area_id": 750808, "name": "Illinois Youth Center - Kewanee", "level": 2, "country": 840, "updated_at": 1450774230, "disable": 0, "end_at": 0, "shape": 0, "warning": 0, "radius": 304, "lat": 41.252232, "lng": -89.891406, "type": 24, "city": "Kewanee", "points": ""}, {"begin_at": 0, "area_id": 750809, "name": "Illinois Youth Center - Saint Charles", "level": 2, "country": 840, "updated_at": 1450774230, "disable": 0, "end_at": 0, "shape": 0, "warning": 0, "radius": 304, "lat": 41.909132, "lng": -88.372385, "type": 24, "city": "St. Charles", "points": ""}, {"begin_at": 0, "area_id": 750810, "name": "Illinois Youth Center - Warrenville", "level": 2, "country": 840, "updated_at": 1450774230, "disable": 0, "end_at": 0, "shape": 0, "warning": 0, "radius": 304, "lat": 41.811354, "lng": -88.210387, "type": 24, "city": "Warrenville", "points": ""}, {"begin_at": 0, "area_id": 897098, "name": "WINNESHIEK  MEDICAL CENTER", "level": 0, "country": 840, "updated_at": 1454721780, "disable": 0, "end_at": 0, "shape": 0, "warning": 1, "radius": 152, "lat": 43.294133, "lng": -91.774547, "type": 19, "city": "Decorah", "points": ""}, {"begin_at": 0, "area_id": 897099, "name": "BROADLAWNS MEDICAL CENTER", "level": 0, "country": 840, "updated_at": 1454721780, "disable": 0, "end_at": 0, "shape": 0, "warning": 1, "radius": 152, "lat": 41.616667, "lng": -93.640556, "type": 19, "city": "Des Moines", "points": ""}, {"begin_at": 0, "area_id": 267642, "name": "Theodore Cogen Facility", "level": 0, "country": 840, "updated_at": 1442279502, "disable": 0, "end_at": 0, "shape": 0, "warning": 1, "radius": 805, "lat": 30.525445, "lng": -88.128477, "type": 23, "city": "Theodore", "points": ""}, {"begin_at": 0, "area_id": 750811, "name": "South Dakota State Penitentiary", "level": 2, "country": 840, "updated_at": 1450774230, "disable": 0, "end_at": 0, "shape": 0, "warning": 0, "radius": 304, "lat": 43.566804, "lng": -96.724957, "type": 24, "city": "Sioux Falls", "points": ""}, {"begin_at": 0, "area_id": 750812, "name": "South Dakota State Penitentiary Jameson Annex", "level": 2, "country": 840, "updated_at": 1450774230, "disable": 0, "end_at": 0, "shape": 0, "warning": 0, "radius": 304, "lat": 43.569113, "lng": -96.725656, "type": 24, "city": "Sioux Falls", "points": ""}, {"begin_at": 0, "area_id": 750813, "name": "Mike Durfee State Prison", "level": 2, "country": 840, "updated_at": 1450774230, "disable": 0, "end_at": 0, "shape": 0, "warning": 0, "radius": 304, "lat": 42.860943, "lng": -97.900861, "type": 24, "city": "Springfield", "points": ""}, {"begin_at": 0, "area_id": 897100, "name": "IOWA LUTHERAN HOSPITAL LIFE FLIGHT", "level": 0, "country": 840, "updated_at": 1454721780, "disable": 0, "end_at": 0, "shape": 0, "warning": 1, "radius": 152, "lat": 41.602211, "lng": -93.610495, "type": 19, "city": "Des Moines", "points": ""}, {"begin_at": 0, "area_id": 275194, "name": "Agawam Solar", "level": 0, "country": 840, "updated_at": 1442279686, "disable": 0, "end_at": 0, "shape": 0, "warning": 1, "radius": 805, "lat": 42.081944, "lng": -72.614444, "type": 23, "city": "Agawam", "points": ""}, {"begin_at": 0, "area_id": 267494, "name": "Bryant Sugar House", "level": 0, "country": 840, "updated_at": 1442279499, "disable": 0, "end_at": 0, "shape": 0, "warning": 1, "radius": 805, "lat": 26.814167, "lng": -80.662777, "type": 23, "city": "Pahokee", "points": ""}, {"begin_at": 0, "area_id": 267496, "name": "Ewa Nui Substation DG", "level": 0, "country": 840, "updated_at": 1442279499, "disable": 0, "end_at": 0, "shape": 0, "warning": 1, "radius": 805, "lat": 21.3756, "lng": -158.0478, "type": 23, "city": "Ewa Beach", "points": ""}, {"begin_at": 0, "area_id": 897101, "name": "IOWA METHODIST MEDICAL CENTER", "level": 0, "country": 840, "updated_at": 1454721780, "disable": 0, "end_at": 0, "shape": 0, "warning": 1, "radius": 152, "lat": 41.589444, "lng": -93.633056, "type": 19, "city": "Des Moines", "points": ""}, {"begin_at": 0, "area_id": 897102, "name": "MERCY HOSPITAL MEDICAL CENTER PRIVATE", "level": 0, "country": 840, "updated_at": 1454721780, "disable": 0, "end_at": 0, "shape": 0, "warning": 1, "radius": 152, "lat": 41.599439, "lng": -93.624278, "type": 19, "city": "Des Moines", "points": ""}, {"begin_at": 0, "area_id": 897103, "name": "CAMP TAHIGWA LANDING SITE", "level": 0, "country": 840, "updated_at": 1454721780, "disable": 0, "end_at": 0, "shape": 0, "warning": 1, "radius": 152, "lat": 43.438861, "lng": -91.567365, "type": 19, "city": "", "points": ""}, {"begin_at": 0, "area_id": 271019, "name": "Shelby South", "level": 0, "country": 840, "updated_at": 1442279586, "disable": 0, "end_at": 0, "shape": 0, "warning": 1, "radius": 805, "lat": 40.908889, "lng": -82.653333, "type": 23, "city": "Shelby", "points": ""}, {"begin_at": 0, "area_id": 750814, "name": "South Dakota Women's Prison", "level": 2, "country": 840, "updated_at": 1450774230, "disable": 0, "end_at": 0, "shape": 0, "warning": 0, "radius": 304, "lat": 44.357319, "lng": -100.307902, "type": 24, "city": "Pierre", "points": ""}, {"begin_at": 0, "area_id": 897104, "name": "FINLEY HOSPITAL", "level": 0, "country": 840, "updated_at": 1454721780, "disable": 0, "end_at": 0, "shape": 0, "warning": 1, "radius": 152, "lat": 42.495836, "lng": -90.684849, "type": 19, "city": "Dubuque", "points": ""}, {"begin_at": 0, "area_id": 897105, "name": "MERCY HEALTH CENTER", "level": 0, "country": 840, "updated_at": 1454721780, "disable": 0, "end_at": 0, "shape": 0, "warning": 1, "radius": 152, "lat": 42.49167, "lng": -90.672905, "type": 19, "city": "Dubuque", "points": ""}, {"begin_at": 0, "area_id": 897106, "name": "CENTRAL COMMUNITY HOSPITAL", "level": 0, "country": 840, "updated_at": 1454721780, "disable": 0, "end_at": 0, "shape": 0, "warning": 1, "radius": 152, "lat": 42.857485, "lng": -91.414583, "type": 19, "city": "Elkader", "points": ""}, {"begin_at": 0, "area_id": 271034, "name": "Rock Creek I", "level": 0, "country": 840, "updated_at": 1442279586, "disable": 0, "end_at": 0, "shape": 0, "warning": 1, "radius": 805, "lat": 42.632483, "lng": -114.538769, "type": 23, "city": "Twin Falls", "points": ""}, {"begin_at": 0, "area_id": 750815, "name": "Pennington County Jail", "level": 2, "country": 840, "updated_at": 1450774230, "disable": 0, "end_at": 0, "shape": 0, "warning": 0, "radius": 304, "lat": 44.078755, "lng": -103.221573, "type": 24, "city": "Rapid City", "points": ""}, {"begin_at": 0, "area_id": 897107, "name": "PALO ALTO COUNTY HOSPITAL", "level": 0, "country": 840, "updated_at": 1454721780, "disable": 0, "end_at": 0, "shape": 0, "warning": 1, "radius": 152, "lat": 43.101908, "lng": -94.704703, "type": 19, "city": "Emmetsburg", "points": ""}, {"begin_at": 0, "area_id": 897108, "name": "JEFFERSON COUNTY HEALTH CENTER", "level": 0, "country": 840, "updated_at": 1454721780, "disable": 0, "end_at": 0, "shape": 0, "warning": 1, "radius": 152, "lat": 41.003076, "lng": -91.952117, "type": 19, "city": "Fairfield", "points": ""}, {"begin_at": 0, "area_id": 273457, "name": "Live Oak Cogen", "level": 0, "country": 840, "updated_at": 1442279648, "disable": 0, "end_at": 0, "shape": 0, "warning": 1, "radius": 805, "lat": 35.4837, "lng": -119.0298, "type": 23, "city": "Bakersfield", "points": ""},