{"release_limits": [{"begin_at": 0, "area_id": 274406, "name": "Kimberly Clark-Unit 1,2,3", "level": 0, "country": 840, "updated_at": 1442279669, "disable": 0, "end_at": 0, "shape": 0, "warning": 1, "radius": 805, "lat": 41.558333, "lng": -73.413611, "type": 23, "city": "New Milford", "points": ""}, {"begin_at": 0, "area_id": 1238517, "name": "DEZFUL", "level": 3, "country": 364, "updated_at": 1457569401, "disable": 0, "end_at": 0, "shape": 0, "warning": 0, "radius": 55560, "lat": 32.433661, "lng": 48.383333, "type": 28, "city": "Dezful", "points": "POLYGON ((48.383333 32.93433, 48.435109 32.932413, 48.486484 32.926677, 48.537061 32.917166, 48.58645 32.903954, 48.634268 32.887143, 48.680147 32.866862, 48.723734 32.843269, 48.764695 32.816546, 48.802717 32.786898, 48.837509 32.754554, 48.868808 32.719763, 48.896377 32.682792, 48.920009 32.643926, 48.939528 32.603461, 48.954791 32.561709, 48.965686 32.518987, 48.972137 32.475623, 48.974102 32.431948, 48.97157 32.388293, 48.964569 32.344991, 48.953157 32.30237, 48.937428 32.260754, 48.917506 32.220457, 48.893547 32.181786, 48.865738 32.145031, 48.834292 32.110469, 48.79945 32.078363, 48.761478 32.048952, 48.720664 32.022458, 48.677317 31.999081, 48.631765 31.978996, 48.584349 31.962353, 48.535428 31.949277, 48.485367 31.939867, 48.434542 31.934192, 48.383333 31.932296, 48.332124 31.934192, 48.281299 31.939867, 48.231238 31.949277, 48.182317 31.962353, 48.134901 31.978996, 48.089349 31.999081, 48.046002 32.022458, 48.005188 32.048952, 47.967216 32.078363, 47.932374 32.110469, 47.900928 32.145031, 47.873119 32.181786, 47.84916 32.220457, 47.829238 32.260754, 47.813509 32.30237, 47.802097 32.344991, 47.795096 32.388293, 47.792564 32.431948, 47.794529 32.475623, 47.80098 32.518987, 47.811875 32.561709, 47.827138 32.603461, 47.846657 32.643926, 47.870289 32.682792, 47.897858 32.719763, 47.929157 32.754554, 47.963949 32.786898, 48.001971 32.816546, 48.042932 32.843269, 48.086519 32.866862, 48.132398 32.887143, 48.180216 32.903954, 48.229605 32.917166, 48.280182 32.926677, 48.331557 32.932413, 48.383333 32.93433))"}, {"begin_at": 0, "area_id": 274407, "name": "PRC-Desoto Intl/PPG Aerospace", "level": 0, "country": 840, "updated_at": 1442279669, "disable": 0, "end_at": 0, "shape": 0, "warning": 1, "radius": 805, "lat": 34.989722, "lng": -118.150556, "type": 23, "city": "Mojave", "points": ""}, {"begin_at": 0, "area_id": 274423, "name": "Foundation Cemex Madison", "level": 0, "country": 840, "updated_at": 1442279670, "disable": 0, "end_at": 0, "shape": 0, "warning": 1, "radius": 805, "lat": 38.692778, "lng": -121.9325, "type": 23, "city": "Woodland", "points": ""}, {"begin_at": 0, "area_id": 1238524, "name": "UROMIYEH", "level": 3, "country": 364, "updated_at": 1457569401, "disable": 0, "end_at": 0, "shape": 0, "warning": 0, "radius": 27780, "lat": 37.666767, "lng": 45.066667, "type": 28, "city": "", "points": "POLYGON ((45.066667 37.916954, 45.094202 37.915998, 45.121524 37.913139, 45.148425 37.908398, 45.174698 37.901811, 45.200141 37.893429, 45.224559 37.883317, 45.247764 37.871552, 45.26958 37.858225, 45.28984 37.843437, 45.308389 37.827302, 45.325086 37.809944, 45.339806 37.791496, 45.352436 37.772098, 45.362882 37.7519, 45.371066 37.731054, 45.376927 37.709722, 45.380424 37.688064, 45.38153 37.666247, 45.38024 37.644436, 45.376566 37.622797, 45.370537 37.601495, 45.362202 37.580691, 45.351626 37.560543, 45.33889 37.541205, 45.324093 37.522822, 45.307348 37.505534, 45.288782 37.489472, 45.268539 37.474756, 45.246771 37.461498, 45.223643 37.449799, 45.199331 37.439746, 45.174019 37.431415, 45.147897 37.42487, 45.121163 37.420159, 45.094018 37.417319, 45.066667 37.416369, 45.039316 37.417319, 45.012171 37.420159, 44.985437 37.42487, 44.959315 37.431415, 44.934003 37.439746, 44.909691 37.449799, 44.886563 37.461498, 44.864795 37.474756, 44.844552 37.489472, 44.825986 37.505534, 44.809241 37.522822, 44.794444 37.541205, 44.781708 37.560543, 44.771132 37.580691, 44.762797 37.601495, 44.756768 37.622797, 44.753094 37.644436, 44.751804 37.666247, 44.75291 37.688064, 44.756407 37.709722, 44.762268 37.731054, 44.770452 37.7519, 44.780898 37.772098, 44.793528 37.791496, 44.808248 37.809944, 44.824945 37.827302, 44.843494 37.843437, 44.863754 37.858225, 44.88557 37.871552, 44.908775 37.883317, 44.933193 37.893429, 44.958636 37.901811, 44.984909 37.908398, 45.01181 37.913139, 45.039132 37.915998, 45.066667 37.916954))"}, {"begin_at": 0, "area_id": 274425, "name": "Foundation NWNA", "level": 0, "country": 840, "updated_at": 1442279670, "disable": 0, "end_at": 0, "shape": 0, "warning": 1, "radius": 805, "lat": 33.914167, "lng": -116.749167, "type": 23, "city": "Cabazon", "points": ""}, {"begin_at": 0, "area_id": 272470, "name": "Lockville Hydropower", "level": 0, "country": 840, "updated_at": 1442279624, "disable": 0, "end_at": 0, "shape": 0, "warning": 1, "radius": 805, "lat": 35.6184, "lng": -79.0912, "type": 23, "city": "Moncure", "points": ""}, {"begin_at": 0, "area_id": 272543, "name": "Salton Sea Power LLC - Unit 5", "level": 0, "country": 840, "updated_at": 1442279626, "disable": 0, "end_at": 0, "shape": 0, "warning": 1, "radius": 805, "lat": 33.1533, "lng": -115.6384, "type": 23, "city": "Calipatria", "points": ""}, {"begin_at": 0, "area_id": 272616, "name": "PPG Industries Works 14", "level": 0, "country": 840, "updated_at": 1442279627, "disable": 0, "end_at": 0, "shape": 0, "warning": 1, "radius": 805, "lat": 39.7703, "lng": -88.8697, "type": 23, "city": "Mt Zion", "points": ""}, {"begin_at": 0, "area_id": 1238528, "name": "TEHRAN", "level": 3, "country": 364, "updated_at": 1457569401, "disable": 0, "end_at": 0, "shape": 0, "warning": 0, "radius": 5555, "lat": 35.450004, "lng": 51.266667, "type": 28, "city": "", "points": "POLYGON ((51.266667 35.500077, 51.272004 35.499886, 51.277301 35.499316, 51.282516 35.49837, 51.287611 35.497055, 51.292545 35.495382, 51.297283 35.493364, 51.301787 35.491016, 51.306024 35.488355, 51.30996 35.485402, 51.313567 35.48218, 51.316816 35.478713, 51.319683 35.475027, 51.322147 35.471151, 51.324188 35.467114, 51.32579 35.462946, 51.326943 35.458681, 51.327637 35.454349, 51.327866 35.449984, 51.32763 35.44562, 51.32693 35.441289, 51.325771 35.437025, 51.324163 35.432859, 51.322118 35.428824, 51.319651 35.42495, 51.316781 35.421266, 51.31353 35.417802, 51.309922 35.414582, 51.305986 35.411632, 51.301752 35.408974, 51.29725 35.406628, 51.292516 35.404612, 51.287586 35.402941, 51.282497 35.401628, 51.277288 35.400683, 51.271998 35.400113, 51.266667 35.399923, 51.261336 35.400113, 51.256046 35.400683, 51.250837 35.401628, 51.245748 35.402941, 51.240818 35.404612, 51.236084 35.406628, 51.231582 35.408974, 51.227348 35.411632, 51.223412 35.414582, 51.219804 35.417802, 51.216553 35.421266, 51.213683 35.42495, 51.211216 35.428824, 51.209171 35.432859, 51.207563 35.437025, 51.206404 35.441289, 51.205704 35.44562, 51.205468 35.449984, 51.205697 35.454349, 51.206391 35.458681, 51.207544 35.462946, 51.209146 35.467114, 51.211187 35.471151, 51.213651 35.475027, 51.216518 35.478713, 51.219767 35.48218, 51.223374 35.485402, 51.22731 35.488355, 51.231547 35.491016, 51.236051 35.493364, 51.240789 35.495382, 51.245723 35.497055, 51.250818 35.49837, 51.256033 35.499316, 51.26133 35.499886, 51.266667 35.500077))"}, {"begin_at": 0, "area_id": 274631, "name": "Atwell Island", "level": 0, "country": 840, "updated_at": 1442279674, "disable": 0, "end_at": 0, "shape": 0, "warning": 1, "radius": 805, "lat": 35.895, "lng": -119.510833, "type": 23, "city": "Alpaugh", "points": ""}, {"begin_at": 0, "area_id": 272647, "name": "Dekalb Medical Center", "level": 0, "country": 840, "updated_at": 1442279628, "disable": 0, "end_at": 0, "shape": 0, "warning": 1, "radius": 805, "lat": 33.7919, "lng": -84.2831, "type": 23, "city": "Decatur", "points": ""}, {"begin_at": 0, "area_id": 274637, "name": "W.A. Parish Carbon Capture Plant", "level": 0, "country": 840, "updated_at": 1442279675, "disable": 0, "end_at": 0, "shape": 0, "warning": 1, "radius": 805, "lat": 29.475278, "lng": -95.634167, "type": 23, "city": "Richmond", "points": ""}, {"begin_at": 0, "area_id": 1238536, "name": "DAMOUR HILLS", "level": 3, "country": 422, "updated_at": 1457569401, "disable": 0, "end_at": 0, "shape": 0, "warning": 0, "radius": 4074, "lat": 33.716669, "lng": 35.491667, "type": 28, "city": "", "points": "POLYGON ((35.491667 33.753401, 35.4955 33.753261, 35.499303 33.752842, 35.503049 33.752148, 35.506707 33.751184, 35.510251 33.749958, 35.513654 33.748477, 35.516889 33.746755, 35.519931 33.744803, 35.522759 33.742638, 35.525349 33.740274, 35.527683 33.737731, 35.529743 33.735028, 35.531513 33.732185, 35.532979 33.729224, 35.534131 33.726167, 35.534959 33.723038, 35.535458 33.719861, 35.535624 33.716659, 35.535455 33.713458, 35.534953 33.710281, 35.534122 33.707152, 35.532967 33.704096, 35.531498 33.701136, 35.529727 33.698294, 35.527666 33.695592, 35.525331 33.69305, 35.52274 33.690688, 35.519913 33.688524, 35.516871 33.686574, 35.513637 33.684853, 35.510237 33.683373, 35.506695 33.682148, 35.503039 33.681184, 35.499297 33.680491, 35.495496 33.680073, 35.491667 33.679933, 35.487838 33.680073, 35.484037 33.680491, 35.480295 33.681184, 35.476639 33.682148, 35.473097 33.683373, 35.469697 33.684853, 35.466463 33.686574, 35.463421 33.688524, 35.460594 33.690688, 35.458003 33.69305, 35.455668 33.695592, 35.453607 33.698294, 35.451836 33.701136, 35.450367 33.704096, 35.449212 33.707152, 35.448381 33.710281, 35.447879 33.713458, 35.44771 33.716659, 35.447876 33.719861, 35.448375 33.723038, 35.449203 33.726167, 35.450355 33.729224, 35.451821 33.732185, 35.453591 33.735028, 35.455651 33.737731, 35.457985 33.740274, 35.460575 33.742638, 35.463403 33.744803, 35.466445 33.746755, 35.46968 33.748477, 35.473083 33.749958, 35.476627 33.751184, 35.480285 33.752148, 35.484031 33.752842, 35.487834 33.753261, 35.491667 33.753401))"}, {"begin_at": 0, "area_id": 272680, "name": "Rogerson Flats", "level": 0, "country": 840, "updated_at": 1442279629, "disable": 0, "end_at": 0, "shape": 0, "warning": 1, "radius": 805, "lat": 42.223333, "lng": -114.486666, "type": 23, "city": "Twin Falls", "points": ""}, {"begin_at": 0, "area_id": 272731, "name": "High Trail Wind Farm LLC", "level": 0, "country": 840, "updated_at": 1442279630, "disable": 0, "end_at": 0, "shape": 0, "warning": 1, "radius": 805, "lat": 40.4792, "lng": -88.7989, "type": 23, "city": "Arrowsmith", "points": ""}, {"begin_at": 0, "area_id": 274639, "name": "JBER Landfill Gas Power Plant", "level": 0, "country": 840, "updated_at": 1442279675, "disable": 0, "end_at": 0, "shape": 0, "warning": 1, "radius": 805, "lat": 61.285, "lng": -149.611667, "type": 23, "city": "Anchorage", "points": ""}, {"begin_at": 0, "area_id": 1238537, "name": "IAAT", "level": 3, "country": 422, "updated_at": 1457569401, "disable": 0, "end_at": 0, "shape": 0, "warning": 0, "radius": 9260, "lat": 34.00001, "lng": 36.25, "type": 28, "city": "", "points": "POLYGON ((36.25 34.083481, 36.258744 34.083163, 36.267422 34.082212, 36.275967 34.080634, 36.284313 34.078442, 36.292398 34.075652, 36.300159 34.072287, 36.307537 34.06837, 36.314477 34.063934, 36.320924 34.05901, 36.326831 34.053637, 36.332152 34.047856, 36.336847 34.04171, 36.340879 34.035247, 36.34422 34.028516, 36.346842 34.021569, 36.348727 34.014457, 36.34986 34.007235, 36.350233 33.999959, 36.349843 33.992684, 36.348693 33.985464, 36.346793 33.978355, 36.344157 33.971411, 36.340804 33.964685, 36.336762 33.958228, 36.33206 33.952089, 36.326735 33.946315, 36.320826 33.940949, 36.31438 33.936032, 36.307445 33.931602, 36.300074 33.927692, 36.292323 33.924332, 36.28425 33.921548, 36.275918 33.91936, 36.267389 33.917785, 36.258727 33.916835, 36.25 33.916518, 36.241273 33.916835, 36.232611 33.917785, 36.224082 33.91936, 36.21575 33.921548, 36.207677 33.924332, 36.199926 33.927692, 36.192555 33.931602, 36.18562 33.936032, 36.179174 33.940949, 36.173265 33.946315, 36.16794 33.952089, 36.163238 33.958228, 36.159196 33.964685, 36.155843 33.971411, 36.153207 33.978355, 36.151307 33.985464, 36.150157 33.992684, 36.149767 33.999959, 36.15014 34.007235, 36.151273 34.014457, 36.153158 34.021569, 36.15578 34.028516, 36.159121 34.035247, 36.163153 34.04171, 36.167848 34.047856, 36.173169 34.053637, 36.179076 34.05901, 36.185523 34.063934, 36.192463 34.06837, 36.199841 34.072287, 36.207602 34.075652, 36.215687 34.078442, 36.224033 34.080634, 36.232578 34.082212, 36.241256 34.083163, 36.25 34.083481))"}, {"begin_at": 0, "area_id": 274454, "name": "MTSU Power Co-Gen Plant", "level": 0, "country": 840, "updated_at": 1442279670, "disable": 0, "end_at": 0, "shape": 0, "warning": 1, "radius": 805, "lat": 35.851389, "lng": -86.365, "type": 23, "city": "Murfreesboro", "points": ""}, {"begin_at": 0, "area_id": 272750, "name": "Sun River LLC", "level": 0, "country": 840, "updated_at": 1442279630, "disable": 0, "end_at": 0, "shape": 0, "warning": 1, "radius": 805, "lat": 44.4289, "lng": -96.4358, "type": 23, "city": "Hendricks", "points": ""}, {"begin_at": 0, "area_id": 272846, "name": "Waste Management Middle Peninsula LFGTE", "level": 0, "country": 840, "updated_at": 1442279632, "disable": 0, "end_at": 0, "shape": 0, "warning": 1, "radius": 805, "lat": 37.5681, "lng": -76.6233, "type": 23, "city": "Saluda", "points": ""}, {"begin_at": 0, "area_id": 272871, "name": "Milam Gas Recovery", "level": 0, "country": 840, "updated_at": 1442279633, "disable": 0, "end_at": 0, "shape": 0, "warning": 1, "radius": 805, "lat": 38.6603, "lng": -90.1317, "type": 23, "city": "East St Louis", "points": ""}, {"begin_at": 0, "area_id": 272896, "name": "Cedar Bayou", "level": 0, "country": 840, "updated_at": 1442279633, "disable": 0, "end_at": 0, "shape": 0, "warning": 1, "radius": 805, "lat": 29.75, "lng": -94.9256, "type": 23, "city": "Baytown", "points": ""}, {"begin_at": 0, "area_id": 267544, "name": "Freetown Solar", "level": 0, "country": 840, "updated_at": 1442279500, "disable": 0, "end_at": 0, "shape": 0, "warning": 1, "radius": 805, "lat": 41.766389, "lng": -70.980833, "type": 23, "city": "Freetown", "points": ""}, {"begin_at": 0, "area_id": 274482, "name": "Kettleman Solar Project", "level": 0, "country": 840, "updated_at": 1442279671, "disable": 0, "end_at": 0, "shape": 0, "warning": 1, "radius": 805, "lat": 38.120278, "lng": -121.132778, "type": 23, "city": "Lodi", "points": ""}, {"begin_at": 0, "area_id": 274491, "name": "M. G. Emmett J. Bean Federal Center", "level": 0, "country": 840, "updated_at": 1442279671, "disable": 0, "end_at": 0, "shape": 0, "warning": 1, "radius": 805, "lat": 39.853056, "lng": -86.014444, "type": 23, "city": "Indianapolis", "points": ""}, {"begin_at": 0, "area_id": 1241279, "name": "WOLSEONG", "level": 3, "country": 410, "updated_at": 1457569401, "disable": 0, "end_at": 0, "shape": 0, "warning": 0, "radius": 3703, "lat": 35.700002, "lng": 129.466667, "type": 28, "city": "Gyeongju", "points": "POLYGON ((129.466667 35.733383, 129.470235 35.733256, 129.473777 35.732876, 129.477264 35.732245, 129.48067 35.731369, 129.48397 35.730254, 129.487138 35.728909, 129.490149 35.727344, 129.492982 35.72557, 129.495615 35.723602, 129.498027 35.721454, 129.5002 35.719143, 129.502118 35.716686, 129.503765 35.714103, 129.505131 35.711412, 129.506203 35.708634, 129.506975 35.70579, 129.507439 35.702903, 129.507593 35.699993, 129.507436 35.697084, 129.506969 35.694196, 129.506195 35.691353, 129.50512 35.688576, 129.503752 35.685886, 129.502103 35.683303, 129.500184 35.680847, 129.49801 35.678537, 129.495598 35.676391, 129.492966 35.674424, 129.490133 35.672652, 129.487123 35.671087, 129.483957 35.669743, 129.480659 35.668629, 129.477255 35.667754, 129.473771 35.667123, 129.470232 35.666744, 129.466667 35.666617, 129.463102 35.666744, 129.459563 35.667123, 129.456079 35.667754, 129.452675 35.668629, 129.449377 35.669743, 129.446211 35.671087, 129.443201 35.672652, 129.440368 35.674424, 129.437736 35.676391, 129.435324 35.678537, 129.43315 35.680847, 129.431231 35.683303, 129.429582 35.685886, 129.428214 35.688576, 129.427139 35.691353, 129.426365 35.694196, 129.425898 35.697084, 129.425741 35.699993, 129.425895 35.702903, 129.426359 35.70579, 129.427131 35.708634, 129.428203 35.711412, 129.429569 35.714103, 129.431216 35.716686, 129.433134 35.719143, 129.435307 35.721454, 129.437719 35.723602, 129.440352 35.72557, 129.443185 35.727344, 129.446196 35.728909, 129.449364 35.730254, 129.452664 35.731369, 129.45607 35.732245, 129.459557 35.732876, 129.463099 35.733256, 129.466667 35.733383))"}, {"begin_at": 0, "area_id": 274514, "name": "Cargill Salt Hersey", "level": 0, "country": 840, "updated_at": 1442279672, "disable": 0, "end_at": 0, "shape": 0, "warning": 1, "radius": 805, "lat": 43.834167, "lng": -85.355833, "type": 23, "city": "Hersey", "points": ""}, {"begin_at": 0, "area_id": 274549, "name": "Horse Butte Wind I, LLC", "level": 0, "country": 840, "updated_at": 1442279673, "disable": 0, "end_at": 0, "shape": 0, "warning": 1, "radius": 805, "lat": 43.386389, "lng": -111.726389, "type": 23, "city": "Idaho Falls", "points": ""}, {"begin_at": 0, "area_id": 1241294, "name": "R404", "level": 3, "country": 368, "updated_at": 1457569401, "disable": 0, "end_at": 0, "shape": 0, "warning": 0, "radius": 16641, "lat": 34.241636, "lng": 44.125, "type": 28, "city": "", "points": "POLYGON ((44 34.133333, 44.25 34.133333, 44.233333 34.35, 44 34.35, 44 34.133333))"}, {"begin_at": 0, "area_id": 274559, "name": "Westwood Generation LLC", "level": 0, "country": 840, "updated_at": 1442279673, "disable": 0, "end_at": 0, "shape": 0, "warning": 1, "radius": 805, "lat": 40.6191, "lng": -76.45, "type": 23, "city": "Tremont", "points": ""}, {"begin_at": 0, "area_id": 273156, "name": "Biron Mill", "level": 0, "country": 840, "updated_at": 1442279640, "disable": 0, "end_at": 0, "shape": 0, "warning": 1, "radius": 805, "lat": 44.43, "lng": -89.78, "type": 23, "city": "Wisconsin Rapids", "points": ""}, {"begin_at": 0, "area_id": 274582, "name": "Porterville Solar", "level": 0, "country": 840, "updated_at": 1442279673, "disable": 0, "end_at": 0, "shape": 0, "warning": 1, "radius": 805, "lat": 36.102778, "lng": -119.039722, "type": 23, "city": "Porterville", "points": ""}, {"begin_at": 0, "area_id": 273212, "name": "EXC Wind 8 LLC", "level": 0, "country": 840, "updated_at": 1442279642, "disable": 0, "end_at": 0, "shape": 0, "warning": 1, "radius": 805, "lat": 36.0075, "lng": -101.8614, "type": 23, "city": "Sunray", "points": ""}, {"begin_at": 0, "area_id": 274606, "name": "Haynes Farm", "level": 0, "country": 840, "updated_at": 1442279674, "disable": 0, "end_at": 0, "shape": 0, "warning": 1, "radius": 805, "lat": 35.525833, "lng": -81.235278, "type": 23, "city": "Lincolnton", "points": ""}, {"begin_at": 0, "area_id": 272930, "name": "Brush Generation Facility", "level": 0, "country": 840, "updated_at": 1442279634, "disable": 0, "end_at": 0, "shape": 0, "warning": 1, "radius": 805, "lat": 40.2415, "lng": -103.631, "type": 23, "city": "Brush", "points": ""}, {"begin_at": 0, "area_id": 274613, "name": "New Bern Farm", "level": 0, "country": 840, "updated_at": 1442279674, "disable": 0, "end_at": 0, "shape": 0, "warning": 1, "radius": 805, "lat": 35.209444, "lng": -77.056667, "type": 23, "city": "New Bern", "points": ""}, {"begin_at": 0, "area_id": 274626, "name": "CH Resources Beaver Falls", "level": 0, "country": 840, "updated_at": 1442279674, "disable": 0, "end_at": 0, "shape": 0, "warning": 1, "radius": 805, "lat": 43.8861, "lng": -75.4342, "type": 23, "city": "Beaver Falls", "points": ""}, {"begin_at": 0, "area_id": 274644, "name": "CES Sterling LLC", "level": 0, "country": 840, "updated_at": 1442279675, "disable": 0, "end_at": 0, "shape": 0, "warning": 1, "radius": 805, "lat": 42.441944, "lng": -71.722222, "type": 23, "city": "Sterling", "points": ""}, {"begin_at": 0, "area_id": 273350, "name": "Sears Hydroelectric Plant", "level": 0, "country": 840, "updated_at": 1442279645, "disable": 0, "end_at": 0, "shape": 0, "warning": 1, "radius": 805, "lat": 41.4614, "lng": -90.5803, "type": 23, "city": "East Moline", "points": ""}, {"begin_at": 0, "area_id": 274646, "name": "Solar Star 1", "level": 0, "country": 840, "updated_at": 1442279675, "disable": 0, "end_at": 0, "shape": 0, "warning": 1, "radius": 805, "lat": 34.802222, "lng": -118.396667, "type": 23, "city": "Rosamond", "points": ""}, {"begin_at": 0, "area_id": 274635, "name": "Rochelle Energy Center", "level": 0, "country": 840, "updated_at": 1442279675, "disable": 0, "end_at": 0, "shape": 0, "warning": 1, "radius": 805, "lat": 41.924722, "lng": -88.998611, "type": 23, "city": "Rochelle", "points": ""}, {"begin_at": 0, "area_id": 274660, "name": "Good Spring NGCC", "level": 0, "country": 840, "updated_at": 1442279675, "disable": 0, "end_at": 0, "shape": 0, "warning": 1, "radius": 805, "lat": 40.623611, "lng": -76.461944, "type": 23, "city": "Tremont", "points": ""}, {"begin_at": 0, "area_id": 274668, "name": "Harbor Wind LLC", "level": 0, "country": 840, "updated_at": 1442279675, "disable": 0, "end_at": 0, "shape": 0, "warning": 1, "radius": 805, "lat": 27.832222, "lng": -97.440278, "type": 23, "city": "Corpus Christi", "points": ""}, {"begin_at": 0, "area_id": 274677, "name": "Ameresco Forward", "level": 0, "country": 840, "updated_at": 1442279675, "disable": 0, "end_at": 0, "shape": 0, "warning": 1, "radius": 805, "lat": 37.833056, "lng": -121.184167, "type": 23, "city": "Manteca", "points": ""}, {"begin_at": 0, "area_id": 273594, "name": "Agua Caliente Solar Project", "level": 0, "country": 840, "updated_at": 1442279651, "disable": 0, "end_at": 0, "shape": 0, "warning": 1, "radius": 805, "lat": 32.9774, "lng": -113.4945, "type": 23, "city": "Dateland", "points": ""}, {"begin_at": 0, "area_id": 274702, "name": "Meadow Ridge", "level": 0, "country": 840, "updated_at": 1442279676, "disable": 0, "end_at": 0, "shape": 0, "warning": 1, "radius": 805, "lat": 41.39, "lng": -94.445833, "type": 23, "city": "Greenfield", "points": ""}, {"begin_at": 0, "area_id": 274703, "name": "Sky Volt", "level": 0, "country": 840, "updated_at": 1442279676, "disable": 0, "end_at": 0, "shape": 0, "warning": 1, "radius": 805, "lat": 41.29, "lng": -94.488056, "type": 23, "city": "Greenfield", "points": ""}, {"begin_at": 0, "area_id": 273576, "name": "Bethlehem Power Plant", "level": 0, "country": 840, "updated_at": 1442279651, "disable": 0, "end_at": 0, "shape": 0, "warning": 1, "radius": 805, "lat": 40.6175, "lng": -75.3147, "type": 23, "city": "Bethlehem", "points": ""}, {"begin_at": 0, "area_id": 273616, "name": "ArcelorMittal Warren", "level": 0, "country": 840, "updated_at": 1442279651, "disable": 0, "end_at": 0, "shape": 0, "warning": 1, "radius": 805, "lat": 41.2119, "lng": -80.8176, "type": 23, "city": "Warren", "points": ""}, {"begin_at": 0, "area_id": 274647, "name": "Solar Star 2", "level": 0, "country": 840, "updated_at": 1442279675, "disable": 0, "end_at": 0, "shape": 0, "warning": 1, "radius": 805, "lat": 34.848611, "lng": -118.352778, "type": 23, "city": "Rosamond", "points": ""}, {"begin_at": 0, "area_id": 274732, "name": "RE Kent South, LLC", "level": 0, "country": 840, "updated_at": 1442279677, "disable": 0, "end_at": 0, "shape": 0, "warning": 1, "radius": 805, "lat": 36.226111, "lng": -119.905278, "type": 23, "city": "Lemoore", "points": ""}, {"begin_at": 0, "area_id": 274713, "name": "Las Vegas WPCF Solar Plant", "level": 0, "country": 840, "updated_at": 1442279676, "disable": 0, "end_at": 0, "shape": 0, "warning": 1, "radius": 805, "lat": 36.134444, "lng": -115.035278, "type": 23, "city": "Las Vegas", "points": ""}, {"begin_at": 0, "area_id": 274746, "name": "Progress Solar 1, LLC", "level": 0, "country": 840, "updated_at": 1442279677, "disable": 0, "end_at": 0, "shape": 0, "warning": 1, "radius": 805, "lat": 35.948056, "lng": -78.250833, "type": 23, "city": "Bunn", "points": ""}, {"begin_at": 0, "area_id": 274757, "name": "Chocowinity Solar LLC", "level": 0, "country": 840, "updated_at": 1442279677, "disable": 0, "end_at": 0, "shape": 0, "warning": 1, "radius": 805, "lat": 35.515, "lng": -77.09, "type": 23, "city": "Chocowinity", "points": ""}, {"begin_at": 0, "area_id": 274759, "name": "Rosamond Two", "level": 0, "country": 840, "updated_at": 1442279677, "disable": 0, "end_at": 0, "shape": 0, "warning": 1, "radius": 805, "lat": 34.900278, "lng": -118.238333, "type": 23, "city": "Rosamond", "points": ""}, {"begin_at": 0, "area_id": 274764, "name": "Livingston Solar Canopies", "level": 0, "country": 840, "updated_at": 1442279677, "disable": 0, "end_at": 0, "shape": 0, "warning": 1, "radius": 805, "lat": 40.5275, "lng": -74.438333, "type": 23, "city": "Piscataway Township", "points": ""}, {"begin_at": 0, "area_id": 1241295, "name": "R304", "level": 3, "country": 368, "updated_at": 1457569401, "disable": 0, "end_at": 0, "shape": 0, "warning": 0, "radius": 5556, "lat": 33.06667, "lng": 45.1, "type": 28, "city": "", "points": "POLYGON ((45.1 33.116763, 45.105188 33.116573, 45.110337 33.116002, 45.115407 33.115055, 45.12036 33.113741, 45.125157 33.112067, 45.129763 33.110048, 45.134142 33.107699, 45.138261 33.105037, 45.142088 33.102083, 45.145594 33.09886, 45.148753 33.095392, 45.151541 33.091705, 45.153936 33.087827, 45.15592 33.083789, 45.157478 33.07962, 45.158599 33.075352, 45.159274 33.071019, 45.159497 33.066653, 45.159268 33.062287, 45.158587 33.057954, 45.157461 33.053688, 45.155898 33.04952, 45.15391 33.045484, 45.151511 33.041608, 45.148721 33.037923, 45.145561 33.034457, 45.142054 33.031236, 45.138227 33.028285, 45.13411 33.025625, 45.129734 33.023278, 45.125132 33.021261, 45.120338 33.01959, 45.115391 33.018276, 45.110326 33.017331, 45.105183 33.016761, 45.1 33.01657, 45.094817 33.016761, 45.089674 33.017331, 45.084609 33.018276, 45.079662 33.01959, 45.074868 33.021261, 45.070266 33.023278, 45.06589 33.025625, 45.061773 33.028285, 45.057946 33.031236, 45.054439 33.034457, 45.051279 33.037923, 45.048489 33.041608, 45.04609 33.045484, 45.044102 33.04952, 45.042539 33.053688, 45.041413 33.057954, 45.040732 33.062287, 45.040503 33.066653, 45.040726 33.071019, 45.041401 33.075352, 45.042522 33.07962, 45.04408 33.083789, 45.046064 33.087827, 45.048459 33.091705, 45.051247 33.095392, 45.054406 33.09886, 45.057912 33.102083, 45.061739 33.105037, 45.065858 33.107699, 45.070237 33.110048, 45.074843 33.112067, 45.07964 33.113741, 45.084593 33.115055, 45.089663 33.116002, 45.094812 33.116573, 45.1 33.116763))"}, {"begin_at": 0, "area_id": 274776, "name": "Ironwood Solar LLC", "level": 0, "country": 840, "updated_at": 1442279678, "disable": 0, "end_at": 0, "shape": 0, "warning": 1, "radius": 805, "lat": 33.565, "lng": -114.918056, "type": 23, "city": "Blythe", "points": ""}, {"begin_at": 0, "area_id": 273806, "name": "Outagamie County Co-Generation Facility", "level": 0, "country": 840, "updated_at": 1442279656, "disable": 0, "end_at": 0, "shape": 0, "warning": 1, "radius": 805, "lat": 44.2869, "lng": -88.3339, "type": 23, "city": "Little Chute", "points": ""}, {"begin_at": 0, "area_id": 274785, "name": "City of Hayward WWTP", "level": 0, "country": 840, "updated_at": 1442279678, "disable": 0, "end_at": 0, "shape": 0, "warning": 1, "radius": 805, "lat": 37.633333, "lng": -122.130833, "type": 23, "city": "Hayward", "points": ""}, {"begin_at": 0, "area_id": 274809, "name": "Enoree Phase II Landfill Gas Recovery", "level": 0, "country": 840, "updated_at": 1442279678, "disable": 0, "end_at": 0, "shape": 0, "warning": 1, "radius": 805, "lat": 34.8008, "lng": -82.1847, "type": 23, "city": "Simpsonville", "points": ""}, {"begin_at": 0, "area_id": 274820, "name": "Eagle Valley Clean Energy LLC Biomass", "level": 0, "country": 840, "updated_at": 1442279678, "disable": 0, "end_at": 0, "shape": 0, "warning": 1, "radius": 805, "lat": 39.648056, "lng": -106.943056, "type": 23, "city": "Gypsum", "points": ""}, {"begin_at": 0, "area_id": 274821, "name": "Smithfield Farmland Kinston", "level": 0, "country": 840, "updated_at": 1442279678, "disable": 0, "end_at": 0, "shape": 0, "warning": 1, "radius": 805, "lat": 35.268333, "lng": -77.659167, "type": 23, "city": "Kinston", "points": ""}, {"begin_at": 0, "area_id": 274830, "name": "Tuscola Wind II LLC", "level": 0, "country": 840, "updated_at": 1442279679, "disable": 0, "end_at": 0, "shape": 0, "warning": 1, "radius": 805, "lat": 43.526944, "lng": -83.566944, "type": 23, "city": "Fairgrove", "points": ""}, {"begin_at": 0, "area_id": 1238651, "name": "MALAQUENO (CORDOBA)", "level": 3, "country": 32, "updated_at": 1457569401, "disable": 0, "end_at": 0, "shape": 0, "warning": 0, "radius": 16403, "lat": -31.489922, "lng": -64.347836, "type": 28, "city": "", "points": "POLYGON ((-64.470833 -31.404444, -64.458778 -31.43025, -64.446521 -31.442976, -64.434333 -31.45575, -64.458833 -31.505667, -64.450833 -31.532778, -64.440755 -31.614014, -64.436912 -31.611096, -64.432784 -31.608478, -64.428404 -31.606179, -64.423805 -31.604217, -64.419023 -31.602608, -64.414095 -31.601364, -64.409059 -31.600494, -64.403953 -31.600005, -64.398816 -31.599901, -64.393690 -31.600183, -64.388611 -31.600848, -64.383619 -31.601891, -64.378755 -31.603305, -64.374053 -31.605078, -64.333333 -31.55, -64.264167 -31.502778, -64.175833 -31.502778, -64.199777 -31.46775, -64.252083 -31.467417, -64.255111 -31.409917, -64.262327 -31.402474, -64.269499 -31.395, -64.262474 -31.385778, -64.2555 -31.376528, -64.295167 -31.349694, -64.470833 -31.404444))"}, {"begin_at": 0, "area_id": 272962, "name": "Moretown", "level": 0, "country": 840, "updated_at": 1442279635, "disable": 0, "end_at": 0, "shape": 0, "warning": 1, "radius": 805, "lat": 44.312222, "lng": -72.711389, "type": 23, "city": "Moretown", "points": ""}, {"begin_at": 0, "area_id": 274842, "name": "Indianapolis Motor Speedway Solar PV", "level": 0, "country": 840, "updated_at": 1442279679, "disable": 0, "end_at": 0, "shape": 0, "warning": 1, "radius": 805, "lat": 39.79, "lng": -86.233611, "type": 23, "city": "Indianapolis", "points": ""}, {"begin_at": 0, "area_id": 274658, "name": "Luther College Wind Project", "level": 0, "country": 840, "updated_at": 1442279675, "disable": 0, "end_at": 0, "shape": 0, "warning": 1, "radius": 805, "lat": 43.326944, "lng": -91.810833, "type": 23, "city": "Decorah", "points": ""}, {"begin_at": 0, "area_id": 272967, "name": "Lycoming County", "level": 0, "country": 840, "updated_at": 1442279635, "disable": 0, "end_at": 0, "shape": 0, "warning": 1, "radius": 805, "lat": 41.151111, "lng": -76.917777, "type": 23, "city": "Montgomery", "points": ""}, {"begin_at": 0, "area_id": 272976, "name": "CR Clearing LLC", "level": 0, "country": 840, "updated_at": 1442279635, "disable": 0, "end_at": 0, "shape": 0, "warning": 1, "radius": 805, "lat": 40.2572, "lng": -94.6722, "type": 23, "city": "Conception Junction", "points": ""}, {"begin_at": 0, "area_id": 274846, "name": "Transamerica Pyramid", "level": 0, "country": 840, "updated_at": 1442279679, "disable": 0, "end_at": 0, "shape": 0, "warning": 1, "radius": 805, "lat": 37.795556, "lng": -122.402778, "type": 23, "city": "SF", "points": ""}, {"begin_at": 0, "area_id": 274857, "name": "Summer Solar C2", "level": 0, "country": 840, "updated_at": 1442279679, "disable": 0, "end_at": 0, "shape": 0, "warning": 1, "radius": 805, "lat": 34.723056, "lng": -118.289722, "type": 23, "city": "Lancaster", "points": ""}, {"begin_at": 0, "area_id": 274863, "name": "Simon Solar Farm LLC", "level": 0, "country": 840, "updated_at": 1442279679, "disable": 0, "end_at": 0, "shape": 0, "warning": 1, "radius": 805, "lat": 33.678056, "lng": -83.675833, "type": 23, "city": "Social Circle", "points": ""}, {"begin_at": 0, "area_id": 274870, "name": "Jersey Gardens Phase 2", "level": 0, "country": 840, "updated_at": 1442279679, "disable": 0, "end_at": 0, "shape": 0, "warning": 1, "radius": 805, "lat": 40.660833, "lng": -74.173333, "type": 23, "city": "Elizabeth", "points": ""}, {"begin_at": 0, "area_id": 274661, "name": "Headwaters Wind Farm LLC", "level": 0, "country": 840, "updated_at": 1442279675, "disable": 0, "end_at": 0, "shape": 0, "warning": 1, "radius": 805, "lat": 40.066667, "lng": -85.013333, "type": 23, "city": "Lynn", "points": ""}, {"begin_at": 0, "area_id": 1238653, "name": "GRAN BUENOS AIRES", "level": 3, "country": 32, "updated_at": 1457569401, "disable": 0, "end_at": 0, "shape": 0, "warning": 0, "radius": 14840, "lat": -34.754518, "lng": -58.310278, "type": 28, "city": "Quilmes Oeste", "points": "POLYGON ((-58.317222 -34.657778, -58.251944 -34.693333, -58.270556 -34.703889, -58.229167 -34.718056, -58.216111 -34.734167, -58.220556 -34.751667, -58.158333 -34.790833, -58.16 -34.804722, -58.186667 -34.828056, -58.188611 -34.836111, -58.255 -34.813333, -58.288056 -34.813611, -58.425556 -34.786111, -58.450556 -34.749444, -58.442222 -34.727778, -58.45142 -34.716127, -58.460556 -34.704444, -58.400556 -34.706111, -58.338889 -34.679444, -58.328025 -34.668631, -58.317222 -34.657778))"}, {"begin_at": 0, "area_id": 1241304, "name": "KOPTER ROUTES (B)", "level": 3, "country": 784, "updated_at": 1457569401, "disable": 0, "end_at": 0, "shape": 0, "warning": 0, "radius": 30716, "lat": 24.563764, "lng": 54.200438, "type": 28, "city": "", "points": "POLYGON ((54.048378 24.802403, 54.5 24.606944, 54.391525 24.528425, 54.383333 24.523611, 54.291667 24.456944, 54.206667 24.377778, 54.141111 24.406667, 53.916667 24.466667, 53.916667 24.583333, 54 24.75, 54.048378 24.802403))"}, {"begin_at": 0, "area_id": 274919, "name": "Phoenix Airport East Economy Lot", "level": 0, "country": 840, "updated_at": 1442279680, "disable": 0, "end_at": 0, "shape": 0, "warning": 1, "radius": 805, "lat": 33.45, "lng": -111.98, "type": 23, "city": "Phoenix", "points": ""}, {"begin_at": 0, "area_id": 274148, "name": "Apogee Technology Inc", "level": 0, "country": 840, "updated_at": 1442279664, "disable": 0, "end_at": 0, "shape": 0, "warning": 1, "radius": 805, "lat": 40.512778, "lng": -79.800833, "type": 23, "city": "Verona", "points": ""}, {"begin_at": 0, "area_id": 274885, "name": "Cape Cod Air Force Station - 6 SWS", "level": 0, "country": 840, "updated_at": 1442279680, "disable": 0, "end_at": 0, "shape": 0, "warning": 1, "radius": 805, "lat": 41.7525, "lng": -70.538889, "type": 23, "city": "Bourne", "points": ""}, {"begin_at": 0, "area_id": 274427, "name": "Red Lion Energy Center", "level": 0, "country": 840, "updated_at": 1442279670, "disable": 0, "end_at": 0, "shape": 0, "warning": 1, "radius": 805, "lat": 39.616389, "lng": -75.630556, "type": 23, "city": "New Castle", "points": ""}, {"begin_at": 0, "area_id": 274465, "name": "TA-High Desert LLC", "level": 0, "country": 840, "updated_at": 1442279671, "disable": 0, "end_at": 0, "shape": 0, "warning": 1, "radius": 805, "lat": 34.708889, "lng": -118.304722, "type": 23, "city": "Lancaster", "points": ""}, {"begin_at": 0, "area_id": 274486, "name": "Crafton Hills College Solar Farm", "level": 0, "country": 840, "updated_at": 1442279671, "disable": 0, "end_at": 0, "shape": 0, "warning": 1, "radius": 805, "lat": 34.043056, "lng": -117.098889, "type": 23, "city": "Yucaipa", "points": ""}, {"begin_at": 0, "area_id": 274897, "name": "Finley Buttes Landfill Gas", "level": 0, "country": 840, "updated_at": 1442279680, "disable": 0, "end_at": 0, "shape": 0, "warning": 1, "radius": 805, "lat": 45.69, "lng": -119.61, "type": 23, "city": "Lexington", "points": ""}, {"begin_at": 0, "area_id": 274593, "name": "Watts Farm", "level": 0, "country": 840, "updated_at": 1442279674, "disable": 0, "end_at": 0, "shape": 0, "warning": 1, "radius": 805, "lat": 34.726944, "lng": -79.335278, "type": 23, "city": "Maxton", "points": ""}, {"begin_at": 0, "area_id": 274951, "name": "Maverick Solar", "level": 0, "country": 840, "updated_at": 1442279681, "disable": 0, "end_at": 0, "shape": 0, "warning": 1, "radius": 805, "lat": 35.737778, "lng": -79.655278, "type": 23, "city": "Ramseur", "points": ""}, {"begin_at": 0, "area_id": 1241317, "name": "D6", "level": 3, "country": 540, "updated_at": 1457569401, "disable": 0, "end_at": 0, "shape": 0, "warning": 0, "radius": 18519, "lat": -22.11669, "lng": 167.45, "type": 28, "city": "", "points": "POLYGON ((167.45 -21.949414, 167.465626 -21.95005, 167.481133 -21.951952, 167.496404 -21.955107, 167.511324 -21.95949, 167.525778 -21.965067, 167.539657 -21.971798, 167.552856 -21.97963, 167.565274 -21.988504, 167.576818 -21.998353, 167.587398 -22.009102, 167.596936 -22.020669, 167.605357 -22.032967, 167.612598 -22.045903, 167.618604 -22.059377, 167.623327 -22.073287, 167.626733 -22.087529, 167.628795 -22.101992, 167.629496 -22.116568, 167.628832 -22.131146, 167.626806 -22.145614, 167.623433 -22.159862, 167.61874 -22.173783, 167.61276 -22.187269, 167.60554 -22.200218, 167.597135 -22.212531, 167.587607 -22.224115, 167.577029 -22.234881, 167.565483 -22.244747, 167.553055 -22.253637, 167.53984 -22.261484, 167.52594 -22.268229, 167.51146 -22.273818, 167.49651 -22.278211, 167.481206 -22.281372, 167.465663 -22.283279, 167.45 -22.283916, 167.434337 -22.283279, 167.418794 -22.281372, 167.40349 -22.278211, 167.38854 -22.273818, 167.37406 -22.268229, 167.36016 -22.261484, 167.346945 -22.253637, 167.334517 -22.244747, 167.322971 -22.234881, 167.312393 -22.224115, 167.302865 -22.212531, 167.29446 -22.200218, 167.28724 -22.187269, 167.28126 -22.173783, 167.276567 -22.159862, 167.273194 -22.145614, 167.271168 -22.131146, 167.270504 -22.116568, 167.271205 -22.101992, 167.273267 -22.087529, 167.276673 -22.073287, 167.281396 -22.059377, 167.287402 -22.045903, 167.294643 -22.032967, 167.303064 -22.020669, 167.312602 -22.009102, 167.323182 -21.998353, 167.334726 -21.988504, 167.347144 -21.97963, 167.360343 -21.971798, 167.374222 -21.965067, 167.388676 -21.95949, 167.403596 -21.955107, 167.418867 -21.951952, 167.434374 -21.95005, 167.45 -21.949414))"}, {"begin_at": 0, "area_id": 274957, "name": "Industry Solar Power Generation Station 1 LLC", "level": 0, "country": 840, "updated_at": 1442279681, "disable": 0, "end_at": 0, "shape": 0, "warning": 1, "radius": 805, "lat": 34.553056, "lng": -117.456944, "type": 23, "city": "Adelanto", "points": ""}, {"begin_at": 0, "area_id": 274966, "name": "Tioga Solar Morris County 1 LLC", "level": 0, "country": 840, "updated_at": 1442279681, "disable": 0, "end_at": 0, "shape": 0, "warning": 1, "radius": 805, "lat": 40.815278, "lng": -74.475833, "type": 23, "city": "Morristown", "points": ""}, {"begin_at": 0, "area_id": 272984, "name": "Edgecombe Genco LLC", "level": 0, "country": 840, "updated_at": 1442279635, "disable": 0, "end_at": 0, "shape": 0, "warning": 1, "radius": 805, "lat": 36.037318, "lng": -77.753345, "type": 23, "city": "Rocky Mount", "points": ""}, {"begin_at": 0, "area_id": 1241437, "name": "TABRIZ", "level": 3, "country": 364, "updated_at": 1457569401, "disable": 0, "end_at": 0, "shape": 0, "warning": 0, "radius": 18980, "lat": 38.100001, "lng": 45.758333, "type": 28, "city": "", "points": "POLYGON ((45.6 38.216667, 45.866667 38.25, 45.916667 38, 45.65 37.95, 45.6 38.216667))"}, {"begin_at": 0, "area_id": 1241451, "name": "OEDF", "level": 3, "country": 682, "updated_at": 1457569401, "disable": 0, "end_at": 0, "shape": 0, "warning": 0, "radius": 20739, "lat": 26.072047, "lng": 49.045969, "type": 28, "city": "", "points": "POLYGON ((49.146389 26.020278, 49.135278 26.033333, 49.146944 26.038611, 49.138611 26.239444, 48.936111 26.230833, 48.956944 25.903056, 49.146389 26.020278))"}, {"begin_at": 0, "area_id": 274869, "name": "Jersey Gardens Phase 1", "level": 0, "country": 840, "updated_at": 1442279679, "disable": 0, "end_at": 0, "shape": 0, "warning": 1, "radius": 805, "lat": 40.660833, "lng": -74.173333, "type": 23, "city": "Elizabeth", "points": ""}, {"begin_at": 0, "area_id": 272990, "name": "Middle Falls Hydro", "level": 0, "country": 840, "updated_at": 1442279635, "disable": 0, "end_at": 0, "shape": 0, "warning": 1, "radius": 805, "lat": 43.098711, "lng": -73.525271, "type": 23, "city": "Greenwich", "points": ""}, {"begin_at": 0, "area_id": 1241463, "name": "ST LOUIS", "level": 3, "country": 686, "updated_at": 1457569401, "disable": 0, "end_at": 0, "shape": 0, "warning": 0, "radius": 9259, "lat": 16.048337, "lng": -16.456667, "type": 28, "city": "Saint-Louis", "points": "POLYGON ((-16.456667 16.132013, -16.449122 16.131694, -16.441634 16.130741, -16.434261 16.129161, -16.427059 16.126964, -16.420082 16.12417, -16.413384 16.120798, -16.407016 16.116874, -16.401025 16.112428, -16.395459 16.107495, -16.390359 16.102111, -16.385765 16.096318, -16.38171 16.09016, -16.378226 16.083683, -16.375339 16.076938, -16.373071 16.069975, -16.37144 16.062847, -16.370458 16.055609, -16.370132 16.048316, -16.370464 16.041022, -16.371453 16.033785, -16.37309 16.026659, -16.375362 16.019697, -16.378253 16.012954, -16.381741 16.00648, -16.385799 16.000324, -16.390395 15.994534, -16.395495 15.989153, -16.401061 15.984223, -16.407049 15.97978, -16.413415 15.975859, -16.42011 15.972489, -16.427082 15.969697, -16.434279 15.967503, -16.441647 15.965923, -16.449128 15.964971, -16.456667 15.964652, -16.464206 15.964971, -16.471687 15.965923, -16.479055 15.967503, -16.486252 15.969697, -16.493224 15.972489, -16.499919 15.975859, -16.506285 15.97978, -16.512273 15.984223, -16.517839 15.989153, -16.522939 15.994534, -16.527535 16.000324, -16.531593 16.00648, -16.535081 16.012954, -16.537972 16.019697, -16.540244 16.026659, -16.541881 16.033785, -16.54287 16.041022, -16.543202 16.048316, -16.542876 16.055609, -16.541894 16.062847, -16.540263 16.069975, -16.537995 16.076938, -16.535108 16.083683, -16.531624 16.09016, -16.527569 16.096318, -16.522975 16.102111, -16.517875 16.107495, -16.512308 16.112428, -16.506318 16.116874, -16.49995 16.120798, -16.493252 16.12417, -16.486275 16.126964, -16.479073 16.129161, -16.4717 16.130741, -16.464212 16.131694, -16.456667 16.132013))"}, {"begin_at": 0, "area_id": 274998, "name": "Hutsonville", "level": 0, "country": 840, "updated_at": 1442279682, "disable": 0, "end_at": 0, "shape": 0, "warning": 1, "radius": 805, "lat": 39.1333, "lng": -87.6597, "type": 23, "city": "Hutsonville", "points": ""}, {"begin_at": 0, "area_id": 275004, "name": "Dennison", "level": 0, "country": 840, "updated_at": 1442279682, "disable": 0, "end_at": 0, "shape": 0, "warning": 1, "radius": 805, "lat": 40.763056, "lng": -73.323611, "type": 23, "city": "Deer Park", "points": ""}, {"begin_at": 0, "area_id": 275021, "name": "Arba Solar, LLC", "level": 0, "country": 840, "updated_at": 1442279682, "disable": 0, "end_at": 0, "shape": 0, "warning": 1, "radius": 805, "lat": 35.396389, "lng": -77.703611, "type": 23, "city": "Snow Hill", "points": ""}, {"begin_at": 0, "area_id": 275095, "name": "Stargate Point Comfort", "level": 0, "country": 840, "updated_at": 1442279684, "disable": 0, "end_at": 0, "shape": 0, "warning": 1, "radius": 805, "lat": 28.644444, "lng": -96.560833, "type": 23, "city": "Point Comfort", "points": ""}, {"begin_at": 0, "area_id": 1241465, "name": "ALIABAD", "level": 3, "country": 364, "updated_at": 1457569401, "disable": 0, "end_at": 0, "shape": 0, "warning": 0, "radius": 6700, "lat": 35.085963, "lng": 51.090972, "type": 28, "city": "", "points": "POLYGON ((51.15 35.108611, 51.15 35.05, 51.031944 35.059722, 51.031944 35.121944, 51.15 35.108611))"}, {"begin_at": 0, "area_id": 275030, "name": "Rams Horn Solar Center LLC", "level": 0, "country": 840, "updated_at": 1442279683, "disable": 0, "end_at": 0, "shape": 0, "warning": 1, "radius": 805, "lat": 35.64, "lng": -77.316111, "type": 23, "city": "Greenville", "points": ""}, {"begin_at": 0, "area_id": 275038, "name": "Nan Solar Center LLC", "level": 0, "country": 840, "updated_at": 1442279683, "disable": 0, "end_at": 0, "shape": 0, "warning": 1, "radius": 805, "lat": 35.781111, "lng": -77.846944, "type": 23, "city": "Elm City", "points": ""}, {"begin_at": 0, "area_id": 275241, "name": "Spicewood Solar Farm LLC", "level": 0, "country": 840, "updated_at": 1442279687, "disable": 0, "end_at": 0, "shape": 0, "warning": 1, "radius": 805, "lat": 35.3025, "lng": -79.701667, "type": 23, "city": "Eagle Springs", "points": ""}, {"begin_at": 0, "area_id": 275263, "name": "Quantum Auburndale Power LP", "level": 0, "country": 840, "updated_at": 1442279687, "disable": 0, "end_at": 0, "shape": 0, "warning": 1, "radius": 805, "lat": 28.0542, "lng": -81.8058, "type": 23, "city": "Auburndale", "points": ""}, {"begin_at": 0, "area_id": 275285, "name": "Bridgeport Disposal Solar Farm", "level": 0, "country": 840, "updated_at": 1442279688, "disable": 0, "end_at": 0, "shape": 0, "warning": 1, "radius": 805, "lat": 39.7875, "lng": -75.350833, "type": 23, "city": "Logan Township", "points": ""}, {"begin_at": 0, "area_id": 1238706, "name": "D3", "level": 3, "country": 0, "updated_at": 1457569401, "disable": 0, "end_at": 0, "shape": 0, "warning": 0, "radius": 93187, "lat": 5.240046, "lng": -51.928008, "type": 28, "city": "", "points": "POLYGON ((-52.768611 5.240278, -51.505833 5.963889, -51.485515 5.926984, -51.466275 5.889506, -51.448126 5.851486, -51.431085 5.812957, -51.415166 5.77395, -51.400381 5.734498, -51.386743 5.694634, -51.374263 5.654392, -51.36295 5.613806, -51.352816 5.572909, -51.343866 5.531735, -51.336109 5.49032, -51.329552 5.448697, -51.324198 5.406902, -51.320053 5.36497, -51.317119 5.322935, -51.315399 5.280832, -51.314894 5.238698, -51.315604 5.196567, -51.317528 5.154474, -51.320664 5.112455, -51.325011 5.070544, -51.330562 5.028777, -51.337315 4.987189, -51.345262 4.945813, -51.354397 4.904686, -51.364713 4.86384, -51.3762 4.823311, -51.388848 4.783131, -51.402647 4.743335, -51.417586 4.703956, -51.433651 4.665026, -51.450828 4.626578, -51.469104 4.588644, -51.488463 4.551256, -51.508889 4.514444, -52.768611 5.240278))"}, {"begin_at": 0, "area_id": 275055, "name": "Washington Airport Solar LLC", "level": 0, "country": 840, "updated_at": 1442279683, "disable": 0, "end_at": 0, "shape": 0, "warning": 1, "radius": 805, "lat": 35.565278, "lng": -77.053611, "type": 23, "city": "Washington", "points": ""}, {"begin_at": 0, "area_id": 1238712, "name": "ANDFJORDEN", "level": 3, "country": 578, "updated_at": 1457569401, "disable": 0, "end_at": 0, "shape": 0, "warning": 0, "radius": 29747, "lat": 69.341895, "lng": 16.086506, "type": 28, "city": "Andenes", "points": "POLYGON ((16.142778 69.695832, 16.301758 69.635631, 16.45984 69.575284, 16.617029 69.514796, 16.773333 69.454167, 16.756667 69.191667, 16.509711 69.091843, 16.265 68.991667, 15.8525 68.995833, 15.985416 69.064635, 16.119167 69.133332, 16.203889 69.258332, 16.206667 69.291667, 16.115 69.369444, 15.74 69.372221, 15.748333 69.441667, 15.846067 69.505292, 15.944382 69.568862, 16.043284 69.632375, 16.142778 69.695832))"}, {"begin_at": 0, "area_id": 1238720, "name": "LA BLANQUILLA ISLAND", "level": 3, "country": 0, "updated_at": 1457569401, "disable": 0, "end_at": 0, "shape": 0, "warning": 0, "radius": 133092, "lat": 11.921188, "lng": -64.320175, "type": 28, "city": "", "points": "POLYGON ((-64.101944 13.096944, -63.146111 11.591389, -64.001667 11.341389, -65.513056 11.663611, -64.101944 13.096944))"}, {"begin_at": 0, "area_id": 275073, "name": "Waco Farm", "level": 0, "country": 840, "updated_at": 1442279683, "disable": 0, "end_at": 0, "shape": 0, "warning": 1, "radius": 805, "lat": 35.352222, "lng": -81.426111, "type": 23, "city": "Shelby", "points": ""}, {"begin_at": 0, "area_id": 275076, "name": "Enfield Farm", "level": 0, "country": 840, "updated_at": 1442279684, "disable": 0, "end_at": 0, "shape": 0, "warning": 1, "radius": 805, "lat": 36.186944, "lng": -77.681944, "type": 23, "city": "Enfield", "points": ""}, {"begin_at": 0, "area_id": 275084, "name": "Dement Farm LLC", "level": 0, "country": 840, "updated_at": 1442279684, "disable": 0, "end_at": 0, "shape": 0, "warning": 1, "radius": 805, "lat": 36.27, "lng": -78.348333, "type": 23, "city": "Henderson", "points": ""}, {"begin_at": 0, "area_id": 275097, "name": "Camilla Solar Plant", "level": 0, "country": 840, "updated_at": 1442279684, "disable": 0, "end_at": 0, "shape": 0, "warning": 1, "radius": 805, "lat": 31.183889, "lng": -84.131944, "type": 23, "city": "Pelham", "points": ""}, {"begin_at": 0, "area_id": 275106, "name": "Kingfisher Wind LLC", "level": 0, "country": 840, "updated_at": 1442279684, "disable": 0, "end_at": 0, "shape": 0, "warning": 1, "radius": 805, "lat": 35.770278, "lng": -97.799722, "type": 23, "city": "Piedmont", "points": ""}, {"begin_at": 0, "area_id": 275117, "name": "Copper Mountain Solar 3", "level": 0, "country": 840, "updated_at": 1442279684, "disable": 0, "end_at": 0, "shape": 0, "warning": 1, "radius": 805, "lat": 35.871944, "lng": -114.928333, "type": 23, "city": "Boulder City", "points": ""}, {"begin_at": 0, "area_id": 1238729, "name": "GLASSHOUSE", "level": 3, "country": 36, "updated_at": 1457569401, "disable": 0, "end_at": 0, "shape": 0, "warning": 0, "radius": 2970, "lat": -27.058645, "lng": 152.936894, "type": 28, "city": "Caboolture", "points": "POLYGON ((152.954722 -27.037222, 152.952222 -27.077778, 152.938333 -27.085278, 152.907222 -27.062222, 152.954722 -27.037222))"}, {"begin_at": 0, "area_id": 1238746, "name": "NAKHON RATCHASIMA EAST AREA 2", "level": 3, "country": 764, "updated_at": 1457569401, "disable": 0, "end_at": 0, "shape": 0, "warning": 0, "radius": 66568, "lat": 15.48452, "lng": 102.846403, "type": 28, "city": "Tambon Nong Waeng", "points": "POLYGON ((102.329806 15.151583, 102.713083 16.001528, 103.363 15.818222, 103.366667 15.35, 103.363 15.21825, 102.329806 15.151583))"}, {"begin_at": 0, "area_id": 275120, "name": "2097 Helton Solar Project", "level": 0, "country": 840, "updated_at": 1442279685, "disable": 0, "end_at": 0, "shape": 0, "warning": 1, "radius": 805, "lat": 37.352222, "lng": -120.506944, "type": 23, "city": "Merced", "points": ""}, {"begin_at": 0, "area_id": 1241467, "name": "OEDR", "level": 3, "country": 682, "updated_at": 1457569401, "disable": 0, "end_at": 0, "shape": 0, "warning": 0, "radius": 17841, "lat": 26.340965, "lng": 50.268845, "type": 28, "city": "Al Khobar", "points": "POLYGON ((50.296114 26.411456, 50.221747 26.496256, 50.216667 26.258333, 50.315944 26.185633, 50.296114 26.411456))"}, {"begin_at": 0, "area_id": 1241480, "name": "PERSIAN GULF", "level": 3, "country": 0, "updated_at": 1457569401, "disable": 0, "end_at": 0, "shape": 0, "warning": 0, "radius": 68129, "lat": 28.004623, "lng": 50.545541, "type": 28, "city": "", "points": "POLYGON ((50.516667 28.616667, 51.182778 28.018611, 50.748333 27.418056, 50.373608 27.899281, 49.995556 28.379444, 50.516667 28.616667))"}, {"begin_at": 0, "area_id": 275127, "name": "Story City Wind Project", "level": 0, "country": 840, "updated_at": 1442279685, "disable": 0, "end_at": 0, "shape": 0, "warning": 1, "radius": 805, "lat": 42.208056, "lng": -93.599444, "type": 23, "city": "Story City", "points": ""}, {"begin_at": 0, "area_id": 1241481, "name": "PERSIAN GULF", "level": 3, "country": 0, "updated_at": 1457569401, "disable": 0, "end_at": 0, "shape": 0, "warning": 0, "radius": 64326, "lat": 27.314326, "lng": 51.629367, "type": 28, "city": "", "points": "POLYGON ((51.506111 27.788889, 51.780556 27.7825, 51.716667 26.833056, 51.019167 27.115833, 51.506111 27.788889))"}, {"begin_at": 0, "area_id": 273013, "name": "Roanoke Valley Energy Facililty I", "level": 0, "country": 840, "updated_at": 1442279636, "disable": 0, "end_at": 0, "shape": 0, "warning": 1, "radius": 805, "lat": 36.4364, "lng": -77.6167, "type": 23, "city": "Weldon", "points": ""}, {"begin_at": 0, "area_id": 275140, "name": "Cloverdale Solar I", "level": 0, "country": 840, "updated_at": 1442279685, "disable": 0, "end_at": 0, "shape": 0, "warning": 1, "radius": 805, "lat": 38.773056, "lng": -123.017778, "type": 23, "city": "Cloverdale", "points": ""}, {"begin_at": 0, "area_id": 275146, "name": "Graham Solar Center LLC", "level": 0, "country": 840, "updated_at": 1442279685, "disable": 0, "end_at": 0, "shape": 0, "warning": 1, "radius": 805, "lat": 34.309722, "lng": -79.014444, "type": 23, "city": "Fair Bluff", "points": ""}, {"begin_at": 0, "area_id": 275159, "name": "Akron Recycle Energy Plant", "level": 0, "country": 840, "updated_at": 1442279685, "disable": 0, "end_at": 0, "shape": 0, "warning": 1, "radius": 805, "lat": 41.073336, "lng": -81.530642, "type": 23, "city": "Akron", "points": ""}, {"begin_at": 0, "area_id": 275170, "name": "Pine Tree Landfill Gas to Energy", "level": 0, "country": 840, "updated_at": 1442279686, "disable": 0, "end_at": 0, "shape": 0, "warning": 1, "radius": 805, "lat": 44.768611, "lng": -68.861667, "type": 23, "city": "Hampden", "points": ""}, {"begin_at": 0, "area_id": 275171, "name": "SRF Sorghum to Ethanol Advanced Biorefin", "level": 0, "country": 840, "updated_at": 1442279686, "disable": 0, "end_at": 0, "shape": 0, "warning": 1, "radius": 805, "lat": 26.588056, "lng": -80.981111, "type": 23, "city": "Clewiston", "points": ""}, {"begin_at": 0, "area_id": 275181, "name": "Arizona Western College PV", "level": 0, "country": 840, "updated_at": 1442279686, "disable": 0, "end_at": 0, "shape": 0, "warning": 1, "radius": 805, "lat": 32.687778, "lng": -114.49611, "type": 23, "city": "Yuma", "points": ""}, {"begin_at": 0, "area_id": 275185, "name": "Bolton PV", "level": 0, "country": 840, "updated_at": 1442279686, "disable": 0, "end_at": 0, "shape": 0, "warning": 1, "radius": 805, "lat": 42.449722, "lng": -71.643056, "type": 23, "city": "Bolton", "points": ""}, {"begin_at": 0, "area_id": 275209, "name": "Gallegos Wind Farm, Phase 1", "level": 0, "country": 840, "updated_at": 1442279686, "disable": 0, "end_at": 0, "shape": 0, "warning": 1, "radius": 805, "lat": 36.593333, "lng": -103.614444, "type": 23, "city": "Grenville", "points": ""}, {"begin_at": 0, "area_id": 275201, "name": "Biomass to Energy Facility, Kauai", "level": 0, "country": 840, "updated_at": 1442279686, "disable": 0, "end_at": 0, "shape": 0, "warning": 1, "radius": 805, "lat": 21.965278, "lng": -159.460556, "type": 23, "city": "Kalaheo", "points": ""}, {"begin_at": 0, "area_id": 275218, "name": "Jericho Power", "level": 0, "country": 840, "updated_at": 1442279687, "disable": 0, "end_at": 0, "shape": 0, "warning": 1, "radius": 805, "lat": 44.466944, "lng": -71.225, "type": 23, "city": "Berlin", "points": ""}, {"begin_at": 0, "area_id": 275224, "name": "Katama Farm", "level": 0, "country": 840, "updated_at": 1442279687, "disable": 0, "end_at": 0, "shape": 0, "warning": 1, "radius": 805, "lat": 41.361111, "lng": -70.516944, "type": 23, "city": "Edgartown", "points": ""}, {"begin_at": 0, "area_id": 275229, "name": "Box Canyon Dam", "level": 0, "country": 840, "updated_at": 1442279687, "disable": 0, "end_at": 0, "shape": 0, "warning": 1, "radius": 805, "lat": 41.2792, "lng": -122.3292, "type": 23, "city": "Mt Shasta", "points": ""}, {"begin_at": 0, "area_id": 275256, "name": "DD Fayetteville Solar NC LLC", "level": 0, "country": 840, "updated_at": 1442279687, "disable": 0, "end_at": 0, "shape": 0, "warning": 1, "radius": 805, "lat": 34.834444, "lng": -78.843611, "type": 23, "city": "Fayetteville", "points": ""}, {"begin_at": 0, "area_id": 275267, "name": "Front Range Project", "level": 0, "country": 840, "updated_at": 1442279688, "disable": 0, "end_at": 0, "shape": 0, "warning": 1, "radius": 805, "lat": 40.029444, "lng": -105.004722, "type": 23, "city": "Erie", "points": ""}, {"begin_at": 0, "area_id": 275278, "name": "Sterling PV 3", "level": 0, "country": 840, "updated_at": 1442279688, "disable": 0, "end_at": 0, "shape": 0, "warning": 1, "radius": 805, "lat": 40.632222, "lng": -103.196111, "type": 23, "city": "Sterling", "points": ""}, {"begin_at": 0, "area_id": 274674, "name": "Swauk Wind LLC", "level": 0, "country": 840, "updated_at": 1442279675, "disable": 0, "end_at": 0, "shape": 0, "warning": 1, "radius": 805, "lat": 47.139167, "lng": -120.753056, "type": 23, "city": "Ellensburg", "points": ""}, {"begin_at": 0, "area_id": 275284, "name": "Lancaster Solar 2", "level": 0, "country": 840, "updated_at": 1442279688, "disable": 0, "end_at": 0, "shape": 0, "warning": 1, "radius": 805, "lat": 34.710556, "lng": -118.166111, "type": 23, "city": "Lancaster", "points": ""}, {"begin_at": 0, "area_id": 275290, "name": "Williamston Solar", "level": 0, "country": 840, "updated_at": 1442279688, "disable": 0, "end_at": 0, "shape": 0, "warning": 1, "radius": 805, "lat": 35.801111, "lng": -77.063056, "type": 23, "city": "Williamston", "points": ""}, {"begin_at": 0, "area_id": 275299, "name": "Soluga Farms 1", "level": 0, "country": 840, "updated_at": 1442279688, "disable": 0, "end_at": 0, "shape": 0, "warning": 1, "radius": 805, "lat": 35.243056, "lng": -78.386944, "type": 23, "city": "Newton Grove", "points": ""}, {"begin_at": 0, "area_id": 275319, "name": "Venus Wind 3 LLC", "level": 0, "country": 840, "updated_at": 1442279693, "disable": 0, "end_at": 0, "shape": 0, "warning": 1, "radius": 805, "lat": 41.741944, "lng": -92.672222, "type": 23, "city": "Grinnell", "points": ""}, {"begin_at": 0, "area_id": 275332, "name": "Eagle Springs Solar LLC", "level": 0, "country": 840, "updated_at": 1442279694, "disable": 0, "end_at": 0, "shape": 0, "warning": 1, "radius": 805, "lat": 39.526111, "lng": -107.696111, "type": 23, "city": "Silt", "points": ""}, {"begin_at": 0, "area_id": 275352, "name": "Altamont Midway Ltd", "level": 0, "country": 840, "updated_at": 1442279695, "disable": 0, "end_at": 0, "shape": 0, "warning": 1, "radius": 805, "lat": 37.7392, "lng": -121.4322, "type": 23, "city": "Tracy", "points": ""}, {"begin_at": 0, "area_id": 275359, "name": "Pecan Creek Energy Center", "level": 0, "country": 840, "updated_at": 1442279695, "disable": 0, "end_at": 0, "shape": 0, "warning": 1, "radius": 805, "lat": 32.218333, "lng": -100.323056, "type": 23, "city": "Blackwell", "points": ""}, {"begin_at": 0, "area_id": 275372, "name": "Seiling Wind I", "level": 0, "country": 840, "updated_at": 1442279695, "disable": 0, "end_at": 0, "shape": 0, "warning": 1, "radius": 805, "lat": 36.1225, "lng": -98.992222, "type": 23, "city": "Seiling", "points": ""}, {"begin_at": 0, "area_id": 275373, "name": "Seiling Wind II", "level": 0, "country": 840, "updated_at": 1442279695, "disable": 0, "end_at": 0, "shape": 0, "warning": 1, "radius": 805, "lat": 36.1225, "lng": -98.992222, "type": 23, "city": "Seiling", "points": ""}, {"begin_at": 0, "area_id": 275377, "name": "Los Vientos Windpower IV", "level": 0, "country": 840, "updated_at": 1442279695, "disable": 0, "end_at": 0, "shape": 0, "warning": 1, "radius": 805, "lat": 26.380556, "lng": -98.818333, "type": 23, "city": "Rio Grande City", "points": ""}, {"begin_at": 0, "area_id": 275402, "name": "Broshco Fabricated Products", "level": 0, "country": 840, "updated_at": 1442279696, "disable": 0, "end_at": 0, "shape": 0, "warning": 1, "radius": 805, "lat": 40.776111, "lng": -82.568611, "type": 23, "city": "Mansfield", "points": ""}, {"begin_at": 0, "area_id": 273020, "name": "EXC Wind 5 LLC", "level": 0, "country": 840, "updated_at": 1442279636, "disable": 0, "end_at": 0, "shape": 0, "warning": 1, "radius": 805, "lat": 36.4453, "lng": -101.8761, "type": 23, "city": "Sunray", "points": ""}, {"begin_at": 0, "area_id": 1238763, "name": "COLABA", "level": 3, "country": 356, "updated_at": 1457569401, "disable": 0, "end_at": 0, "shape": 0, "warning": 0, "radius": 14336, "lat": 18.842557, "lng": 72.928357, "type": 28, "city": "Ranjankhar Davali", "points": "POLYGON ((72.832722 18.750917, 72.832722 18.934222, 72.94555 18.933383, 72.952278 18.923472, 72.954400 18.917942, 72.952431 18.910828, 72.949769 18.908544, 72.9423 18.910878, 72.938177 18.908142, 72.937194 18.905389, 72.940552 18.900319, 72.941969 18.894336, 72.939536 18.891361, 72.932074 18.900569, 72.924667 18.909817, 72.91475 18.905042, 72.908675 18.898406, 72.906927 18.886464, 72.914261 18.871319, 72.918139 18.863352, 72.921981 18.855369, 72.924631 18.853519, 72.931372 18.852567, 72.938111 18.847019, 72.943406 18.845383, 72.952111 18.847867, 72.964352 18.854669, 72.976556 18.861531, 72.982108 18.86265, 72.984213 18.850231, 72.988031 18.841708, 72.986746 18.819244, 72.986428 18.813683, 72.989791 18.811597, 72.996308 18.811561, 73.0038 18.813592, 73.017067 18.813289, 73.029358 18.810925, 73.037527 18.805825, 73.042831 18.804644, 73.048875 18.806219, 73.057778 18.802722, 73.052925 18.797925, 73.041825 18.797758, 73.036019 18.794803, 73.031197 18.795058, 73.023256 18.79855, 73.009994 18.8, 72.9859 18.805183, 72.982994 18.803589, 72.981286 18.798772, 72.982947 18.795089, 72.992806 18.787911, 72.998558 18.781908, 72.998969 18.779394, 72.995261 18.776822, 72.988578 18.77585, 72.989363 18.777358, 72.986497 18.781053, 72.976738 18.786594, 72.967011 18.792183, 72.957140 18.8022, 72.947333 18.812272, 72.938706 18.823119, 72.935578 18.824053, 72.932922 18.823606, 72.928544 18.817653, 72.920967 18.797697, 72.914182 18.792447, 72.910331 18.793153, 72.901557 18.800467, 72.899522 18.802167, 72.891311 18.801286, 72.886475 18.798783, 72.880464 18.803175, 72.875878 18.802047, 72.870086 18.802764, 72.865975 18.799794, 72.862817 18.794525, 72.863463 18.777978, 72.861318 18.732492, 72.846994 18.741667, 72.832722 18.750917))"}, {"begin_at": 0, "area_id": 275431, "name": "Beryl Solar Plant", "level": 0, "country": 840, "updated_at": 1442279696, "disable": 0, "end_at": 0, "shape": 0, "warning": 1, "radius": 805, "lat": 37.639167, "lng": -113.645833, "type": 23, "city": "Beryl", "points": ""}, {"begin_at": 0, "area_id": 275454, "name": "Layline Solar", "level": 0, "country": 840, "updated_at": 1442279697, "disable": 0, "end_at": 0, "shape": 0, "warning": 1, "radius": 805, "lat": 33.848611, "lng": -118.296111, "type": 23, "city": "Torrance", "points": ""}, {"begin_at": 0, "area_id": 275461, "name": "LandPro-1", "level": 0, "country": 840, "updated_at": 1442279697, "disable": 0, "end_at": 0, "shape": 0, "warning": 1, "radius": 805, "lat": 34.762222, "lng": -117.338889, "type": 23, "city": "Helendale", "points": ""}, {"begin_at": 0, "area_id": 1238765, "name": "HEMA RANGE", "level": 3, "country": 356, "updated_at": 1457569401, "disable": 0, "end_at": 0, "shape": 0, "warning": 0, "radius": 9005, "lat": 22.558911, "lng": 75.648995, "type": 28, "city": "Jamanya", "points": "POLYGON ((75.565672 22.533928, 75.732316 22.583925, 75.698989 22.567258, 75.690631 22.558948, 75.682325 22.550594, 75.565672 22.533928))"}, {"begin_at": 0, "area_id": 275478, "name": "Madelyn Solar, LLC", "level": 0, "country": 840, "updated_at": 1442279697, "disable": 0, "end_at": 0, "shape": 0, "warning": 1, "radius": 805, "lat": 34.768333, "lng": -117.323611, "type": 23, "city": "Helendale", "points": ""}, {"begin_at": 0, "area_id": 275498, "name": "Duke Building 129", "level": 0, "country": 840, "updated_at": 1442279698, "disable": 0, "end_at": 0, "shape": 0, "warning": 1, "radius": 805, "lat": 39.910833, "lng": -86.245278, "type": 23, "city": "Indianapolis", "points": ""}, {"begin_at": 0, "area_id": 274741, "name": "Bryan Solar, LLC", "level": 0, "country": 840, "updated_at": 1442279677, "disable": 0, "end_at": 0, "shape": 0, "warning": 1, "radius": 805, "lat": 29.6, "lng": -104.3, "type": 23, "city": "Presidio", "points": ""}, {"begin_at": 0, "area_id": 267609, "name": "CES Placerita Power Plant", "level": 0, "country": 840, "updated_at": 1442279501, "disable": 0, "end_at": 0, "shape": 0, "warning": 1, "radius": 805, "lat": 34.3801, "lng": -118.4999, "type": 23, "city": "Santa Clarita", "points": ""}, {"begin_at": 0, "area_id": 267779, "name": "Smith Mountain", "level": 0, "country": 840, "updated_at": 1442279505, "disable": 0, "end_at": 0, "shape": 0, "warning": 1, "radius": 805, "lat": 37.0413, "lng": -79.5356, "type": 23, "city": "Penhook", "points": ""}, {"begin_at": 0, "area_id": 267965, "name": "Biola University", "level": 0, "country": 840, "updated_at": 1442279509, "disable": 0, "end_at": 0, "shape": 0, "warning": 1, "radius": 805, "lat": 33.906953, "lng": -118.013105, "type": 23, "city": "La Mirada", "points": ""}, {"begin_at": 0, "area_id": 268673, "name": "Newman", "level": 0, "country": 840, "updated_at": 1442279524, "disable": 0, "end_at": 0, "shape": 0, "warning": 1, "radius": 805, "lat": 31.983587, "lng": -106.431777, "type": 23, "city": "El Paso", "points": ""}, {"begin_at": 0, "area_id": 268777, "name": "South Edwards", "level": 0, "country": 840, "updated_at": 1442279527, "disable": 0, "end_at": 0, "shape": 0, "warning": 1, "radius": 805, "lat": 44.2678, "lng": -75.1961, "type": 23, "city": "Edwards", "points": ""}, {"begin_at": 0, "area_id": 1241486, "name": "MASHHAD", "level": 3, "country": 364, "updated_at": 1457569401, "disable": 0, "end_at": 0, "shape": 0, "warning": 0, "radius": 5555, "lat": 36.066671, "lng": 59.966667, "type": 28, "city": "", "points": "POLYGON ((59.966667 36.116739, 59.972046 36.116548, 59.977383 36.115978, 59.982639 36.115032, 59.987773 36.113717, 59.992746 36.112045, 59.997521 36.110026, 60.00206 36.107678, 60.006329 36.105018, 60.010296 36.102065, 60.013931 36.098843, 60.017205 36.095376, 60.020094 36.091691, 60.022577 36.087815, 60.024633 36.083779, 60.026249 36.079612, 60.02741 36.075347, 60.028109 36.071015, 60.02834 36.066651, 60.028102 36.062287, 60.027397 36.057957, 60.026229 36.053693, 60.024608 36.049527, 60.022547 36.045493, 60.020061 36.041619, 60.017168 36.037936, 60.013892 36.034472, 60.010257 36.031253, 60.006291 36.028303, 60.002023 36.025645, 59.997487 36.023299, 59.992716 36.021283, 59.987748 36.019613, 59.982619 36.0183, 59.97737 36.017355, 59.972039 36.016785, 59.966667 36.016595, 59.961295 36.016785, 59.955964 36.017355, 59.950715 36.0183, 59.945586 36.019613, 59.940618 36.021283, 59.935847 36.023299, 59.931311 36.025645, 59.927043 36.028303, 59.923077 36.031253, 59.919442 36.034472, 59.916166 36.037936, 59.913273 36.041619, 59.910787 36.045493, 59.908726 36.049527, 59.907105 36.053693, 59.905937 36.057957, 59.905232 36.062287, 59.904994 36.066651, 59.905225 36.071015, 59.905924 36.075347, 59.907085 36.079612, 59.908701 36.083779, 59.910757 36.087815, 59.91324 36.091691, 59.916129 36.095376, 59.919403 36.098843, 59.923038 36.102065, 59.927005 36.105018, 59.931274 36.107678, 59.935813 36.110026, 59.940588 36.112045, 59.945561 36.113717, 59.950695 36.115032, 59.955951 36.115978, 59.961288 36.116548, 59.966667 36.116739))"}, {"begin_at": 0, "area_id": 273028, "name": "MPC Generating", "level": 0, "country": 840, "updated_at": 1442279636, "disable": 0, "end_at": 0, "shape": 0, "warning": 1, "radius": 805, "lat": 33.8119, "lng": -83.6953, "type": 23, "city": "Monroe", "points": ""}, {"begin_at": 0, "area_id": 268914, "name": "FirstEnergy Edgewater", "level": 0, "country": 840, "updated_at": 1442279530, "disable": 0, "end_at": 0, "shape": 0, "warning": 1, "radius": 805, "lat": 41.468056, "lng": -82.186944, "type": 23, "city": "Lorain", "points": ""}, {"begin_at": 0, "area_id": 269057, "name": "Georgia-Pacific Cedar Springs", "level": 0, "country": 840, "updated_at": 1442279533, "disable": 0, "end_at": 0, "shape": 0, "warning": 1, "radius": 805, "lat": 31.166, "lng": -85.0951, "type": 23, "city": "Jakin", "points": ""}, {"begin_at": 0, "area_id": 269142, "name": "Weybridge", "level": 0, "country": 840, "updated_at": 1442279535, "disable": 0, "end_at": 0, "shape": 0, "warning": 1, "radius": 805, "lat": 44.0661, "lng": -73.2158, "type": 23, "city": "Weybridge", "points": ""}, {"begin_at": 0, "area_id": 269356, "name": "Clark-Floyd Landfill Gas Generating", "level": 0, "country": 840, "updated_at": 1442279541, "disable": 0, "end_at": 0, "shape": 0, "warning": 1, "radius": 805, "lat": 38.4564, "lng": -85.8375, "type": 23, "city": "Borden", "points": ""}, {"begin_at": 0, "area_id": 1241712, "name": "R1522", "level": 3, "country": 643, "updated_at": 1457569401, "disable": 0, "end_at": 0, "shape": 0, "warning": 0, "radius": 3000, "lat": 53.266669, "lng": 158.250002, "type": 28, "city": "Yelizovo", "points": "POLYGON ((158.25 53.293625, 158.253921 53.293523, 158.257813 53.293216, 158.261645 53.292706, 158.265388 53.291999, 158.269014 53.291098, 158.272495 53.290012, 158.275805 53.288747, 158.278917 53.287315, 158.28181 53.285725, 158.28446 53.283991, 158.286847 53.282124, 158.288954 53.28014, 158.290764 53.278053, 158.292263 53.27588, 158.293441 53.273636, 158.294287 53.27134, 158.294797 53.269008, 158.294966 53.266659, 158.294792 53.264309, 158.294278 53.261977, 158.293426 53.259682, 158.292245 53.257439, 158.290742 53.255267, 158.288929 53.253181, 158.28682 53.251199, 158.284432 53.249333, 158.281781 53.2476, 158.278889 53.246012, 158.275778 53.244581, 158.272471 53.243318, 158.268993 53.242233, 158.26537 53.241333, 158.261631 53.240627, 158.257803 53.240118, 158.253917 53.239811, 158.25 53.239708, 158.246083 53.239811, 158.242197 53.240118, 158.238369 53.240627, 158.23463 53.241333, 158.231007 53.242233, 158.227529 53.243318, 158.224222 53.244581, 158.221111 53.246012, 158.218219 53.2476, 158.215568 53.249333, 158.21318 53.251199, 158.211071 53.253181, 158.209258 53.255267, 158.207755 53.257439, 158.206574 53.259682, 158.205722 53.261977, 158.205208 53.264309, 158.205034 53.266659, 158.205203 53.269008, 158.205713 53.27134, 158.206559 53.273636, 158.207737 53.27588, 158.209236 53.278053, 158.211046 53.28014, 158.213153 53.282124, 158.21554 53.283991, 158.21819 53.285725, 158.221083 53.287315, 158.224195 53.288747, 158.227505 53.290012, 158.230986 53.291098, 158.234612 53.291999, 158.238355 53.292706, 158.242187 53.293216, 158.246079 53.293523, 158.25 53.293625))"}, {"begin_at": 0, "area_id": 269288, "name": "Lower No 1", "level": 0, "country": 840, "updated_at": 1442279539, "disable": 0, "end_at": 0, "shape": 0, "warning": 1, "radius": 805, "lat": 43.468679, "lng": -112.062499, "type": 23, "city": "Idaho Falls", "points": ""}, {"begin_at": 0, "area_id": 269463, "name": "Iatan", "level": 0, "country": 840, "updated_at": 1442279544, "disable": 0, "end_at": 0, "shape": 0, "warning": 1, "radius": 805, "lat": 39.4472, "lng": -94.98, "type": 23, "city": "Weston", "points": ""}, {"begin_at": 0, "area_id": 274682, "name": "ACI Energy Partners LLC", "level": 0, "country": 840, "updated_at": 1442279676, "disable": 0, "end_at": 0, "shape": 0, "warning": 1, "radius": 805, "lat": 39.364722, "lng": -74.415556, "type": 23, "city": "Atlantic City", "points": ""}, {"begin_at": 0, "area_id": 269558, "name": "Lateral 10 Ventures", "level": 0, "country": 840, "updated_at": 1442279547, "disable": 0, "end_at": 0, "shape": 0, "warning": 1, "radius": 805, "lat": 42.647376, "lng": -114.89031, "type": 23, "city": "Buhl", "points": ""}, {"begin_at": 0, "area_id": 269620, "name": "1420 Coil Av #C", "level": 0, "country": 840, "updated_at": 1442279548, "disable": 0, "end_at": 0, "shape": 0, "warning": 1, "radius": 805, "lat": 33.794283, "lng": -118.241405, "type": 23, "city": "LA", "points": ""}, {"begin_at": 0, "area_id": 270143, "name": "Granite City", "level": 0, "country": 840, "updated_at": 1442279561, "disable": 0, "end_at": 0, "shape": 0, "warning": 1, "radius": 805, "lat": 45.5756, "lng": -94.1408, "type": 23, "city": "St Cloud", "points": ""}, {"begin_at": 0, "area_id": 270325, "name": "Otay Mesa Generating Project", "level": 0, "country": 840, "updated_at": 1442279565, "disable": 0, "end_at": 0, "shape": 0, "warning": 1, "radius": 805, "lat": 32.581481, "lng": -116.914969, "type": 23, "city": "San Diego", "points": ""}, {"begin_at": 0, "area_id": 270453, "name": "Swift 1", "level": 0, "country": 840, "updated_at": 1442279572, "disable": 0, "end_at": 0, "shape": 0, "warning": 1, "radius": 805, "lat": 46.060833, "lng": -122.201667, "type": 23, "city": "Carson", "points": ""}, {"begin_at": 0, "area_id": 1241716, "name": "HAWAII, HI", "level": 3, "country": 0, "updated_at": 1457569401, "disable": 0, "end_at": 0, "shape": 0, "warning": 0, "radius": 18165, "lat": 20.870907, "lng": -157.967084, "type": 28, "city": "", "points": "POLYGON ((-158.103611 20.959722, -158.06973 20.946606, -158.034742 20.936382, -157.998927 20.929129, -157.962568 20.924906, -157.925956 20.923746, -157.88938 20.925658, -157.853132 20.930626, -157.8175 20.938611, -157.793056 20.858056, -157.836417 20.848365, -157.880521 20.842344, -157.925019 20.84004, -157.969558 20.841472, -158.013784 20.846629, -158.057348 20.855468, -158.099902 20.867922, -158.141111 20.883889, -158.103611 20.959722))"}, {"begin_at": 0, "area_id": 1241720, "name": "R44", "level": 3, "country": 643, "updated_at": 1457569401, "disable": 0, "end_at": 0, "shape": 0, "warning": 0, "radius": 8390, "lat": 61.805427, "lng": 56.998594, "type": 28, "city": "", "points": "POLYGON ((57.117778 61.720556, 57.0375 61.722222, 56.844444 61.824167, 56.876667 61.889444, 57.122222 61.888889, 57.117778 61.720556))"}, {"begin_at": 0, "area_id": 270499, "name": "Broadway (CA)", "level": 0, "country": 840, "updated_at": 1442279573, "disable": 0, "end_at": 0, "shape": 0, "warning": 1, "radius": 805, "lat": 34.1254, "lng": -118.148, "type": 23, "city": "Pasadena", "points": ""}, {"begin_at": 0, "area_id": 270587, "name": "PHP 2", "level": 0, "country": 840, "updated_at": 1442279576, "disable": 0, "end_at": 0, "shape": 0, "warning": 1, "radius": 805, "lat": 45.448977, "lng": -122.151257, "type": 23, "city": "Sandy", "points": ""}, {"begin_at": 0, "area_id": 270786, "name": "Oklaunion", "level": 0, "country": 840, "updated_at": 1442279580, "disable": 0, "end_at": 0, "shape": 0, "warning": 1, "radius": 805, "lat": 34.0825, "lng": -99.1753, "type": 23, "city": "Vernon", "points": ""}, {"begin_at": 0, "area_id": 270823, "name": "Wild Horse", "level": 0, "country": 840, "updated_at": 1442279581, "disable": 0, "end_at": 0, "shape": 0, "warning": 1, "radius": 805, "lat": 47.036269, "lng": -120.206494, "type": 23, "city": "Ellensburg", "points": ""}, {"begin_at": 0, "area_id": 271090, "name": "South Oaks Hospital", "level": 0, "country": 840, "updated_at": 1442279588, "disable": 0, "end_at": 0, "shape": 0, "warning": 1, "radius": 805, "lat": 40.6853, "lng": -73.4258, "type": 23, "city": "Amityville", "points": ""}, {"begin_at": 0, "area_id": 1241722, "name": "R515", "level": 3, "country": 643, "updated_at": 1457569401, "disable": 0, "end_at": 0, "shape": 0, "warning": 0, "radius": 20983, "lat": 46.210762, "lng": 38.435628, "type": 28, "city": "Kopanskaya", "points": "POLYGON ((38.635 46.3, 38.683333 46.133333, 38.633333 46.116667, 38.166667 46.183333, 38.283333 46.366667, 38.635 46.3))"}, {"begin_at": 0, "area_id": 271386, "name": "C H Corn Hydroelectric Facility", "level": 0, "country": 840, "updated_at": 1442279599, "disable": 0, "end_at": 0, "shape": 0, "warning": 1, "radius": 805, "lat": 30.388517, "lng": -84.646624, "type": 23, "city": "Tallahassee", "points": ""}, {"begin_at": 0, "area_id": 271656, "name": "Garrison", "level": 0, "country": 840, "updated_at": 1442279606, "disable": 0, "end_at": 0, "shape": 0, "warning": 1, "radius": 805, "lat": 47.4945, "lng": -101.4115, "type": 23, "city": "Coleharbor", "points": ""}, {"begin_at": 0, "area_id": 271771, "name": "Boulder Park", "level": 0, "country": 840, "updated_at": 1442279608, "disable": 0, "end_at": 0, "shape": 0, "warning": 1, "radius": 805, "lat": 47.697222, "lng": -117.147222, "type": 23, "city": "Spokane Valley", "points": ""}, {"begin_at": 0, "area_id": 272357, "name": "Bates Mill Upper", "level": 0, "country": 840, "updated_at": 1442279622, "disable": 0, "end_at": 0, "shape": 0, "warning": 1, "radius": 805, "lat": 44.095876, "lng": -70.219009, "type": 23, "city": "Lewiston", "points": ""}, {"begin_at": 0, "area_id": 273750, "name": "Caltech Central", "level": 0, "country": 840, "updated_at": 1442279654, "disable": 0, "end_at": 0, "shape": 0, "warning": 1, "radius": 805, "lat": 34.1358, "lng": -118.1267, "type": 23, "city": "Pasadena", "points": ""}, {"begin_at": 0, "area_id": 274053, "name": "FC Landfill Energy", "level": 0, "country": 840, "updated_at": 1442279661, "disable": 0, "end_at": 0, "shape": 0, "warning": 1, "radius": 805, "lat": 39.367778, "lng": -77.348888, "type": 23, "city": "Frederick", "points": ""}, {"begin_at": 0, "area_id": 274527, "name": "Saddle Mountain Solar I", "level": 0, "country": 840, "updated_at": 1442279672, "disable": 0, "end_at": 0, "shape": 0, "warning": 1, "radius": 805, "lat": 33.378333, "lng": -113.180833, "type": 23, "city": "Tonopah", "points": ""}, {"begin_at": 0, "area_id": 274625, "name": "CH Resources Syracuse", "level": 0, "country": 840, "updated_at": 1442279674, "disable": 0, "end_at": 0, "shape": 0, "warning": 1, "radius": 805, "lat": 43.0664, "lng": -76.2144, "type": 23, "city": "Syracuse", "points": ""}, {"begin_at": 0, "area_id": 274904, "name": "General James M Gavin", "level": 0, "country": 840, "updated_at": 1442279680, "disable": 0, "end_at": 0, "shape": 0, "warning": 1, "radius": 805, "lat": 38.9347, "lng": -82.1158, "type": 23, "city": "Cheshire", "points": ""}, {"begin_at": 0, "area_id": 275442, "name": "Wapsie Valley Creamery Back Up Generator", "level": 0, "country": 840, "updated_at": 1442279696, "disable": 0, "end_at": 0, "shape": 0, "warning": 1, "radius": 805, "lat": 42.477778, "lng": -91.891111, "type": 23, "city": "Independence", "points": ""}, {"begin_at": 0, "area_id": 272077, "name": "FirstEnergy R Paul Smith Power Station", "level": 0, "country": 840, "updated_at": 1442279615, "disable": 0, "end_at": 0, "shape": 0, "warning": 1, "radius": 805, "lat": 39.595, "lng": -77.82694, "type": 23, "city": "Williamsport", "points": ""}, {"begin_at": 0, "area_id": 272149, "name": "Ground Water Pumping Station", "level": 0, "country": 840, "updated_at": 1442279617, "disable": 0, "end_at": 0, "shape": 0, "warning": 1, "radius": 805, "lat": 45.555833, "lng": -122.494722, "type": 23, "city": "Portland", "points": ""}, {"begin_at": 0, "area_id": 272168, "name": "La Paloma Generating LLC", "level": 0, "country": 840, "updated_at": 1442279617, "disable": 0, "end_at": 0, "shape": 0, "warning": 1, "radius": 805, "lat": 35.2956, "lng": -119.5919, "type": 23, "city": "McKittrick", "points": ""}, {"begin_at": 0, "area_id": 272285, "name": "Sheldon Springs Hydroelectric", "level": 0, "country": 840, "updated_at": 1442279620, "disable": 0, "end_at": 0, "shape": 0, "warning": 1, "radius": 805, "lat": 44.9108, "lng": -72.9736, "type": 23, "city": "Sheldon", "points": ""}, {"begin_at": 0, "area_id": 272751, "name": "Julia Hills LLC", "level": 0, "country": 840, "updated_at": 1442279630, "disable": 0, "end_at": 0, "shape": 0, "warning": 1, "radius": 805, "lat": 44.4231, "lng": -96.4458, "type": 23, "city": "Hendricks", "points": ""}, {"begin_at": 0, "area_id": 272835, "name": "Timberline Trail Gas Recovery", "level": 0, "country": 840, "updated_at": 1442279632, "disable": 0, "end_at": 0, "shape": 0, "warning": 1, "radius": 805, "lat": 45.4533, "lng": -91.3583, "type": 23, "city": "Weyerhaeuser", "points": ""}, {"begin_at": 0, "area_id": 272891, "name": "Energy Shelby County", "level": 0, "country": 840, "updated_at": 1442279633, "disable": 0, "end_at": 0, "shape": 0, "warning": 1, "radius": 805, "lat": 39.2794, "lng": -88.4772, "type": 23, "city": "Neoga", "points": ""}, {"begin_at": 0, "area_id": 272927, "name": "Wicomico", "level": 0, "country": 840, "updated_at": 1442279634, "disable": 0, "end_at": 0, "shape": 0, "warning": 1, "radius": 805, "lat": 38.3847, "lng": -75.6344, "type": 23, "city": "Salisbury", "points": ""}, {"begin_at": 0, "area_id": 272981, "name": "International Paper Riley Hydro", "level": 0, "country": 840, "updated_at": 1442279635, "disable": 0, "end_at": 0, "shape": 0, "warning": 1, "radius": 805, "lat": 44.503431, "lng": -70.249137, "type": 23, "city": "Jay", "points": ""}, {"begin_at": 0, "area_id": 273167, "name": "Valencia Energy Facility", "level": 0, "country": 840, "updated_at": 1442279640, "disable": 0, "end_at": 0, "shape": 0, "warning": 1, "radius": 805, "lat": 34.611549, "lng": -106.732234, "type": 23, "city": "Belen", "points": ""}, {"begin_at": 0, "area_id": 273268, "name": "4 AC Station", "level": 0, "country": 840, "updated_at": 1442279643, "disable": 0, "end_at": 0, "shape": 0, "warning": 1, "radius": 805, "lat": 41.68, "lng": -87.426389, "type": 23, "city": "East Chicago", "points": ""}, {"begin_at": 0, "area_id": 274081, "name": "Roll Lost Hills", "level": 0, "country": 840, "updated_at": 1442279662, "disable": 0, "end_at": 0, "shape": 0, "warning": 1, "radius": 805, "lat": 35.653056, "lng": -119.889722, "type": 23, "city": "Lost Hills", "points": ""}, {"begin_at": 0, "area_id": 273843, "name": "Winona County Wind LLC", "level": 0, "country": 840, "updated_at": 1442279657, "disable": 0, "end_at": 0, "shape": 0, "warning": 1, "radius": 805, "lat": 44.1125, "lng": -91.924722, "type": 23, "city": "Altura", "points": ""}, {"begin_at": 0, "area_id": 273697, "name": "Kalaeloa Solar One", "level": 0, "country": 840, "updated_at": 1442279653, "disable": 0, "end_at": 0, "shape": 0, "warning": 1, "radius": 805, "lat": 21.318882, "lng": -158.083931, "type": 23, "city": "Kapolei", "points": ""}, {"begin_at": 0, "area_id": 273946, "name": "McKee City Solar Phase 2", "level": 0, "country": 840, "updated_at": 1442279659, "disable": 0, "end_at": 0, "shape": 0, "warning": 1, "radius": 805, "lat": 39.421944, "lng": -74.639167, "type": 23, "city": "Egg Harbor Township", "points": ""}, {"begin_at": 0, "area_id": 267566, "name": "Rio Mesa Solar Facility 1", "level": 0, "country": 840, "updated_at": 1442279500, "disable": 0, "end_at": 0, "shape": 0, "warning": 1, "radius": 805, "lat": 33.451667, "lng": -114.781111, "type": 23, "city": "Ripley", "points": ""}, {"begin_at": 0, "area_id": 274590, "name": "Arndt Farm", "level": 0, "country": 840, "updated_at": 1442279674, "disable": 0, "end_at": 0, "shape": 0, "warning": 1, "radius": 805, "lat": 35.779167, "lng": -81.175556, "type": 23, "city": "Claremont", "points": ""}, {"begin_at": 0, "area_id": 275280, "name": "Danskammer Generating Station", "level": 0, "country": 840, "updated_at": 1442279688, "disable": 0, "end_at": 0, "shape": 0, "warning": 1, "radius": 805, "lat": 41.571247, "lng": -73.974981, "type": 23, "city": "Newburgh", "points": ""}, {"begin_at": 0, "area_id": 274037, "name": "Rio Rancho High School", "level": 0, "country": 840, "updated_at": 1442279661, "disable": 0, "end_at": 0, "shape": 0, "warning": 1, "radius": 805, "lat": 35.264444, "lng": -106.667778, "type": 23, "city": "Rio Rancho", "points": ""}, {"begin_at": 0, "area_id": 274060, "name": "RE Bagdad Solar I LLC", "level": 0, "country": 840, "updated_at": 1442279662, "disable": 0, "end_at": 0, "shape": 0, "warning": 1, "radius": 805, "lat": 34.585833, "lng": -113.177222, "type": 23, "city": "Bagdad", "points": ""}, {"begin_at": 0, "area_id": 274144, "name": "GRS Richmond", "level": 0, "country": 840, "updated_at": 1442279664, "disable": 0, "end_at": 0, "shape": 0, "warning": 1, "radius": 805, "lat": 37.5106, "lng": -77.37, "type": 23, "city": "Richmond", "points": ""}, {"begin_at": 0, "area_id": 274234, "name": "Division 1", "level": 0, "country": 840, "updated_at": 1442279666, "disable": 0, "end_at": 0, "shape": 0, "warning": 1, "radius": 805, "lat": 34.708333, "lng": -118.130556, "type": 23, "city": "Lancaster", "points": ""}, {"begin_at": 0, "area_id": 274314, "name": "IKEA College Park 411", "level": 0, "country": 840, "updated_at": 1442279667, "disable": 0, "end_at": 0, "shape": 0, "warning": 1, "radius": 805, "lat": 39.021, "lng": -76.926, "type": 23, "city": "College Park", "points": ""}, {"begin_at": 0, "area_id": 273161, "name": "Niagara Mill", "level": 0, "country": 840, "updated_at": 1442279640, "disable": 0, "end_at": 0, "shape": 0, "warning": 1, "radius": 805, "lat": 45.7725, "lng": -87.9936, "type": 23, "city": "Niagara", "points": ""}, {"begin_at": 0, "area_id": 273257, "name": "Hillburn", "level": 0, "country": 840, "updated_at": 1442279643, "disable": 0, "end_at": 0, "shape": 0, "warning": 1, "radius": 805, "lat": 41.1269, "lng": -74.1653, "type": 23, "city": "Hillburn", "points": ""}, {"begin_at": 0, "area_id": 274642, "name": "Fargo Drop", "level": 0, "country": 840, "updated_at": 1442279675, "disable": 0, "end_at": 0, "shape": 0, "warning": 1, "radius": 805, "lat": 43.625, "lng": -116.899722, "type": 23, "city": "Wilder", "points": ""}, {"begin_at": 0, "area_id": 274709, "name": "Buena Vista Biomass Power", "level": 0, "country": 840, "updated_at": 1442279676, "disable": 0, "end_at": 0, "shape": 0, "warning": 1, "radius": 805, "lat": 38.277778, "lng": -120.913611, "type": 23, "city": "Ione", "points": ""}, {"begin_at": 0, "area_id": 274485, "name": "Smith College Central Heating Plant", "level": 0, "country": 840, "updated_at": 1442279671, "disable": 0, "end_at": 0, "shape": 0, "warning": 1, "radius": 805, "lat": 42.3125, "lng": -72.639444, "type": 23, "city": "Northampton", "points": ""}, {"begin_at": 0, "area_id": 274767, "name": "Delta Wind Farm", "level": 0, "country": 840, "updated_at": 1442279677, "disable": 0, "end_at": 0, "shape": 0, "warning": 1, "radius": 805, "lat": 64.013889, "lng": -145.596667, "type": 23, "city": "Fort Greely", "points": ""}, {"begin_at": 0, "area_id": 274974, "name": "SEPV Palmdale East", "level": 0, "country": 840, "updated_at": 1442279682, "disable": 0, "end_at": 0, "shape": 0, "warning": 1, "radius": 805, "lat": 34.613056, "lng": -117.938889, "type": 23, "city": "Palmdale", "points": ""}, {"begin_at": 0, "area_id": 274997, "name": "Grand Tower Energy Center LLC", "level": 0, "country": 840, "updated_at": 1442279682, "disable": 0, "end_at": 0, "shape": 0, "warning": 1, "radius": 805, "lat": 37.6577, "lng": -89.511161, "type": 23, "city": "Grand Tower", "points": ""}, {"begin_at": 0, "area_id": 275026, "name": "Kenansville Solar Farm, LLC", "level": 0, "country": 840, "updated_at": 1442279683, "disable": 0, "end_at": 0, "shape": 0, "warning": 1, "radius": 805, "lat": 34.97, "lng": -77.976111, "type": 23, "city": "Kenansville", "points": ""}, {"begin_at": 0, "area_id": 275273, "name": "Bradley PV1", "level": 0, "country": 840, "updated_at": 1442279688, "disable": 0, "end_at": 0, "shape": 0, "warning": 1, "radius": 805, "lat": 36.260556, "lng": -77.076389, "type": 23, "city": "Ahoskie", "points": ""}, {"begin_at": 0, "area_id": 275304, "name": "Faison Farm", "level": 0, "country": 840, "updated_at": 1442279688, "disable": 0, "end_at": 0, "shape": 0, "warning": 1, "radius": 805, "lat": 35.123611, "lng": -78.129167, "type": 23, "city": "Faison", "points": ""}, {"begin_at": 0, "area_id": 275325, "name": "Michelangelo Wind 1 LLC", "level": 0, "country": 840, "updated_at": 1442279694, "disable": 0, "end_at": 0, "shape": 0, "warning": 1, "radius": 805, "lat": 41.881389, "lng": -93.623056, "type": 23, "city": "Huxley", "points": ""}, {"begin_at": 0, "area_id": 272798, "name": "AMERESCO Janesville", "level": 0, "country": 840, "updated_at": 1442279631, "disable": 0, "end_at": 0, "shape": 0, "warning": 1, "radius": 805, "lat": 42.7083, "lng": -89.0208, "type": 23, "city": "Janesville", "points": ""}, {"begin_at": 0, "area_id": 273399, "name": "Enel Cove Fort", "level": 0, "country": 840, "updated_at": 1442279647, "disable": 0, "end_at": 0, "shape": 0, "warning": 1, "radius": 805, "lat": 38.560278, "lng": -112.581111, "type": 23, "city": "Beaver", "points": ""}, {"begin_at": 0, "area_id": 267831, "name": "Prescott Airport", "level": 0, "country": 840, "updated_at": 1442279506, "disable": 0, "end_at": 0, "shape": 0, "warning": 1, "radius": 805, "lat": 34.6584, "lng": -112.4008, "type": 23, "city": "Prescott", "points": ""}, {"begin_at": 0, "area_id": 268173, "name": "Gilroy Peaking Energy Center", "level": 0, "country": 840, "updated_at": 1442279513, "disable": 0, "end_at": 0, "shape": 0, "warning": 1, "radius": 805, "lat": 36.999, "lng": -121.5363, "type": 23, "city": "Gilroy", "points": ""}, {"begin_at": 0, "area_id": 272006, "name": "Mooseheart Power House", "level": 0, "country": 840, "updated_at": 1442279614, "disable": 0, "end_at": 0, "shape": 0, "warning": 1, "radius": 805, "lat": 41.8244, "lng": -88.3331, "type": 23, "city": "Mooseheart", "points": ""}, {"begin_at": 0, "area_id": 271774, "name": "Waterloo", "level": 0, "country": 840, "updated_at": 1442279608, "disable": 0, "end_at": 0, "shape": 0, "warning": 1, "radius": 805, "lat": 38.334786, "lng": -90.158939, "type": 23, "city": "Waterloo", "points": ""}, {"begin_at": 0, "area_id": 272821, "name": "Stowe Power Production Plant", "level": 0, "country": 840, "updated_at": 1442279632, "disable": 0, "end_at": 0, "shape": 0, "warning": 1, "radius": 805, "lat": 40.27244, "lng": -75.670351, "type": 23, "city": "Pottstown", "points": ""}, {"begin_at": 0, "area_id": 273170, "name": "North Lake", "level": 0, "country": 840, "updated_at": 1442279641, "disable": 0, "end_at": 0, "shape": 0, "warning": 1, "radius": 805, "lat": 32.950556, "lng": -96.975, "type": 23, "city": "Coppell", "points": ""}, {"begin_at": 0, "area_id": 274786, "name": "Crown Cooling Facility", "level": 0, "country": 840, "updated_at": 1442279678, "disable": 0, "end_at": 0, "shape": 0, "warning": 1, "radius": 805, "lat": 32.967222, "lng": -115.5325, "type": 23, "city": "Brawley", "points": ""}, {"begin_at": 0, "area_id": 274908, "name": "Mira Loma", "level": 0, "country": 840, "updated_at": 1442279680, "disable": 0, "end_at": 0, "shape": 0, "warning": 1, "radius": 805, "lat": 34.013056, "lng": -117.5375, "type": 23, "city": "Jurupa Valley", "points": ""}, {"begin_at": 0, "area_id": 1241781, "name": "R1360", "level": 3, "country": 643, "updated_at": 1457569401, "disable": 0, "end_at": 0, "shape": 0, "warning": 0, "radius": 3000, "lat": 49.783334, "lng": 129.483335, "type": 28, "city": "Shirokiy", "points": "POLYGON ((129.483333 49.810307, 129.486966 49.810205, 129.490571 49.809897, 129.494121 49.809388, 129.497589 49.80868, 129.500948 49.807779, 129.504173 49.806692, 129.507239 49.805427, 129.510123 49.803994, 129.512803 49.802403, 129.515258 49.800667, 129.51747 49.7988, 129.519422 49.796815, 129.521099 49.794727, 129.522488 49.792552, 129.523579 49.790308, 129.524364 49.78801, 129.524836 49.785677, 129.524993 49.783326, 129.524832 49.780975, 129.524356 49.778642, 129.523568 49.776344, 129.522473 49.774101, 129.521081 49.771927, 129.519402 49.76984, 129.517448 49.767856, 129.515235 49.76599, 129.512779 49.764255, 129.5101 49.762666, 129.507217 49.761234, 129.504153 49.75997, 129.50093 49.758884, 129.497574 49.757984, 129.49411 49.757277, 129.490563 49.756768, 129.486962 49.756461, 129.483333 49.756358, 129.479704 49.756461, 129.476103 49.756768, 129.472556 49.757277, 129.469092 49.757984, 129.465736 49.758884, 129.462513 49.75997, 129.459449 49.761234, 129.456566 49.762666, 129.453887 49.764255, 129.451431 49.76599, 129.449218 49.767856, 129.447264 49.76984, 129.445585 49.771927, 129.444193 49.774101, 129.443098 49.776344, 129.44231 49.778642, 129.441834 49.780975, 129.441673 49.783326, 129.44183 49.785677, 129.442302 49.78801, 129.443087 49.790308, 129.444178 49.792552, 129.445567 49.794727, 129.447244 49.796815, 129.449196 49.7988, 129.451408 49.800667, 129.453863 49.802403, 129.456543 49.803994, 129.459427 49.805427, 129.462493 49.806692, 129.465718 49.807779, 129.469077 49.80868, 129.472545 49.809388, 129.476095 49.809897, 129.4797 49.810205, 129.483333 49.810307))"}, {"begin_at": 0, "area_id": 274056, "name": "Golden Springs Building D", "level": 0, "country": 840, "updated_at": 1442279662, "disable": 0, "end_at": 0, "shape": 0, "warning": 1, "radius": 805, "lat": 33.911944, "lng": -118.052222, "type": 23, "city": "Santa Fe Springs", "points": ""}, {"begin_at": 0, "area_id": 274169, "name": "Guadalupe Power Plant", "level": 0, "country": 840, "updated_at": 1442279664, "disable": 0, "end_at": 0, "shape": 0, "warning": 1, "radius": 805, "lat": 37.2147, "lng": -121.9019, "type": 23, "city": "San Jose", "points": ""}, {"begin_at": 0, "area_id": 274272, "name": "Musselshell Wind Project Two LLC", "level": 0, "country": 840, "updated_at": 1442279666, "disable": 0, "end_at": 0, "shape": 0, "warning": 1, "radius": 805, "lat": 46.275278, "lng": -109.482778, "type": 23, "city": "Ryegate", "points": ""}, {"begin_at": 0, "area_id": 274304, "name": "Panda Temple Power Station", "level": 0, "country": 840, "updated_at": 1442279667, "disable": 0, "end_at": 0, "shape": 0, "warning": 1, "radius": 805, "lat": 31.055833, "lng": -97.317222, "type": 23, "city": "Temple", "points": ""}, {"begin_at": 0, "area_id": 274310, "name": "IKEA Savannah 490", "level": 0, "country": 840, "updated_at": 1442279667, "disable": 0, "end_at": 0, "shape": 0, "warning": 1, "radius": 805, "lat": 32.177535, "lng": -81.173775, "type": 23, "city": "Savannah", "points": ""}, {"begin_at": 0, "area_id": 275089, "name": "Frederick-Carroll County Renewable Waste", "level": 0, "country": 840, "updated_at": 1442279684, "disable": 0, "end_at": 0, "shape": 0, "warning": 1, "radius": 805, "lat": 39.359167, "lng": -77.415278, "type": 23, "city": "Frederick", "points": ""}, {"begin_at": 0, "area_id": 275151, "name": "Thunder Spirit Wind, LLC", "level": 0, "country": 840, "updated_at": 1442279685, "disable": 0, "end_at": 0, "shape": 0, "warning": 1, "radius": 805, "lat": 46.075, "lng": -102.563333, "type": 23, "city": "Hettinger", "points": ""}, {"begin_at": 0, "area_id": 1241785, "name": "R579", "level": 3, "country": 643, "updated_at": 1457569401, "disable": 0, "end_at": 0, "shape": 0, "warning": 0, "radius": 20726, "lat": 45.250178, "lng": 41.429381, "type": 28, "city": "Novotroitskaya", "points": "POLYGON ((41.195833 45.351389, 41.301389 45.420833, 41.422222 45.425, 41.504167 45.402778, 41.680556 45.270833, 41.661111 45.147222, 41.508333 45.068056, 41.355556 45.088889, 41.166667 45.231944, 41.195833 45.351389))"}, {"begin_at": 0, "area_id": 1241787, "name": "R389", "level": 3, "country": 643, "updated_at": 1457569401, "disable": 0, "end_at": 0, "shape": 0, "warning": 0, "radius": 27966, "lat": 53.035988, "lng": 39.83447, "type": 28, "city": "Kalikino", "points": "POLYGON ((39.983333 53.25, 40.116667 53.066667, 40.151667 52.873333, 39.751667 52.79, 39.556667 53.046667, 39.56 53.225, 39.983333 53.25))"}, {"begin_at": 0, "area_id": 273046, "name": "Loraine County Project", "level": 0, "country": 840, "updated_at": 1442279637, "disable": 0, "end_at": 0, "shape": 0, "warning": 1, "radius": 805, "lat": 41.3006, "lng": -82.1803, "type": 23, "city": "Oberlin", "points": ""}, {"begin_at": 0, "area_id": 1241830, "name": "MOA YUKON 4, AK", "level": 3, "country": 840, "updated_at": 1457569401, "disable": 0, "end_at": 0, "shape": 0, "warning": 0, "radius": 78464, "lat": 65.582424, "lng": -142.042916, "type": 28, "city": "Eagle", "points": "POLYGON ((-143.002317 65.400025, -143.0025 66.166389, -141.083333 66.166389, -141.083333 64.999722, -141.233333 64.999722, -141.233333 65.041667, -141.4 65.141667, -141.616667 65.158333, -141.633333 65.216667, -141.616667 65.25, -141.916667 65.325, -142.15 65.391667, -142.316667 65.366667, -142.383333 65.383332, -142.1 65.441667, -141.933333 65.416667, -141.766667 65.433333, -141.683333 65.491667, -141.366667 65.583333, -141.216667 65.708333, -141.35 65.766667, -141.466667 65.641667, -141.725785 65.56272, -141.983333 65.483333, -142.133333 65.508332, -142.483333 65.425, -142.65 65.433333, -142.816667 65.366667, -143.002317 65.400025))"}, {"begin_at": 0, "area_id": 273049, "name": "Sandy Creek Energy Station", "level": 0, "country": 840, "updated_at": 1442279637, "disable": 0, "end_at": 0, "shape": 0, "warning": 1, "radius": 805, "lat": 31.474378, "lng": -96.957149, "type": 23, "city": "Riesel", "points": ""}, {"begin_at": 0, "area_id": 1234896, "name": "GARCHY", "level": 3, "country": 250, "updated_at": 1457569401, "disable": 0, "end_at": 0, "shape": 0, "warning": 0, "radius": 555, "lat": 47.290556, "lng": 3.071111, "type": 28, "city": "Pouilly-sur-Loire", "points": "POLYGON ((3.071111 47.295553, 3.071753 47.295534, 3.07239 47.295477, 3.073018 47.295382, 3.07363 47.29525, 3.074223 47.295083, 3.074792 47.294881, 3.075333 47.294645, 3.075841 47.294379, 3.076313 47.294084, 3.076745 47.293762, 3.077134 47.293416, 3.077477 47.293049, 3.077772 47.292662, 3.078016 47.29226, 3.078207 47.291845, 3.078345 47.291421, 3.078428 47.29099, 3.078456 47.290556, 3.078428 47.290122, 3.078345 47.289691, 3.078207 47.289266, 3.078015 47.288851, 3.077771 47.288449, 3.077477 47.288063, 3.077134 47.287695, 3.076745 47.287349, 3.076312 47.287028, 3.075841 47.286733, 3.075332 47.286466, 3.074792 47.286231, 3.074223 47.286029, 3.07363 47.285862, 3.073017 47.28573, 3.07239 47.285635, 3.071753 47.285578, 3.071111 47.285559, 3.070469 47.285578, 3.069832 47.285635, 3.069205 47.28573, 3.068592 47.285862, 3.067999 47.286029, 3.06743 47.286231, 3.06689 47.286466, 3.066381 47.286733, 3.06591 47.287028, 3.065477 47.287349, 3.065088 47.287695, 3.064745 47.288063, 3.064451 47.288449, 3.064207 47.288851, 3.064015 47.289266, 3.063877 47.289691, 3.063794 47.290122, 3.063766 47.290556, 3.063794 47.29099, 3.063877 47.291421, 3.064015 47.291845, 3.064206 47.29226, 3.06445 47.292662, 3.064745 47.293049, 3.065088 47.293416, 3.065477 47.293762, 3.065909 47.294084, 3.066381 47.294379, 3.066889 47.294645, 3.06743 47.294881, 3.067999 47.295083, 3.068592 47.29525, 3.069204 47.295382, 3.069832 47.295477, 3.070469 47.295534, 3.071111 47.295553))"}, {"begin_at": 0, "area_id": 273078, "name": "White Creek Wind Farm", "level": 0, "country": 840, "updated_at": 1442279638, "disable": 0, "end_at": 0, "shape": 0, "warning": 1, "radius": 805, "lat": 45.815467, "lng": -120.341883, "type": 23, "city": "Bickleton", "points": ""}, {"begin_at": 0, "area_id": 274700, "name": "Fontanelle", "level": 0, "country": 840, "updated_at": 1442279676, "disable": 0, "end_at": 0, "shape": 0, "warning": 1, "radius": 805, "lat": 41.338889, "lng": -94.57, "type": 23, "city": "Fontanelle", "points": ""}, {"begin_at": 0, "area_id": 273090, "name": "Dwight", "level": 0, "country": 840, "updated_at": 1442279638, "disable": 0, "end_at": 0, "shape": 0, "warning": 1, "radius": 805, "lat": 42.149497, "lng": -72.610949, "type": 23, "city": "Chicopee", "points": ""}, {"begin_at": 0, "area_id": 273088, "name": "Green Bay West Mill", "level": 0, "country": 840, "updated_at": 1442279638, "disable": 0, "end_at": 0, "shape": 0, "warning": 1, "radius": 805, "lat": 44.4936, "lng": -88.0303, "type": 23, "city": "Green Bay", "points": ""}, {"begin_at": 0, "area_id": 274712, "name": "Dart Container Corp", "level": 0, "country": 840, "updated_at": 1442279676, "disable": 0, "end_at": 0, "shape": 0, "warning": 1, "radius": 805, "lat": 40.086463, "lng": -76.17603, "type": 23, "city": "", "points": ""}, {"begin_at": 0, "area_id": 274717, "name": "Plymouth Solar LLC", "level": 0, "country": 840, "updated_at": 1442279676, "disable": 0, "end_at": 0, "shape": 0, "warning": 1, "radius": 805, "lat": 35.875, "lng": -76.710556, "type": 23, "city": "Plymouth", "points": ""}, {"begin_at": 0, "area_id": 274721, "name": "Bridgeport Fuel Cell Park", "level": 0, "country": 840, "updated_at": 1442279676, "disable": 0, "end_at": 0, "shape": 0, "warning": 1, "radius": 805, "lat": 41.168056, "lng": -73.211111, "type": 23, "city": "Bridgeport", "points": ""}, {"begin_at": 0, "area_id": 274723, "name": "OCI Alamo 5 LLC", "level": 0, "country": 840, "updated_at": 1442279676, "disable": 0, "end_at": 0, "shape": 0, "warning": 1, "radius": 805, "lat": 29.216667, "lng": -99.716111, "type": 23, "city": "Uvalde", "points": ""}, {"begin_at": 0, "area_id": 273124, "name": "Eltopia Branch Canal 4.6", "level": 0, "country": 840, "updated_at": 1442279639, "disable": 0, "end_at": 0, "shape": 0, "warning": 1, "radius": 805, "lat": 46.378381, "lng": -119.254522, "type": 23, "city": "Pasco", "points": ""}, {"begin_at": 0, "area_id": 267581, "name": "Tangier", "level": 0, "country": 840, "updated_at": 1442279501, "disable": 0, "end_at": 0, "shape": 0, "warning": 1, "radius": 805, "lat": 37.8277, "lng": -75.9915, "type": 23, "city": "", "points": ""},