{"release_limits": [{"begin_at": 0, "area_id": 1128361, "name": "MABEN", "level": 0, "country": 840, "updated_at": 1455674299, "disable": 0, "end_at": 0, "shape": 0, "warning": 1, "radius": 8047, "lat": 42.272308, "lng": -74.394037, "type": 31, "city": "Prattsville", "points": ""}, {"begin_at": 0, "area_id": 1128368, "name": "TIGER PAW AERODROME", "level": 0, "country": 840, "updated_at": 1455674299, "disable": 0, "end_at": 0, "shape": 0, "warning": 1, "radius": 8047, "lat": 43.370883, "lng": -78.414417, "type": 31, "city": "Lyndonville", "points": ""}, {"begin_at": 0, "area_id": 1128372, "name": "LONG ACRE FARMS", "level": 0, "country": 840, "updated_at": 1455674299, "disable": 0, "end_at": 0, "shape": 0, "warning": 1, "radius": 8047, "lat": 43.1125, "lng": -77.3125, "type": 31, "city": "Macedon", "points": ""}, {"begin_at": 0, "area_id": 1128393, "name": "MOHAWK AVIATION CENTER", "level": 0, "country": 840, "updated_at": 1455674299, "disable": 0, "end_at": 0, "shape": 0, "warning": 1, "radius": 8047, "lat": 42.987571, "lng": -74.966544, "type": 31, "city": "Mohawk", "points": ""}, {"begin_at": 0, "area_id": 1128406, "name": "MIDDLE HOPE", "level": 0, "country": 840, "updated_at": 1455674299, "disable": 0, "end_at": 0, "shape": 0, "warning": 1, "radius": 8047, "lat": 41.561205, "lng": -74.016251, "type": 31, "city": "Balmville", "points": ""}, {"begin_at": 0, "area_id": 1128410, "name": "TTT AIR", "level": 0, "country": 840, "updated_at": 1455674299, "disable": 0, "end_at": 0, "shape": 0, "warning": 1, "radius": 8047, "lat": 42.597778, "lng": -78.968889, "type": 31, "city": "North Collins", "points": ""}, {"begin_at": 0, "area_id": 1128431, "name": "CLOVERDALE FARM", "level": 0, "country": 840, "updated_at": 1455674299, "disable": 0, "end_at": 0, "shape": 0, "warning": 1, "radius": 8047, "lat": 42.994028, "lng": -75.702778, "type": 31, "city": "Wampsville", "points": ""}, {"begin_at": 0, "area_id": 1128437, "name": "SHERMAN FIELD", "level": 0, "country": 840, "updated_at": 1455674299, "disable": 0, "end_at": 0, "shape": 0, "warning": 1, "radius": 8047, "lat": 41.638982, "lng": -73.742908, "type": 31, "city": "Hillside Lake", "points": ""}, {"begin_at": 0, "area_id": 1128440, "name": "CAMPBELL FIELD", "level": 0, "country": 840, "updated_at": 1455674299, "disable": 0, "end_at": 0, "shape": 0, "warning": 1, "radius": 8047, "lat": 42.154228, "lng": -79.016431, "type": 31, "city": "Randolph", "points": ""}, {"begin_at": 0, "area_id": 1128451, "name": "RICHLAND", "level": 0, "country": 840, "updated_at": 1455674299, "disable": 0, "end_at": 0, "shape": 0, "warning": 1, "radius": 8047, "lat": 43.566736, "lng": -76.032977, "type": 31, "city": "Pulaski", "points": ""}, {"begin_at": 0, "area_id": 1128454, "name": "STANWIX HEIGHTS", "level": 0, "country": 840, "updated_at": 1455674299, "disable": 0, "end_at": 0, "shape": 0, "warning": 1, "radius": 8047, "lat": 43.157569, "lng": -75.430729, "type": 31, "city": "Rome", "points": ""}, {"begin_at": 0, "area_id": 1128463, "name": "BASHER FIELD", "level": 0, "country": 840, "updated_at": 1455674299, "disable": 0, "end_at": 0, "shape": 0, "warning": 1, "radius": 8047, "lat": 42.566728, "lng": -78.556134, "type": 31, "city": "Yorkshire", "points": ""}, {"begin_at": 0, "area_id": 1128464, "name": "HIGH ACRES", "level": 0, "country": 840, "updated_at": 1455674299, "disable": 0, "end_at": 0, "shape": 0, "warning": 1, "radius": 8047, "lat": 42.578395, "lng": -78.520021, "type": 31, "city": "Yorkshire", "points": ""}, {"begin_at": 0, "area_id": 1128465, "name": "KNOX LANDING", "level": 0, "country": 840, "updated_at": 1455674299, "disable": 0, "end_at": 0, "shape": 0, "warning": 1, "radius": 8047, "lat": 42.576389, "lng": -78.556667, "type": 31, "city": "Holland", "points": ""}, {"begin_at": 0, "area_id": 1128467, "name": "KNAPP", "level": 0, "country": 840, "updated_at": 1455674299, "disable": 0, "end_at": 0, "shape": 0, "warning": 1, "radius": 8047, "lat": 42.629161, "lng": -74.820831, "type": 31, "city": "Worcester", "points": ""}, {"begin_at": 0, "area_id": 1128487, "name": "MANITOU FIELD", "level": 0, "country": 840, "updated_at": 1455674299, "disable": 0, "end_at": 0, "shape": 0, "warning": 1, "radius": 8047, "lat": 43.195617, "lng": -77.748062, "type": 31, "city": "North Gates", "points": ""}, {"begin_at": 0, "area_id": 1128504, "name": "HAWKS FIELD", "level": 0, "country": 840, "updated_at": 1455674299, "disable": 0, "end_at": 0, "shape": 0, "warning": 1, "radius": 8047, "lat": 43.048611, "lng": -75.292222, "type": 31, "city": "Washington Mills", "points": ""}, {"begin_at": 0, "area_id": 1128527, "name": "CATALANO AIRFIELD", "level": 0, "country": 840, "updated_at": 1455674299, "disable": 0, "end_at": 0, "shape": 0, "warning": 1, "radius": 8047, "lat": 44.423658, "lng": -73.749585, "type": 31, "city": "Keeseville", "points": ""}, {"begin_at": 0, "area_id": 1128528, "name": "HIBBARD'S", "level": 0, "country": 840, "updated_at": 1455674299, "disable": 0, "end_at": 0, "shape": 0, "warning": 1, "radius": 8047, "lat": 43.233389, "lng": -78.787258, "type": 31, "city": "Newfane", "points": ""}, {"begin_at": 0, "area_id": 1128538, "name": "STUB'S FIELD", "level": 0, "country": 840, "updated_at": 1455674299, "disable": 0, "end_at": 0, "shape": 0, "warning": 1, "radius": 8047, "lat": 40.96735, "lng": -81.205833, "type": 31, "city": "Alliance", "points": ""}, {"begin_at": 0, "area_id": 1128539, "name": "STONE", "level": 0, "country": 840, "updated_at": 1455674299, "disable": 0, "end_at": 0, "shape": 0, "warning": 1, "radius": 8047, "lat": 41.006443, "lng": -83.427425, "type": 31, "city": "Carey", "points": ""}, {"begin_at": 0, "area_id": 1128568, "name": "HULL", "level": 0, "country": 840, "updated_at": 1455674299, "disable": 0, "end_at": 0, "shape": 0, "warning": 1, "radius": 8047, "lat": 41.257276, "lng": -83.206032, "type": 31, "city": "Ballville", "points": ""}, {"begin_at": 0, "area_id": 1128575, "name": "DRAKE", "level": 0, "country": 840, "updated_at": 1455674299, "disable": 0, "end_at": 0, "shape": 0, "warning": 1, "radius": 8047, "lat": 41.454219, "lng": -83.586322, "type": 31, "city": "Luckey", "points": ""}, {"begin_at": 0, "area_id": 1128592, "name": "MITE", "level": 0, "country": 840, "updated_at": 1455674299, "disable": 0, "end_at": 0, "shape": 0, "warning": 1, "radius": 8047, "lat": 39.649497, "lng": -84.629952, "type": 31, "city": "Camden", "points": ""}, {"begin_at": 0, "area_id": 1128988, "name": "SKY HIGH", "level": 0, "country": 840, "updated_at": 1455674299, "disable": 0, "end_at": 0, "shape": 0, "warning": 1, "radius": 8047, "lat": 35.95421, "lng": -97.549212, "type": 31, "city": "Crescent", "points": ""}, {"begin_at": 0, "area_id": 1128626, "name": "YORK AERODROME", "level": 0, "country": 840, "updated_at": 1455674299, "disable": 0, "end_at": 0, "shape": 0, "warning": 1, "radius": 8047, "lat": 40.843949, "lng": -80.702575, "type": 31, "city": "Columbiana", "points": ""}, {"begin_at": 0, "area_id": 1128630, "name": "ALLEN", "level": 0, "country": 840, "updated_at": 1455674299, "disable": 0, "end_at": 0, "shape": 0, "warning": 1, "radius": 8047, "lat": 41.373389, "lng": -80.668966, "type": 31, "city": "Cortland", "points": ""}, {"begin_at": 0, "area_id": 1128633, "name": "KEMPS FIELD OF DREAMS", "level": 0, "country": 840, "updated_at": 1455674299, "disable": 0, "end_at": 0, "shape": 0, "warning": 1, "radius": 8047, "lat": 40.105884, "lng": -84.399949, "type": 31, "city": "Bradford", "points": ""}, {"begin_at": 0, "area_id": 1128640, "name": "BERLIN STATION LNDG STRIP", "level": 0, "country": 840, "updated_at": 1455674299, "disable": 0, "end_at": 0, "shape": 0, "warning": 1, "radius": 8047, "lat": 40.258951, "lng": -83.011851, "type": 31, "city": "Delaware", "points": ""}, {"begin_at": 0, "area_id": 1128650, "name": "ALLEN", "level": 0, "country": 840, "updated_at": 1455674299, "disable": 0, "end_at": 0, "shape": 0, "warning": 1, "radius": 8047, "lat": 41.668111, "lng": -80.685635, "type": 31, "city": "Jefferson", "points": ""}, {"begin_at": 0, "area_id": 1128651, "name": "RIVERVIEW", "level": 0, "country": 840, "updated_at": 1455674299, "disable": 0, "end_at": 0, "shape": 0, "warning": 1, "radius": 8047, "lat": 40.136458, "lng": -81.993747, "type": 31, "city": "Dresden", "points": ""}, {"begin_at": 0, "area_id": 1128659, "name": "RICHARDS", "level": 0, "country": 840, "updated_at": 1455674299, "disable": 0, "end_at": 0, "shape": 0, "warning": 1, "radius": 8047, "lat": 41.403933, "lng": -82.106537, "type": 31, "city": "Sheffield", "points": ""}, {"begin_at": 0, "area_id": 1128669, "name": "GERKER AIRFIELD", "level": 0, "country": 840, "updated_at": 1455674299, "disable": 0, "end_at": 0, "shape": 0, "warning": 1, "radius": 8047, "lat": 40.953661, "lng": -84.273559, "type": 31, "city": "Kalida", "points": ""}, {"begin_at": 0, "area_id": 1128712, "name": "ROSE FIELD", "level": 0, "country": 840, "updated_at": 1455674299, "disable": 0, "end_at": 0, "shape": 0, "warning": 1, "radius": 8047, "lat": 41.330327, "lng": -84.29828, "type": 31, "city": "Defiance", "points": ""}, {"begin_at": 0, "area_id": 1128713, "name": "MC KNIGHT", "level": 0, "country": 840, "updated_at": 1455674299, "disable": 0, "end_at": 0, "shape": 0, "warning": 1, "radius": 8047, "lat": 40.190341, "lng": -82.654613, "type": 31, "city": "Johnstown", "points": ""}, {"begin_at": 0, "area_id": 1128718, "name": "STOLTZFUS AIRFIELD", "level": 0, "country": 840, "updated_at": 1455674299, "disable": 0, "end_at": 0, "shape": 0, "warning": 1, "radius": 8047, "lat": 40.761167, "lng": -81.779022, "type": 31, "city": "Apple Creek", "points": ""}, {"begin_at": 0, "area_id": 1128723, "name": "KOSIK PRIVATE", "level": 0, "country": 840, "updated_at": 1455674299, "disable": 0, "end_at": 0, "shape": 0, "warning": 1, "radius": 8047, "lat": 41.242552, "lng": -82.27016, "type": 31, "city": "Camden", "points": ""}, {"begin_at": 0, "area_id": 1128727, "name": "SWIGART", "level": 0, "country": 840, "updated_at": 1455674299, "disable": 0, "end_at": 0, "shape": 0, "warning": 1, "radius": 8047, "lat": 39.967552, "lng": -84.408838, "type": 31, "city": "West Milton", "points": ""}, {"begin_at": 0, "area_id": 1128730, "name": "DONNER FIELD", "level": 0, "country": 840, "updated_at": 1455674299, "disable": 0, "end_at": 0, "shape": 0, "warning": 1, "radius": 8047, "lat": 39.366667, "lng": -83.6, "type": 31, "city": "Leesburg", "points": ""}, {"begin_at": 0, "area_id": 1128739, "name": "GIOVANNONE", "level": 0, "country": 840, "updated_at": 1455674299, "disable": 0, "end_at": 0, "shape": 0, "warning": 1, "radius": 8047, "lat": 41.148946, "lng": -80.840084, "type": 31, "city": "Lordstown", "points": ""}, {"begin_at": 0, "area_id": 1128772, "name": "MINERVA", "level": 0, "country": 840, "updated_at": 1455674299, "disable": 0, "end_at": 0, "shape": 0, "warning": 1, "radius": 8047, "lat": 40.745893, "lng": -81.144268, "type": 31, "city": "Minerva", "points": ""}, {"begin_at": 0, "area_id": 1128774, "name": "BUENA VISTA FARM", "level": 0, "country": 840, "updated_at": 1455674299, "disable": 0, "end_at": 0, "shape": 0, "warning": 1, "radius": 8047, "lat": 39.334444, "lng": -84.07, "type": 31, "city": "Morrow", "points": ""}, {"begin_at": 0, "area_id": 1128786, "name": "ANDY BARNHART MEMORIAL", "level": 0, "country": 840, "updated_at": 1455674299, "disable": 0, "end_at": 0, "shape": 0, "warning": 1, "radius": 8047, "lat": 39.930892, "lng": -84.013546, "type": 31, "city": "New Carlisle", "points": ""}, {"begin_at": 0, "area_id": 1128791, "name": "D A CHANDLER", "level": 0, "country": 840, "updated_at": 1455674299, "disable": 0, "end_at": 0, "shape": 0, "warning": 1, "radius": 8047, "lat": 41.132831, "lng": -82.460725, "type": 31, "city": "New London", "points": ""}, {"begin_at": 0, "area_id": 1128805, "name": "CHAPIN", "level": 0, "country": 840, "updated_at": 1455674299, "disable": 0, "end_at": 0, "shape": 0, "warning": 1, "radius": 8047, "lat": 41.200053, "lng": -82.573508, "type": 31, "city": "Norwalk", "points": ""}, {"begin_at": 0, "area_id": 1128806, "name": "LAKE AIR RANCH", "level": 0, "country": 840, "updated_at": 1455674299, "disable": 0, "end_at": 0, "shape": 0, "warning": 1, "radius": 8047, "lat": 41.272275, "lng": -82.622956, "type": 31, "city": "Milan", "points": ""}, {"begin_at": 0, "area_id": 1128815, "name": "BLACKACRE FARM", "level": 0, "country": 840, "updated_at": 1455674299, "disable": 0, "end_at": 0, "shape": 0, "warning": 1, "radius": 8047, "lat": 41.77838, "lng": -81.167044, "type": 31, "city": "Perry", "points": ""}, {"begin_at": 0, "area_id": 1128819, "name": "CHARLOE", "level": 0, "country": 840, "updated_at": 1455674299, "disable": 0, "end_at": 0, "shape": 0, "warning": 1, "radius": 8047, "lat": 41.134494, "lng": -84.450782, "type": 31, "city": "Paulding", "points": ""}, {"begin_at": 0, "area_id": 1128828, "name": "MC COLLOCH'S", "level": 0, "country": 840, "updated_at": 1455674299, "disable": 0, "end_at": 0, "shape": 0, "warning": 1, "radius": 8047, "lat": 40.177272, "lng": -84.294391, "type": 31, "city": "Piqua", "points": ""}, {"begin_at": 0, "area_id": 1128846, "name": "O K DIES", "level": 0, "country": 840, "updated_at": 1455674299, "disable": 0, "end_at": 0, "shape": 0, "warning": 1, "radius": 8047, "lat": 40.89867, "lng": -80.929254, "type": 31, "city": "Salem", "points": ""}, {"begin_at": 0, "area_id": 1128858, "name": "LISBON AIRFIELD", "level": 0, "country": 840, "updated_at": 1455674299, "disable": 0, "end_at": 0, "shape": 0, "warning": 1, "radius": 8047, "lat": 39.866727, "lng": -83.633256, "type": 31, "city": "Lisbon", "points": ""}, {"begin_at": 0, "area_id": 1128887, "name": "VALLEY CITY FLYING CLUB", "level": 0, "country": 840, "updated_at": 1455674299, "disable": 0, "end_at": 0, "shape": 0, "warning": 1, "radius": 8047, "lat": 41.256998, "lng": -81.970695, "type": 31, "city": "Eaton Estates", "points": ""}, {"begin_at": 0, "area_id": 1128917, "name": "VARNS FARMS", "level": 0, "country": 840, "updated_at": 1455674299, "disable": 0, "end_at": 0, "shape": 0, "warning": 1, "radius": 8047, "lat": 40.827973, "lng": -81.979729, "type": 31, "city": "Wooster", "points": ""}, {"begin_at": 0, "area_id": 1128932, "name": "SHEFFIELD-SMITH AIRSTRIP", "level": 0, "country": 840, "updated_at": 1455674299, "disable": 0, "end_at": 0, "shape": 0, "warning": 1, "radius": 8047, "lat": 34.568333, "lng": -99.351667, "type": 31, "city": "Altus", "points": ""}, {"begin_at": 0, "area_id": 1128935, "name": "MAY RANCH", "level": 0, "country": 840, "updated_at": 1455674299, "disable": 0, "end_at": 0, "shape": 0, "warning": 1, "radius": 8047, "lat": 36.996696, "lng": -99.004823, "type": 31, "city": "Alva", "points": ""}, {"begin_at": 0, "area_id": 1128996, "name": "5B RANCH", "level": 0, "country": 840, "updated_at": 1455674299, "disable": 0, "end_at": 0, "shape": 0, "warning": 1, "radius": 8047, "lat": 35.729773, "lng": -97.541431, "type": 31, "city": "Edmond", "points": ""}, {"begin_at": 0, "area_id": 1129016, "name": "PACER FIELD", "level": 0, "country": 840, "updated_at": 1455674299, "disable": 0, "end_at": 0, "shape": 0, "warning": 1, "radius": 8047, "lat": 35.117013, "lng": -97.450587, "type": 31, "city": "Goldsby", "points": ""}, {"begin_at": 0, "area_id": 1129037, "name": "GILSTRAP FIELD", "level": 0, "country": 840, "updated_at": 1455674299, "disable": 0, "end_at": 0, "shape": 0, "warning": 1, "radius": 8047, "lat": 36.223987, "lng": -95.578311, "type": 31, "city": "Justice", "points": ""}, {"begin_at": 0, "area_id": 1129052, "name": "NEUWIRTH AIRSTRIP", "level": 0, "country": 840, "updated_at": 1455674299, "disable": 0, "end_at": 0, "shape": 0, "warning": 1, "radius": 8047, "lat": 34.576211, "lng": -98.483, "type": 31, "city": "Lawton", "points": ""}, {"begin_at": 0, "area_id": 1129064, "name": "HANKINS", "level": 0, "country": 840, "updated_at": 1455674299, "disable": 0, "end_at": 0, "shape": 0, "warning": 1, "radius": 8047, "lat": 33.975099, "lng": -97.089178, "type": 31, "city": "Marietta", "points": ""}, {"begin_at": 0, "area_id": 1129090, "name": "AVIAN COUNTRY ESTATES", "level": 0, "country": 840, "updated_at": 1455674299, "disable": 0, "end_at": 0, "shape": 0, "warning": 1, "radius": 8047, "lat": 36.376111, "lng": -95.705278, "type": 31, "city": "Oologah", "points": ""}, {"begin_at": 0, "area_id": 1129091, "name": "DOG IRON RANCH", "level": 0, "country": 840, "updated_at": 1455674299, "disable": 0, "end_at": 0, "shape": 0, "warning": 1, "radius": 8047, "lat": 36.469536, "lng": -95.667756, "type": 31, "city": "Oologah", "points": ""}, {"begin_at": 0, "area_id": 1129110, "name": "GUSTAFSON", "level": 0, "country": 840, "updated_at": 1455674299, "disable": 0, "end_at": 0, "shape": 0, "warning": 1, "radius": 8047, "lat": 35.48426, "lng": -94.841893, "type": 31, "city": "Sallisaw", "points": ""}, {"begin_at": 0, "area_id": 1129114, "name": "MORRIS", "level": 0, "country": 840, "updated_at": 1455674299, "disable": 0, "end_at": 0, "shape": 0, "warning": 1, "radius": 8047, "lat": 35.950091, "lng": -96.104443, "type": 31, "city": "Kiefer", "points": ""}, {"begin_at": 0, "area_id": 1129120, "name": "BLUEBIRD AIRPARK", "level": 0, "country": 840, "updated_at": 1455674299, "disable": 0, "end_at": 0, "shape": 0, "warning": 1, "radius": 8047, "lat": 35.402972, "lng": -96.832167, "type": 31, "city": "Shawnee", "points": ""}, {"begin_at": 0, "area_id": 1129121, "name": "JAZZ RANCH", "level": 0, "country": 840, "updated_at": 1455674299, "disable": 0, "end_at": 0, "shape": 0, "warning": 1, "radius": 8047, "lat": 35.321786, "lng": -97.040083, "type": 31, "city": "Bethel Acres", "points": ""}, {"begin_at": 0, "area_id": 1129135, "name": "JONES AIR PARK", "level": 0, "country": 840, "updated_at": 1455674299, "disable": 0, "end_at": 0, "shape": 0, "warning": 1, "radius": 8047, "lat": 35.272294, "lng": -96.881686, "type": 31, "city": "Tecumseh", "points": ""}, {"begin_at": 0, "area_id": 1129166, "name": "LAMBERT FIELD", "level": 0, "country": 840, "updated_at": 1455674299, "disable": 0, "end_at": 0, "shape": 0, "warning": 1, "radius": 8047, "lat": 44.730399, "lng": -123.075928, "type": 31, "city": "Jefferson", "points": ""}, {"begin_at": 0, "area_id": 1129167, "name": "MILLER AIRSTRIP", "level": 0, "country": 840, "updated_at": 1455674299, "disable": 0, "end_at": 0, "shape": 0, "warning": 1, "radius": 8047, "lat": 44.593178, "lng": -122.989535, "type": 31, "city": "Lebanon", "points": ""}, {"begin_at": 0, "area_id": 1129168, "name": "MITCHELL FLD", "level": 0, "country": 840, "updated_at": 1455674299, "disable": 0, "end_at": 0, "shape": 0, "warning": 1, "radius": 8047, "lat": 44.6952, "lng": -123.019661, "type": 31, "city": "Jefferson", "points": ""}, {"begin_at": 0, "area_id": 1129170, "name": "ROPPAIR", "level": 0, "country": 840, "updated_at": 1455674299, "disable": 0, "end_at": 0, "shape": 0, "warning": 1, "radius": 8047, "lat": 44.619289, "lng": -123.03176, "type": 31, "city": "Albany", "points": ""}, {"begin_at": 0, "area_id": 1129176, "name": "WATTS LANDING", "level": 0, "country": 840, "updated_at": 1455674299, "disable": 0, "end_at": 0, "shape": 0, "warning": 1, "radius": 8047, "lat": 45.153389, "lng": -123.23725, "type": 31, "city": "Amity", "points": ""}, {"begin_at": 0, "area_id": 1129178, "name": "BIG MUDDY RANCH", "level": 0, "country": 840, "updated_at": 1455674299, "disable": 0, "end_at": 0, "shape": 0, "warning": 1, "radius": 8047, "lat": 44.8285, "lng": -120.495028, "type": 31, "city": "Fossil", "points": ""}, {"begin_at": 0, "area_id": 1129183, "name": "FLYING E", "level": 0, "country": 840, "updated_at": 1455674299, "disable": 0, "end_at": 0, "shape": 0, "warning": 1, "radius": 8047, "lat": 44.844843, "lng": -122.901203, "type": 31, "city": "Aumsville", "points": ""}, {"begin_at": 0, "area_id": 1129187, "name": "CHADWICK", "level": 0, "country": 840, "updated_at": 1455674299, "disable": 0, "end_at": 0, "shape": 0, "warning": 1, "radius": 8047, "lat": 45.633168, "lng": -123.167889, "type": 31, "city": "Banks", "points": ""}, {"begin_at": 0, "area_id": 1129192, "name": "HARVEY'S ACRES", "level": 0, "country": 840, "updated_at": 1455674299, "disable": 0, "end_at": 0, "shape": 0, "warning": 1, "radius": 8047, "lat": 45.441506, "lng": -122.892879, "type": 31, "city": "Aloha", "points": ""}, {"begin_at": 0, "area_id": 1129208, "name": "J & J", "level": 0, "country": 840, "updated_at": 1455674299, "disable": 0, "end_at": 0, "shape": 0, "warning": 1, "radius": 8047, "lat": 44.391667, "lng": -123.029534, "type": 31, "city": "Brownsville", "points": ""}, {"begin_at": 0, "area_id": 1129209, "name": "LAFFERTY FIELD", "level": 0, "country": 840, "updated_at": 1455674299, "disable": 0, "end_at": 0, "shape": 0, "warning": 1, "radius": 8047, "lat": 44.315124, "lng": -123.02481, "type": 31, "city": "Brownsville", "points": ""}, {"begin_at": 0, "area_id": 1129244, "name": "CROWLEY RANCH AIRSTRIP", "level": 0, "country": 840, "updated_at": 1455674299, "disable": 0, "end_at": 0, "shape": 0, "warning": 1, "radius": 8047, "lat": 43.307936, "lng": -117.894346, "type": 31, "city": "Harper", "points": ""}, {"begin_at": 0, "area_id": 1129247, "name": "RIVERVIEW RANCH", "level": 0, "country": 840, "updated_at": 1455674299, "disable": 0, "end_at": 0, "shape": 0, "warning": 1, "radius": 8047, "lat": 42.933731, "lng": -123.121448, "type": 31, "city": "Canyonville", "points": ""}, {"begin_at": 0, "area_id": 1129494, "name": "GRAVEL RUN", "level": 0, "country": 840, "updated_at": 1455674299, "disable": 0, "end_at": 0, "shape": 0, "warning": 1, "radius": 8047, "lat": 41.750056, "lng": -80.083112, "type": 31, "city": "Cambridge Springs", "points": ""}, {"begin_at": 0, "area_id": 1129499, "name": "KELLACHOWS", "level": 0, "country": 840, "updated_at": 1455674299, "disable": 0, "end_at": 0, "shape": 0, "warning": 1, "radius": 8047, "lat": 41.522307, "lng": -75.396014, "type": 31, "city": "Waymart", "points": ""}, {"begin_at": 0, "area_id": 1129522, "name": "DOWNES", "level": 0, "country": 840, "updated_at": 1455674299, "disable": 0, "end_at": 0, "shape": 0, "warning": 1, "radius": 8047, "lat": 40.628333, "lng": -78.960278, "type": 31, "city": "Clymer", "points": ""}, {"begin_at": 0, "area_id": 1129526, "name": "AKM AIRFIELD", "level": 0, "country": 840, "updated_at": 1455674299, "disable": 0, "end_at": 0, "shape": 0, "warning": 1, "radius": 8047, "lat": 41.841667, "lng": -76.745833, "type": 31, "city": "Troy", "points": ""}, {"begin_at": 0, "area_id": 1129533, "name": "WILLOWS", "level": 0, "country": 840, "updated_at": 1455674299, "disable": 0, "end_at": 0, "shape": 0, "warning": 1, "radius": 8047, "lat": 41.908389, "lng": -80.258116, "type": 31, "city": "Albion", "points": ""}, {"begin_at": 0, "area_id": 1129545, "name": "EAGLES MERE FIELD", "level": 0, "country": 840, "updated_at": 1455674299, "disable": 0, "end_at": 0, "shape": 0, "warning": 1, "radius": 8047, "lat": 41.391156, "lng": -76.611403, "type": 31, "city": "Laporte", "points": ""}, {"begin_at": 0, "area_id": 1129546, "name": "MERRITT FIELD", "level": 0, "country": 840, "updated_at": 1455674299, "disable": 0, "end_at": 0, "shape": 0, "warning": 1, "radius": 8047, "lat": 41.420911, "lng": -76.534392, "type": 31, "city": "Laporte", "points": ""}, {"begin_at": 0, "area_id": 1129557, "name": "HARMAN", "level": 0, "country": 840, "updated_at": 1455674299, "disable": 0, "end_at": 0, "shape": 0, "warning": 1, "radius": 8047, "lat": 40.522307, "lng": -76.845527, "type": 31, "city": "Elizabethville", "points": ""}, {"begin_at": 0, "area_id": 1129564, "name": "PABST BLUE RIBBON", "level": 0, "country": 840, "updated_at": 1455674299, "disable": 0, "end_at": 0, "shape": 0, "warning": 1, "radius": 8047, "lat": 40.758399, "lng": -80.013671, "type": 31, "city": "Evans City", "points": ""}, {"begin_at": 0, "area_id": 1129568, "name": "FAIRVIEW EVERGREEN", "level": 0, "country": 840, "updated_at": 1455674299, "disable": 0, "end_at": 0, "shape": 0, "warning": 1, "radius": 8047, "lat": 42.027279, "lng": -80.243673, "type": 31, "city": "Fairview", "points": ""}, {"begin_at": 0, "area_id": 1129590, "name": "CLOUDBOUND", "level": 0, "country": 840, "updated_at": 1455674299, "disable": 0, "end_at": 0, "shape": 0, "warning": 1, "radius": 8047, "lat": 39.780833, "lng": -77.278667, "type": 31, "city": "Gettysburg", "points": ""}, {"begin_at": 0, "area_id": 1129608, "name": "BROOKSIDE FARMS", "level": 0, "country": 840, "updated_at": 1455674299, "disable": 0, "end_at": 0, "shape": 0, "warning": 1, "radius": 8047, "lat": 40.315923, "lng": -76.685802, "type": 31, "city": "Skyline View", "points": ""}, {"begin_at": 0, "area_id": 1129627, "name": "STITT", "level": 0, "country": 840, "updated_at": 1455674299, "disable": 0, "end_at": 0, "shape": 0, "warning": 1, "radius": 8047, "lat": 40.831108, "lng": -79.486942, "type": 31, "city": "Kittanning", "points": ""}, {"begin_at": 0, "area_id": 1129637, "name": "HORST", "level": 0, "country": 840, "updated_at": 1455674299, "disable": 0, "end_at": 0, "shape": 0, "warning": 1, "radius": 8047, "lat": 40.383424, "lng": -76.466352, "type": 31, "city": "Jonestown", "points": ""}, {"begin_at": 0, "area_id": 1129642, "name": "FOX HOLLOW", "level": 0, "country": 840, "updated_at": 1455674299, "disable": 0, "end_at": 0, "shape": 0, "warning": 1, "radius": 8047, "lat": 40.993418, "lng": -76.900243, "type": 31, "city": "Lewisburg", "points": ""}, {"begin_at": 0, "area_id": 1129656, "name": "SKALA", "level": 0, "country": 840, "updated_at": 1455674299, "disable": 0, "end_at": 0, "shape": 0, "warning": 1, "radius": 8047, "lat": 39.858409, "lng": -79.823383, "type": 31, "city": "Masontown", "points": ""}, {"begin_at": 0, "area_id": 1129660, "name": "FERRELL FIELD", "level": 0, "country": 840, "updated_at": 1455674299, "disable": 0, "end_at": 0, "shape": 0, "warning": 1, "radius": 8047, "lat": 41.2995, "lng": -80.211111, "type": 31, "city": "Mercer", "points": ""}, {"begin_at": 0, "area_id": 1129696, "name": "FOX FIELD", "level": 0, "country": 840, "updated_at": 1455674299, "disable": 0, "end_at": 0, "shape": 0, "warning": 1, "radius": 8047, "lat": 40.485556, "lng": -77.220556, "type": 31, "city": "Newport", "points": ""}, {"begin_at": 0, "area_id": 1129700, "name": "NUMIDIA", "level": 0, "country": 840, "updated_at": 1455674299, "disable": 0, "end_at": 0, "shape": 0, "warning": 1, "radius": 8047, "lat": 40.866198, "lng": -76.397448, "type": 31, "city": "Mount Carmel", "points": ""}, {"begin_at": 0, "area_id": 1129711, "name": "ELEPHANT PATH", "level": 0, "country": 840, "updated_at": 1455674299, "disable": 0, "end_at": 0, "shape": 0, "warning": 1, "radius": 8047, "lat": 40.410381, "lng": -75.229341, "type": 31, "city": "Bedminster", "points": ""}, {"begin_at": 0, "area_id": 1129721, "name": "JOHNSON", "level": 0, "country": 840, "updated_at": 1455674299, "disable": 0, "end_at": 0, "shape": 0, "warning": 1, "radius": 8047, "lat": 41.78062, "lng": -78.269179, "type": 31, "city": "Port Allegany", "points": ""}, {"begin_at": 0, "area_id": 1129724, "name": "PLEASANT HILL", "level": 0, "country": 840, "updated_at": 1455674299, "disable": 0, "end_at": 0, "shape": 0, "warning": 1, "radius": 8047, "lat": 40.894444, "lng": -80.181111, "type": 31, "city": "Ellport", "points": ""}, {"begin_at": 0, "area_id": 1129731, "name": "CEDAR ACRES PRIVATE GROUP", "level": 0, "country": 840, "updated_at": 1455674299, "disable": 0, "end_at": 0, "shape": 0, "warning": 1, "radius": 8047, "lat": 40.500102, "lng": -75.14684, "type": 31, "city": "Tinicum", "points": ""}, {"begin_at": 0, "area_id": 1129732, "name": "JANSEN VINEYARDS", "level": 0, "country": 840, "updated_at": 1455674299, "disable": 0, "end_at": 0, "shape": 0, "warning": 1, "radius": 8047, "lat": 40.650022, "lng": -77.0575, "type": 31, "city": "Richfield", "points": ""}, {"begin_at": 0, "area_id": 1129735, "name": "SHIELD FARM", "level": 0, "country": 840, "updated_at": 1455674299, "disable": 0, "end_at": 0, "shape": 0, "warning": 1, "radius": 8047, "lat": 41.93117, "lng": -79.146712, "type": 31, "city": "Russell", "points": ""}, {"begin_at": 0, "area_id": 1129741, "name": "GOLD MINE FIELD", "level": 0, "country": 840, "updated_at": 1455674299, "disable": 0, "end_at": 0, "shape": 0, "warning": 1, "radius": 8047, "lat": 40.375102, "lng": -75.349621, "type": 31, "city": "Sellersville", "points": ""}, {"begin_at": 0, "area_id": 1129762, "name": "DOUBLE D SKYRANCH", "level": 0, "country": 840, "updated_at": 1455674299, "disable": 0, "end_at": 0, "shape": 0, "warning": 1, "radius": 8047, "lat": 41.035917, "lng": -76.022426, "type": 31, "city": "Conyngham", "points": ""}, {"begin_at": 0, "area_id": 1129770, "name": "PEGASUS AIR PARK", "level": 0, "country": 840, "updated_at": 1455674299, "disable": 0, "end_at": 0, "shape": 0, "warning": 1, "radius": 8047, "lat": 40.933426, "lng": -75.349627, "type": 31, "city": "Brodheadsville", "points": ""}, {"begin_at": 0, "area_id": 1129778, "name": "MOUNTAIN CREST", "level": 0, "country": 840, "updated_at": 1455674299, "disable": 0, "end_at": 0, "shape": 0, "warning": 1, "radius": 8047, "lat": 41.579167, "lng": -79.441667, "type": 31, "city": "Tionesta", "points": ""}, {"begin_at": 0, "area_id": 1129797, "name": "CASH CREEK", "level": 0, "country": 840, "updated_at": 1455674299, "disable": 0, "end_at": 0, "shape": 0, "warning": 1, "radius": 8047, "lat": 41.865075, "lng": -76.509944, "type": 31, "city": "Athens", "points": ""}, {"begin_at": 0, "area_id": 1129798, "name": "OBERLANDER", "level": 0, "country": 840, "updated_at": 1455674299, "disable": 0, "end_at": 0, "shape": 0, "warning": 1, "radius": 8047, "lat": 41.859333, "lng": -79.907167, "type": 31, "city": "Union City", "points": ""}, {"begin_at": 0, "area_id": 1129818, "name": "J T WILLIE", "level": 0, "country": 840, "updated_at": 1455674299, "disable": 0, "end_at": 0, "shape": 0, "warning": 1, "radius": 8047, "lat": 40.808675, "lng": -79.669771, "type": 31, "city": "West Hills", "points": ""}, {"begin_at": 0, "area_id": 1129853, "name": "CROSSWINDS-WILSON PVT", "level": 0, "country": 840, "updated_at": 1455674299, "disable": 0, "end_at": 0, "shape": 0, "warning": 1, "radius": 8047, "lat": 33.27183, "lng": -80.254258, "type": 31, "city": "Holly Hill", "points": ""}, {"begin_at": 0, "area_id": 1129855, "name": "SOUTHERN AERO SPORTS", "level": 0, "country": 840, "updated_at": 1455674299, "disable": 0, "end_at": 0, "shape": 0, "warning": 1, "radius": 8047, "lat": 34.625128, "lng": -81.898432, "type": 31, "city": "Enoree", "points": ""}, {"begin_at": 0, "area_id": 1129859, "name": "WILLIAMSPORT AIRPARK", "level": 0, "country": 840, "updated_at": 1455674299, "disable": 0, "end_at": 0, "shape": 0, "warning": 1, "radius": 8047, "lat": 34.864561, "lng": -82.567629, "type": 31, "city": "Easley", "points": ""}, {"begin_at": 0, "area_id": 1129872, "name": "SHEALY", "level": 0, "country": 840, "updated_at": 1455674299, "disable": 0, "end_at": 0, "shape": 0, "warning": 1, "radius": 8047, "lat": 34.062644, "lng": -81.409824, "type": 31, "city": "", "points": ""}, {"begin_at": 0, "area_id": 1129887, "name": "GWINN FIELD", "level": 0, "country": 840, "updated_at": 1455674299, "disable": 0, "end_at": 0, "shape": 0, "warning": 1, "radius": 8047, "lat": 33.933786, "lng": -80.796111, "type": 31, "city": "Hopkins", "points": ""}, {"begin_at": 0, "area_id": 1129898, "name": "MYRTLE BEACH HARDEE AIRPARK", "level": 0, "country": 840, "updated_at": 1455674299, "disable": 0, "end_at": 0, "shape": 0, "warning": 1, "radius": 8047, "lat": 33.941838, "lng": -78.833079, "type": 31, "city": "Loris", "points": ""}, {"begin_at": 0, "area_id": 1129900, "name": "PALMETTO AIR PLANTATION", "level": 0, "country": 840, "updated_at": 1455674299, "disable": 0, "end_at": 0, "shape": 0, "warning": 1, "radius": 8047, "lat": 33.666111, "lng": -80.243889, "type": 31, "city": "Manning", "points": ""}, {"begin_at": 0, "area_id": 1129907, "name": "SEXTON", "level": 0, "country": 840, "updated_at": 1455674299, "disable": 0, "end_at": 0, "shape": 0, "warning": 1, "radius": 8047, "lat": 34.353833, "lng": -81.802358, "type": 31, "city": "Joanna", "points": ""}, {"begin_at": 0, "area_id": 1129920, "name": "OAKVIEW", "level": 0, "country": 840, "updated_at": 1455674299, "disable": 0, "end_at": 0, "shape": 0, "warning": 1, "radius": 8047, "lat": 34.81233, "lng": -82.818753, "type": 31, "city": "Central", "points": ""}, {"begin_at": 0, "area_id": 1129933, "name": "AVINGER FIELD", "level": 0, "country": 840, "updated_at": 1455674299, "disable": 0, "end_at": 0, "shape": 0, "warning": 1, "radius": 8047, "lat": 33.442778, "lng": -80.455556, "type": 31, "city": "Vance", "points": ""}, {"begin_at": 0, "area_id": 1129954, "name": "KAUER PRIVATE", "level": 0, "country": 840, "updated_at": 1455674299, "disable": 0, "end_at": 0, "shape": 0, "warning": 1, "radius": 8047, "lat": 44.109106, "lng": -102.957514, "type": 31, "city": "Box Elder", "points": ""}, {"begin_at": 0, "area_id": 1129970, "name": "WEELBORG", "level": 0, "country": 840, "updated_at": 1455674299, "disable": 0, "end_at": 0, "shape": 0, "warning": 1, "radius": 8047, "lat": 43.80664, "lng": -96.708939, "type": 31, "city": "Dell Rapids", "points": ""}, {"begin_at": 0, "area_id": 1129978, "name": "BARBER", "level": 0, "country": 840, "updated_at": 1455674299, "disable": 0, "end_at": 0, "shape": 0, "warning": 1, "radius": 8047, "lat": 44.462488, "lng": -102.551834, "type": 31, "city": "Enning", "points": ""}, {"begin_at": 0, "area_id": 1130003, "name": "TURKEY RIDGE", "level": 0, "country": 840, "updated_at": 1455674299, "disable": 0, "end_at": 0, "shape": 0, "warning": 1, "radius": 8047, "lat": 43.23332, "lng": -97.150332, "type": 31, "city": "Hurley", "points": ""}, {"begin_at": 0, "area_id": 1130009, "name": "ANDERSON AERIAL SPRAYING", "level": 0, "country": 840, "updated_at": 1455674299, "disable": 0, "end_at": 0, "shape": 0, "warning": 1, "radius": 8047, "lat": 43.901528, "lng": -99.878861, "type": 31, "city": "Kennebec", "points": ""}, {"begin_at": 0, "area_id": 1130032, "name": "DAN'S", "level": 0, "country": 840, "updated_at": 1455674299, "disable": 0, "end_at": 0, "shape": 0, "warning": 1, "radius": 8047, "lat": 44.041667, "lng": -103.045833, "type": 31, "city": "Box Elder", "points": ""}, {"begin_at": 0, "area_id": 1130050, "name": "LODI", "level": 0, "country": 840, "updated_at": 1455674299, "disable": 0, "end_at": 0, "shape": 0, "warning": 1, "radius": 8047, "lat": 42.972222, "lng": -96.980167, "type": 31, "city": "Wakonda", "points": ""}, {"begin_at": 0, "area_id": 1130052, "name": "PORCH RANCH", "level": 0, "country": 840, "updated_at": 1455674299, "disable": 0, "end_at": 0, "shape": 0, "warning": 1, "radius": 8047, "lat": 43.524444, "lng": -101.733758, "type": 31, "city": "Wanblee", "points": ""}, {"begin_at": 0, "area_id": 1130057, "name": "WHIPPLE RANCH", "level": 0, "country": 840, "updated_at": 1455674299, "disable": 0, "end_at": 0, "shape": 0, "warning": 1, "radius": 8047, "lat": 45.437739, "lng": -96.9998, "type": 31, "city": "Wilmot", "points": ""}, {"begin_at": 0, "area_id": 1130065, "name": "MELTON FIELD", "level": 0, "country": 840, "updated_at": 1455674299, "disable": 0, "end_at": 0, "shape": 0, "warning": 1, "radius": 8047, "lat": 36.151944, "lng": -83.732778, "type": 31, "city": "Blaine", "points": ""}, {"begin_at": 0, "area_id": 1130067, "name": "PARSONS FIELD", "level": 0, "country": 840, "updated_at": 1455674299, "disable": 0, "end_at": 0, "shape": 0, "warning": 1, "radius": 8047, "lat": 35.391667, "lng": -89.656528, "type": 31, "city": "Arlington", "points": ""}, {"begin_at": 0, "area_id": 1130073, "name": "HENSLEY AIRPARK", "level": 0, "country": 840, "updated_at": 1455674299, "disable": 0, "end_at": 0, "shape": 0, "warning": 1, "radius": 8047, "lat": 36.183333, "lng": -82.678889, "type": 31, "city": "Tusculum", "points": ""}, {"begin_at": 0, "area_id": 1130092, "name": "BUCK CREEK RANCH", "level": 0, "country": 840, "updated_at": 1455674299, "disable": 0, "end_at": 0, "shape": 0, "warning": 1, "radius": 8047, "lat": 35.883402, "lng": -84.968842, "type": 31, "city": "Lake Tansi", "points": ""}, {"begin_at": 0, "area_id": 1130094, "name": "DUMPLIN FIELD", "level": 0, "country": 840, "updated_at": 1455674299, "disable": 0, "end_at": 0, "shape": 0, "warning": 1, "radius": 8047, "lat": 36.015001, "lng": -83.547485, "type": 31, "city": "New Market", "points": ""}, {"begin_at": 0, "area_id": 1130100, "name": "WAYNE'S WORLD", "level": 0, "country": 840, "updated_at": 1455674299, "disable": 0, "end_at": 0, "shape": 0, "warning": 1, "radius": 8047, "lat": 36.263333, "lng": -88.757222, "type": 31, "city": "Dresden", "points": ""}, {"begin_at": 0, "area_id": 1130109, "name": "LILEY FIELD", "level": 0, "country": 840, "updated_at": 1455674299, "disable": 0, "end_at": 0, "shape": 0, "warning": 1, "radius": 8047, "lat": 36.363667, "lng": -82.590667, "type": 31, "city": "Fall Branch", "points": ""}, {"begin_at": 0, "area_id": 1130134, "name": "WOLF CREEK", "level": 0, "country": 840, "updated_at": 1455674299, "disable": 0, "end_at": 0, "shape": 0, "warning": 1, "radius": 8047, "lat": 35.804444, "lng": -84.415833, "type": 31, "city": "Loudon", "points": ""}, {"begin_at": 0, "area_id": 1130142, "name": "FLATWOOD FIELD", "level": 0, "country": 840, "updated_at": 1455674299, "disable": 0, "end_at": 0, "shape": 0, "warning": 1, "radius": 8047, "lat": 36.071944, "lng": -86.354444, "type": 31, "city": "Rural Hill", "points": ""}, {"begin_at": 0, "area_id": 1130149, "name": "HUDGIN AIR", "level": 0, "country": 840, "updated_at": 1455674299, "disable": 0, "end_at": 0, "shape": 0, "warning": 1, "radius": 8047, "lat": 35.473611, "lng": -86.68, "type": 31, "city": "Lewisburg", "points": ""}, {"begin_at": 0, "area_id": 1130164, "name": "ROSEANNE", "level": 0, "country": 840, "updated_at": 1455674299, "disable": 0, "end_at": 0, "shape": 0, "warning": 1, "radius": 8047, "lat": 35.618056, "lng": -86.0025, "type": 31, "city": "New Union", "points": ""}, {"begin_at": 0, "area_id": 1130169, "name": "CEDAR GLADE AERODROME", "level": 0, "country": 840, "updated_at": 1455674299, "disable": 0, "end_at": 0, "shape": 0, "warning": 1, "radius": 8047, "lat": 35.722291, "lng": -86.274993, "type": 31, "city": "Plainview", "points": ""}, {"begin_at": 0, "area_id": 1130172, "name": "MC DONALD", "level": 0, "country": 840, "updated_at": 1455674299, "disable": 0, "end_at": 0, "shape": 0, "warning": 1, "radius": 8047, "lat": 35.867361, "lng": -86.497778, "type": 31, "city": "Murfreesboro", "points": ""}, {"begin_at": 0, "area_id": 1130180, "name": "PEGASUS FIELD", "level": 0, "country": 840, "updated_at": 1455674299, "disable": 0, "end_at": 0, "shape": 0, "warning": 1, "radius": 8047, "lat": 35.172778, "lng": -89.5625, "type": 31, "city": "Oakland", "points": ""}, {"begin_at": 0, "area_id": 1130195, "name": "KENNER FARM", "level": 0, "country": 840, "updated_at": 1455674299, "disable": 0, "end_at": 0, "shape": 0, "warning": 1, "radius": 8047, "lat": 35.88092, "lng": -83.727119, "type": 31, "city": "Seymour", "points": ""}, {"begin_at": 0, "area_id": 1130196, "name": "SEYMOUR AIR PARK", "level": 0, "country": 840, "updated_at": 1455674299, "disable": 0, "end_at": 0, "shape": 0, "warning": 1, "radius": 8047, "lat": 35.812279, "lng": -83.774642, "type": 31, "city": "Wildwood", "points": ""}, {"begin_at": 0, "area_id": 1130212, "name": "TELLICO PLAINS MUNI", "level": 0, "country": 840, "updated_at": 1455674299, "disable": 0, "end_at": 0, "shape": 0, "warning": 1, "radius": 8047, "lat": 35.381667, "lng": -84.303889, "type": 31, "city": "Tellico Plains", "points": ""}, {"begin_at": 0, "area_id": 1130215, "name": "AMACHER STRIP", "level": 0, "country": 840, "updated_at": 1455674299, "disable": 0, "end_at": 0, "shape": 0, "warning": 1, "radius": 8047, "lat": 35.305636, "lng": -86.236656, "type": 31, "city": "Tullahoma", "points": ""}, {"begin_at": 0, "area_id": 1130224, "name": "ABILENE EXECUTIVE AIRPARK", "level": 0, "country": 840, "updated_at": 1455674299, "disable": 0, "end_at": 0, "shape": 0, "warning": 1, "radius": 8047, "lat": 32.448889, "lng": -99.62, "type": 31, "city": "Abilene", "points": ""}, {"begin_at": 0, "area_id": 1130242, "name": "LUSCOMBE ACRES", "level": 0, "country": 840, "updated_at": 1455674299, "disable": 0, "end_at": 0, "shape": 0, "warning": 1, "radius": 8047, "lat": 32.346248, "lng": -97.198578, "type": 31, "city": "Alvarado", "points": ""}, {"begin_at": 0, "area_id": 1130248, "name": "BLUE SKY AIRFIELD", "level": 0, "country": 840, "updated_at": 1455674299, "disable": 0, "end_at": 0, "shape": 0, "warning": 1, "radius": 8047, "lat": 35.064499, "lng": -101.849355, "type": 31, "city": "Canyon", "points": ""}, {"begin_at": 0, "area_id": 1130250, "name": "EVANS AERODROME", "level": 0, "country": 840, "updated_at": 1455674299, "disable": 0, "end_at": 0, "shape": 0, "warning": 1, "radius": 8047, "lat": 35.077017, "lng": -101.691369, "type": 31, "city": "Amarillo", "points": ""}, {"begin_at": 0, "area_id": 1130261, "name": "PHILLIPS CORPORATION", "level": 0, "country": 840, "updated_at": 1455674299, "disable": 0, "end_at": 0, "shape": 0, "warning": 1, "radius": 8047, "lat": 29.1508, "lng": -95.495221, "type": 31, "city": "Angleton", "points": ""}, {"begin_at": 0, "area_id": 1130267, "name": "HORNADY RANCH", "level": 0, "country": 840, "updated_at": 1455674299, "disable": 0, "end_at": 0, "shape": 0, "warning": 1, "radius": 8047, "lat": 33.477885, "lng": -98.547555, "type": 31, "city": "Windthorst", "points": ""}, {"begin_at": 0, "area_id": 1130270, "name": "OAKS", "level": 0, "country": 840, "updated_at": 1455674299, "disable": 0, "end_at": 0, "shape": 0, "warning": 1, "radius": 8047, "lat": 32.275153, "lng": -95.083555, "type": 31, "city": "Overton", "points": ""}, {"begin_at": 0, "area_id": 1130271, "name": "DOUGLAS FLYING SERVICE PRIVATE", "level": 0, "country": 840, "updated_at": 1455674299, "disable": 0, "end_at": 0, "shape": 0, "warning": 1, "radius": 8047, "lat": 33.168985, "lng": -100.21705, "type": 31, "city": "Aspermont", "points": ""}, {"begin_at": 0, "area_id": 1130288, "name": "FLYING L", "level": 0, "country": 840, "updated_at": 1455674299, "disable": 0, "end_at": 0, "shape": 0, "warning": 1, "radius": 8047, "lat": 29.758889, "lng": -99.1525, "type": 31, "city": "Bandera", "points": ""}, {"begin_at": 0, "area_id": 1130296, "name": "FERRIS", "level": 0, "country": 840, "updated_at": 1455674299, "disable": 0, "end_at": 0, "shape": 0, "warning": 1, "radius": 8047, "lat": 29.836612, "lng": -94.967427, "type": 31, "city": "Mont Belvieu", "points": ""}, {"begin_at": 0, "area_id": 1130309, "name": "P-K RANCH", "level": 0, "country": 840, "updated_at": 1455674299, "disable": 0, "end_at": 0, "shape": 0, "warning": 1, "radius": 8047, "lat": 30.033555, "lng": -96.263574, "type": 31, "city": "Bellville", "points": ""}, {"begin_at": 0, "area_id": 1130318, "name": "ALERT FIELD", "level": 0, "country": 840, "updated_at": 1455674299, "disable": 0, "end_at": 0, "shape": 0, "warning": 1, "radius": 8047, "lat": 32.585197, "lng": -95.063914, "type": 31, "city": "Big Sandy", "points": ""}, {"begin_at": 0, "area_id": 1130337, "name": "REWARD RANCH", "level": 0, "country": 840, "updated_at": 1455674299, "disable": 0, "end_at": 0, "shape": 0, "warning": 1, "radius": 8047, "lat": 33.767322, "lng": -96.121644, "type": 31, "city": "Telephone", "points": ""}, {"begin_at": 0, "area_id": 1130350, "name": "TULAROSA", "level": 0, "country": 840, "updated_at": 1455674299, "disable": 0, "end_at": 0, "shape": 0, "warning": 1, "radius": 8047, "lat": 29.43051, "lng": -100.257574, "type": 31, "city": "Brackettville", "points": ""}, {"begin_at": 0, "area_id": 1130359, "name": "LIVE OAK RANCH", "level": 0, "country": 840, "updated_at": 1455674299, "disable": 0, "end_at": 0, "shape": 0, "warning": 1, "radius": 8047, "lat": 30.185, "lng": -96.445556, "type": 31, "city": "Brenham", "points": ""}, {"begin_at": 0, "area_id": 1130372, "name": "MIKESKA FIELD", "level": 0, "country": 840, "updated_at": 1455674299, "disable": 0, "end_at": 0, "shape": 0, "warning": 1, "radius": 8047, "lat": 29.873714, "lng": -96.004699, "type": 31, "city": "Brookshire", "points": ""}, {"begin_at": 0, "area_id": 1130376, "name": "ECHO LAKE", "level": 0, "country": 840, "updated_at": 1455674299, "disable": 0, "end_at": 0, "shape": 0, "warning": 1, "radius": 8047, "lat": 32.2535, "lng": -95.655492, "type": 31, "city": "Brownsboro", "points": ""}, {"begin_at": 0, "area_id": 1130382, "name": "TEXAS A & M FLIGHT TEST STATION", "level": 0, "country": 840, "updated_at": 1455674299, "disable": 0, "end_at": 0, "shape": 0, "warning": 1, "radius": 8047, "lat": 30.633533, "lng": -96.483578, "type": 31, "city": "Bryan", "points": ""}, {"begin_at": 0, "area_id": 1130389, "name": "FLYING J", "level": 0, "country": 840, "updated_at": 1455674299, "disable": 0, "end_at": 0, "shape": 0, "warning": 1, "radius": 8047, "lat": 29.737167, "lng": -98.378904, "type": 31, "city": "Bulverde", "points": ""}, {"begin_at": 0, "area_id": 1130401, "name": "PAISANO RANCH", "level": 0, "country": 840, "updated_at": 1455674299, "disable": 0, "end_at": 0, "shape": 0, "warning": 1, "radius": 8047, "lat": 28.396941, "lng": -98.362789, "type": 31, "city": "Three Rivers", "points": ""}, {"begin_at": 0, "area_id": 1130406, "name": "74 RANCH", "level": 0, "country": 840, "updated_at": 1455674299, "disable": 0, "end_at": 0, "shape": 0, "warning": 1, "radius": 8047, "lat": 28.685383, "lng": -98.383117, "type": 31, "city": "Campbellton", "points": ""}, {"begin_at": 0, "area_id": 1130409, "name": "CANDELARIA", "level": 0, "country": 840, "updated_at": 1455674299, "disable": 0, "end_at": 0, "shape": 0, "warning": 1, "radius": 8047, "lat": 30.149444, "lng": -104.6825, "type": 31, "city": "Presidio", "points": ""}, {"begin_at": 0, "area_id": 1130417, "name": "DENTONIO RANCH", "level": 0, "country": 840, "updated_at": 1455674299, "disable": 0, "end_at": 0, "shape": 0, "warning": 1, "radius": 8047, "lat": 28.269438, "lng": -99.9345, "type": 31, "city": "Carrizo Springs", "points": ""}, {"begin_at": 0, "area_id": 1130441, "name": "HACKBERRY", "level": 0, "country": 840, "updated_at": 1455674299, "disable": 0, "end_at": 0, "shape": 0, "warning": 1, "radius": 8047, "lat": 32.232506, "lng": -96.397511, "type": 31, "city": "Rice", "points": ""}, {"begin_at": 0, "area_id": 1130445, "name": "BARNETT", "level": 0, "country": 840, "updated_at": 1455674299, "disable": 0, "end_at": 0, "shape": 0, "warning": 1, "radius": 8047, "lat": 34.269526, "lng": -99.514256, "type": 31, "city": "Quanah", "points": ""}, {"begin_at": 0, "area_id": 1130469, "name": "RIVER FIELD", "level": 0, "country": 840, "updated_at": 1455674299, "disable": 0, "end_at": 0, "shape": 0, "warning": 1, "radius": 8047, "lat": 29.716194, "lng": -96.591356, "type": 31, "city": "Columbus", "points": ""}, {"begin_at": 0, "area_id": 1130486, "name": "ANDEROSA AIRPARK", "level": 0, "country": 840, "updated_at": 1455674299, "disable": 0, "end_at": 0, "shape": 0, "warning": 1, "radius": 8047, "lat": 31.0475, "lng": -94.854444, "type": 31, "city": "Corrigan", "points": ""}, {"begin_at": 0, "area_id": 1130489, "name": "JTJ RANCH", "level": 0, "country": 840, "updated_at": 1455674299, "disable": 0, "end_at": 0, "shape": 0, "warning": 1, "radius": 8047, "lat": 32.082556, "lng": -96.356667, "type": 31, "city": "Corsicana", "points": ""}, {"begin_at": 0, "area_id": 1130513, "name": "ROGERS", "level": 0, "country": 840, "updated_at": 1455674299, "disable": 0, "end_at": 0, "shape": 0, "warning": 1, "radius": 8047, "lat": 29.873, "lng": -94.989649, "type": 31, "city": "Barrett", "points": ""}, {"begin_at": 0, "area_id": 1130532, "name": "PRAIRIE AIRE FIELD", "level": 0, "country": 840, "updated_at": 1455674299, "disable": 0, "end_at": 0, "shape": 0, "warning": 1, "radius": 8047, "lat": 29.35552, "lng": -95.663836, "type": 31, "city": "Needville", "points": ""}, {"begin_at": 0, "area_id": 1130534, "name": "GARRETT RANCH", "level": 0, "country": 840, "updated_at": 1455674299, "disable": 0, "end_at": 0, "shape": 0, "warning": 1, "radius": 8047, "lat": 29.291844, "lng": -95.35929, "type": 31, "city": "Danbury", "points": ""}, {"begin_at": 0, "area_id": 1130535, "name": "KNAPE", "level": 0, "country": 840, "updated_at": 1455674299, "disable": 0, "end_at": 0, "shape": 0, "warning": 1, "radius": 8047, "lat": 29.220422, "lng": -95.310881, "type": 31, "city": "Danbury", "points": ""}, {"begin_at": 0, "area_id": 1130556, "name": "BERTANI RANCH", "level": 0, "country": 840, "updated_at": 1455674299, "disable": 0, "end_at": 0, "shape": 0, "warning": 1, "radius": 8047, "lat": 29.42273, "lng": -100.738701, "type": 31, "city": "Laughlin Air Force Base", "points": ""}, {"begin_at": 0, "area_id": 1130560, "name": "LEWIS PRIVATE", "level": 0, "country": 840, "updated_at": 1455674299, "disable": 0, "end_at": 0, "shape": 0, "warning": 1, "radius": 8047, "lat": 29.544115, "lng": -100.673146, "type": 31, "city": "Brackettville", "points": ""}, {"begin_at": 0, "area_id": 1130599, "name": "KUBECKA FLYING SERVICE INC", "level": 0, "country": 840, "updated_at": 1455674299, "disable": 0, "end_at": 0, "shape": 0, "warning": 1, "radius": 8047, "lat": 28.980817, "lng": -96.62192, "type": 31, "city": "Edna", "points": ""}, {"begin_at": 0, "area_id": 1130601, "name": "FRELS", "level": 0, "country": 840, "updated_at": 1455674299, "disable": 0, "end_at": 0, "shape": 0, "warning": 1, "radius": 8047, "lat": 29.179189, "lng": -96.322736, "type": 31, "city": "El Campo", "points": ""}, {"begin_at": 0, "area_id": 1130606, "name": "CHRISTIAN RANCH", "level": 0, "country": 840, "updated_at": 1455674299, "disable": 0, "end_at": 0, "shape": 0, "warning": 1, "radius": 8047, "lat": 30.860311, "lng": -100.566622, "type": 31, "city": "Eldorado", "points": ""}, {"begin_at": 0, "area_id": 1130617, "name": "RUSSELL PARADISE", "level": 0, "country": 840, "updated_at": 1455674299, "disable": 0, "end_at": 0, "shape": 0, "warning": 1, "radius": 8047, "lat": 29.225241, "lng": -98.383624, "type": 31, "city": "Elmendorf", "points": ""}, {"begin_at": 0, "area_id": 1130635, "name": "CAGE RANCH", "level": 0, "country": 840, "updated_at": 1455674299, "disable": 0, "end_at": 0, "shape": 0, "warning": 1, "radius": 8047, "lat": 27.105879, "lng": -98.20584, "type": 31, "city": "Falfurrias", "points": ""}, {"begin_at": 0, "area_id": 1130642, "name": "CIRCLE P RANCH", "level": 0, "country": 840, "updated_at": 1455674299, "disable": 0, "end_at": 0, "shape": 0, "warning": 1, "radius": 8047, "lat": 29.102744, "lng": -98.216675, "type": 31, "city": "Floresville", "points": ""}, {"begin_at": 0, "area_id": 1130665, "name": "CAMERON RANCH", "level": 0, "country": 840, "updated_at": 1455674299, "disable": 0, "end_at": 0, "shape": 0, "warning": 1, "radius": 8047, "lat": 30.187778, "lng": -98.958333, "type": 31, "city": "Fredericksburg", "points": ""}, {"begin_at": 0, "area_id": 1130692, "name": "LANDRY", "level": 0, "country": 840, "updated_at": 1455674299, "disable": 0, "end_at": 0, "shape": 0, "warning": 1, "radius": 8047, "lat": 30.712691, "lng": -97.650287, "type": 31, "city": "Serenada", "points": ""}, {"begin_at": 0, "area_id": 1130698, "name": "HILDE-GRIFF FIELD", "level": 0, "country": 840, "updated_at": 1455674299, "disable": 0, "end_at": 0, "shape": 0, "warning": 1, "radius": 8047, "lat": 30.722133, "lng": -97.791403, "type": 31, "city": "Serenada", "points": ""}, {"begin_at": 0, "area_id": 1130699, "name": "TRI-MODAL AIR PARK", "level": 0, "country": 840, "updated_at": 1455674299, "disable": 0, "end_at": 0, "shape": 0, "warning": 1, "radius": 8047, "lat": 30.591862, "lng": -97.722509, "type": 31, "city": "Georgetown", "points": ""}, {"begin_at": 0, "area_id": 1130716, "name": "FLYING 7H RANCH", "level": 0, "country": 840, "updated_at": 1455674299, "disable": 0, "end_at": 0, "shape": 0, "warning": 1, "radius": 8047, "lat": 31.431389, "lng": -98.466944, "type": 31, "city": "Goldthwaite", "points": ""}, {"begin_at": 0, "area_id": 1130733, "name": "DRENNAN", "level": 0, "country": 840, "updated_at": 1455674299, "disable": 0, "end_at": 0, "shape": 0, "warning": 1, "radius": 8047, "lat": 32.313889, "lng": -97.231111, "type": 31, "city": "Grandview", "points": ""}, {"begin_at": 0, "area_id": 1130735, "name": "GRANITE SHOALS MUNI", "level": 0, "country": 840, "updated_at": 1455674299, "disable": 0, "end_at": 0, "shape": 0, "warning": 1, "radius": 8047, "lat": 30.589355, "lng": -98.370304, "type": 31, "city": "Granite Shoals", "points": ""}, {"begin_at": 0, "area_id": 1130740, "name": "SKINNER", "level": 0, "country": 840, "updated_at": 1455674299, "disable": 0, "end_at": 0, "shape": 0, "warning": 1, "radius": 8047, "lat": 32.990674, "lng": -96.039971, "type": 31, "city": "West Tawakoni", "points": ""}, {"begin_at": 0, "area_id": 1130746, "name": "6666 RANCH", "level": 0, "country": 840, "updated_at": 1455674299, "disable": 0, "end_at": 0, "shape": 0, "warning": 1, "radius": 8047, "lat": 33.641492, "lng": -100.347508, "type": 31, "city": "Guthrie", "points": ""}, {"begin_at": 0, "area_id": 1130756, "name": "SHOFNER FARMS", "level": 0, "country": 840, "updated_at": 1455674299, "disable": 0, "end_at": 0, "shape": 0, "warning": 1, "radius": 8047, "lat": 26.168409, "lng": -97.733604, "type": 31, "city": "Palm Valley", "points": ""}, {"begin_at": 0, "area_id": 1130770, "name": "BYRAM RANCH", "level": 0, "country": 840, "updated_at": 1455674299, "disable": 0, "end_at": 0, "shape": 0, "warning": 1, "radius": 8047, "lat": 30.224092, "lng": -98.288629, "type": 31, "city": "Johnson City", "points": ""}, {"begin_at": 0, "area_id": 1130787, "name": "HOUSTON AIRPARK", "level": 0, "country": 840, "updated_at": 1455674299, "disable": 0, "end_at": 0, "shape": 0, "warning": 1, "radius": 8047, "lat": 29.519679, "lng": -95.275214, "type": 31, "city": "Pearland", "points": ""}, {"begin_at": 0, "area_id": 1130793, "name": "BUFORDS FIELD", "level": 0, "country": 840, "updated_at": 1455674299, "disable": 0, "end_at": 0, "shape": 0, "warning": 1, "radius": 8047, "lat": 31.169079, "lng": -94.532426, "type": 31, "city": "Huntington", "points": ""}, {"begin_at": 0, "area_id": 1130806, "name": "BOLTON", "level": 0, "country": 840, "updated_at": 1455674299, "disable": 0, "end_at": 0, "shape": 0, "warning": 1, "radius": 8047, "lat": 31.917391, "lng": -95.207168, "type": 31, "city": "Jacksonville", "points": ""}, {"begin_at": 0, "area_id": 1130807, "name": "HUNTER FIELD", "level": 0, "country": 840, "updated_at": 1455674299, "disable": 0, "end_at": 0, "shape": 0, "warning": 1, "radius": 8047, "lat": 32.013889, "lng": -95.296389, "type": 31, "city": "Jacksonville", "points": ""}, {"begin_at": 0, "area_id": 1130809, "name": "SYBERT FARM", "level": 0, "country": 840, "updated_at": 1455674299, "disable": 0, "end_at": 0, "shape": 0, "warning": 1, "radius": 8047, "lat": 30.788672, "lng": -97.655694, "type": 31, "city": "Serenada", "points": ""}, {"begin_at": 0, "area_id": 1130816, "name": "DANZ RANCH", "level": 0, "country": 840, "updated_at": 1455674299, "disable": 0, "end_at": 0, "shape": 0, "warning": 1, "radius": 8047, "lat": 30.2802, "lng": -98.426411, "type": 31, "city": "Johnson City", "points": ""}, {"begin_at": 0, "area_id": 1130823, "name": "WEST KERR RANCH", "level": 0, "country": 840, "updated_at": 1455674299, "disable": 0, "end_at": 0, "shape": 0, "warning": 1, "radius": 8047, "lat": 30.136314, "lng": -99.743674, "type": 31, "city": "Mountain Home", "points": ""}, {"begin_at": 0, "area_id": 1130829, "name": "FLYING S FARM", "level": 0, "country": 840, "updated_at": 1455674299, "disable": 0, "end_at": 0, "shape": 0, "warning": 1, "radius": 8047, "lat": 33.080678, "lng": -97.348908, "type": 31, "city": "Justin", "points": ""}, {"begin_at": 0, "area_id": 1130840, "name": "FLYING G", "level": 0, "country": 840, "updated_at": 1455674299, "disable": 0, "end_at": 0, "shape": 0, "warning": 1, "radius": 8047, "lat": 32.645966, "lng": -96.325259, "type": 31, "city": "Kaufman", "points": ""}, {"begin_at": 0, "area_id": 1130841, "name": "MOORE", "level": 0, "country": 840, "updated_at": 1455674299, "disable": 0, "end_at": 0, "shape": 0, "warning": 1, "radius": 8047, "lat": 32.533192, "lng": -96.322481, "type": 31, "city": "Kaufman", "points": ""}, {"begin_at": 0, "area_id": 1130848, "name": "BIRK", "level": 0, "country": 840, "updated_at": 1455674299, "disable": 0, "end_at": 0, "shape": 0, "warning": 1, "radius": 8047, "lat": 32.627913, "lng": -97.191956, "type": 31, "city": "Kennedale", "points": ""}, {"begin_at": 0, "area_id": 1130860, "name": "HUNTER'S CREEK", "level": 0, "country": 840, "updated_at": 1455674299, "disable": 0, "end_at": 0, "shape": 0, "warning": 1, "radius": 8047, "lat": 31.255583, "lng": -100.6476, "type": 31, "city": "Mertzon", "points": ""}, {"begin_at": 0, "area_id": 1130873, "name": "EAGLE'S LANDING", "level": 0, "country": 840, "updated_at": 1455674299, "disable": 0, "end_at": 0, "shape": 0, "warning": 1, "radius": 8047, "lat": 33.308171, "lng": -97.379744, "type": 31, "city": "Krum", "points": ""}, {"begin_at": 0, "area_id": 1130876, "name": "WINDMILLCREEK", "level": 0, "country": 840, "updated_at": 1455674299, "disable": 0, "end_at": 0, "shape": 0, "warning": 1, "radius": 8047, "lat": 33.30955, "lng": -97.311161, "type": 31, "city": "Krum", "points": ""}, {"begin_at": 0, "area_id": 1130893, "name": "DEER PASTURE", "level": 0, "country": 840, "updated_at": 1455674299, "disable": 0, "end_at": 0, "shape": 0, "warning": 1, "radius": 8047, "lat": 30.926288, "lng": -98.236417, "type": 31, "city": "Lampasas", "points": ""}, {"begin_at": 0, "area_id": 1130909, "name": "BLACK MARK STRIP", "level": 0, "country": 840, "updated_at": 1455674299, "disable": 0, "end_at": 0, "shape": 0, "warning": 1, "radius": 8047, "lat": 33.033456, "lng": -97.066954, "type": 31, "city": "Flower Mound", "points": ""}, {"begin_at": 0, "area_id": 1130924, "name": "HOPF FIELD", "level": 0, "country": 840, "updated_at": 1455674299, "disable": 0, "end_at": 0, "shape": 0, "warning": 1, "radius": 640, "lat": 30.737375, "lng": -98.703672, "type": 31, "city": "Llano", "points": ""}, {"begin_at": 0, "area_id": 1130935, "name": "TAILWHEEL", "level": 0, "country": 840, "updated_at": 1455674299, "disable": 0, "end_at": 0, "shape": 0, "warning": 1, "radius": 8047, "lat": 32.615, "lng": -94.765556, "type": 31, "city": "Longview", "points": ""}, {"begin_at": 0, "area_id": 1130952, "name": "FLYING L AIRPARK", "level": 0, "country": 840, "updated_at": 1455674299, "disable": 0, "end_at": 0, "shape": 0, "warning": 1, "radius": 8047, "lat": 32.537637, "lng": -97.130843, "type": 31, "city": "Mansfield", "points": ""}, {"begin_at": 0, "area_id": 1130954, "name": "JACK MILLER", "level": 0, "country": 840, "updated_at": 1455674299, "disable": 0, "end_at": 0, "shape": 0, "warning": 1, "radius": 8047, "lat": 32.575136, "lng": -97.086953, "type": 31, "city": "Mansfield", "points": ""}, {"begin_at": 0, "area_id": 1130969, "name": "MACGUIRE RANCH", "level": 0, "country": 840, "updated_at": 1455674299, "disable": 0, "end_at": 0, "shape": 0, "warning": 1, "radius": 8047, "lat": 30.290267, "lng": -104.003514, "type": 31, "city": "Marfa", "points": ""}, {"begin_at": 0, "area_id": 1130972, "name": "ZUEHL", "level": 0, "country": 840, "updated_at": 1455674299, "disable": 0, "end_at": 0, "shape": 0, "warning": 1, "radius": 8047, "lat": 29.495509, "lng": -98.157787, "type": 31, "city": "Marion", "points": ""}, {"begin_at": 0, "area_id": 1130973, "name": "W D CORNELIUS RANCH", "level": 0, "country": 840, "updated_at": 1455674299, "disable": 0, "end_at": 0, "shape": 0, "warning": 1, "radius": 8047, "lat": 28.950258, "lng": -96.05996, "type": 31, "city": "Markham", "points": ""}, {"begin_at": 0, "area_id": 1130981, "name": "POLK RANCH", "level": 0, "country": 840, "updated_at": 1455674299, "disable": 0, "end_at": 0, "shape": 0, "warning": 1, "radius": 8047, "lat": 30.87684, "lng": -99.199498, "type": 31, "city": "Brady", "points": ""}, {"begin_at": 0, "area_id": 1131019, "name": "REB FOLBRE'S PLACE", "level": 0, "country": 840, "updated_at": 1455674299, "disable": 0, "end_at": 0, "shape": 0, "warning": 1, "radius": 8047, "lat": 32.76263, "lng": -97.972819, "type": 31, "city": "Mineral Wells", "points": ""}, {"begin_at": 0, "area_id": 1131027, "name": "MOORE FIELD", "level": 0, "country": 840, "updated_at": 1455674299, "disable": 0, "end_at": 0, "shape": 0, "warning": 1, "radius": 8047, "lat": 26.383679, "lng": -98.333627, "type": 31, "city": "Citrus City", "points": ""}, {"begin_at": 0, "area_id": 1131028, "name": "STAMPEDE VALLEY", "level": 0, "country": 840, "updated_at": 1455674299, "disable": 0, "end_at": 0, "shape": 0, "warning": 1, "radius": 8047, "lat": 31.186287, "lng": -97.390563, "type": 31, "city": "Morgans Point Resort", "points": ""}, {"begin_at": 0, "area_id": 1131033, "name": "MARMACK", "level": 0, "country": 840, "updated_at": 1455674299, "disable": 0, "end_at": 0, "shape": 0, "warning": 1, "radius": 8047, "lat": 30.342211, "lng": -95.661325, "type": 31, "city": "Panorama Village", "points": ""}, {"begin_at": 0, "area_id": 1131035, "name": "AREA 142", "level": 0, "country": 840, "updated_at": 1455674299, "disable": 0, "end_at": 0, "shape": 0, "warning": 1, "radius": 8047, "lat": 32.628333, "lng": -99.140278, "type": 31, "city": "Albany", "points": ""}, {"begin_at": 0, "area_id": 1131042, "name": "GLOVER", "level": 0, "country": 840, "updated_at": 1455674299, "disable": 0, "end_at": 0, "shape": 0, "warning": 1, "radius": 762, "lat": 33.140583, "lng": -95.022581, "type": 31, "city": "Mount Pleasant", "points": ""}, {"begin_at": 0, "area_id": 1131050, "name": "Y O RANCH", "level": 0, "country": 840, "updated_at": 1455674299, "disable": 0, "end_at": 0, "shape": 0, "warning": 1, "radius": 8047, "lat": 30.204088, "lng": -99.673671, "type": 31, "city": "Mountain Home", "points": ""}, {"begin_at": 0, "area_id": 1131055, "name": "CARLISLE", "level": 0, "country": 840, "updated_at": 1455674299, "disable": 0, "end_at": 0, "shape": 0, "warning": 1, "radius": 8047, "lat": 31.679167, "lng": -98.663611, "type": 31, "city": "Mullin", "points": ""}, {"begin_at": 0, "area_id": 1131072, "name": "NEW GULF", "level": 0, "country": 840, "updated_at": 1455674299, "disable": 0, "end_at": 0, "shape": 0, "warning": 1, "radius": 8047, "lat": 29.27334, "lng": -95.886903, "type": 31, "city": "Boling", "points": ""}, {"begin_at": 0, "area_id": 1131074, "name": "SANDY CREEK", "level": 0, "country": 840, "updated_at": 1455674299, "disable": 0, "end_at": 0, "shape": 0, "warning": 1, "radius": 8047, "lat": 30.569528, "lng": -95.482361, "type": 31, "city": "New Waverly", "points": ""}, {"begin_at": 0, "area_id": 1131089, "name": "OSO CANYON", "level": 0, "country": 840, "updated_at": 1455674299, "disable": 0, "end_at": 0, "shape": 0, "warning": 1, "radius": 8047, "lat": 30.025, "lng": -101.545833, "type": 31, "city": "Comstock", "points": ""}, {"begin_at": 0, "area_id": 1131104, "name": "STAMPS FIELD", "level": 0, "country": 840, "updated_at": 1455674299, "disable": 0, "end_at": 0, "shape": 0, "warning": 1, "radius": 8047, "lat": 35.330604, "lng": -101.385167, "type": 31, "city": "Panhandle", "points": ""}, {"begin_at": 0, "area_id": 1131134, "name": "DEUSSEN FIELD", "level": 0, "country": 840, "updated_at": 1455674299, "disable": 0, "end_at": 0, "shape": 0, "warning": 1, "radius": 8047, "lat": 33.191786, "lng": -97.325297, "type": 31, "city": "Ponder", "points": ""}, {"begin_at": 0, "area_id": 1131150, "name": "HITEX PRIVATE", "level": 0, "country": 840, "updated_at": 1455674299, "disable": 0, "end_at": 0, "shape": 0, "warning": 1, "radius": 8047, "lat": 33.841769, "lng": -96.669719, "type": 31, "city": "Preston", "points": ""}, {"begin_at": 0, "area_id": 1131158, "name": "PROGRESO", "level": 0, "country": 840, "updated_at": 1455674299, "disable": 0, "end_at": 0, "shape": 0, "warning": 1, "radius": 8047, "lat": 26.083688, "lng": -97.950279, "type": 31, "city": "Progreso", "points": ""}, {"begin_at": 0, "area_id": 1131166, "name": "COOK CANYON RANCH", "level": 0, "country": 840, "updated_at": 1455674299, "disable": 0, "end_at": 0, "shape": 0, "warning": 1, "radius": 8047, "lat": 32.431722, "lng": -98.59475, "type": 31, "city": "Ranger", "points": ""}, {"begin_at": 0, "area_id": 1131178, "name": "HOWARD FIELD", "level": 0, "country": 840, "updated_at": 1455674299, "disable": 0, "end_at": 0, "shape": 0, "warning": 1, "radius": 8047, "lat": 33.102899, "lng": -97.464189, "type": 31, "city": "New Fairview", "points": ""}, {"begin_at": 0, "area_id": 1131183, "name": "FARM SERVICES INC", "level": 0, "country": 840, "updated_at": 1455674299, "disable": 0, "end_at": 0, "shape": 0, "warning": 1, "radius": 8047, "lat": 26.248962, "lng": -97.564987, "type": 31, "city": "Rio Hondo", "points": ""}, {"begin_at": 0, "area_id": 1131197, "name": "HACKBERRY RANCH", "level": 0, "country": 840, "updated_at": 1455674299, "disable": 0, "end_at": 0, "shape": 0, "warning": 1, "radius": 8047, "lat": 29.911326, "lng": -100.000349, "type": 31, "city": "Barksdale", "points": ""}, {"begin_at": 0, "area_id": 1131202, "name": "HIGH LONESOME", "level": 0, "country": 840, "updated_at": 1455674299, "disable": 0, "end_at": 0, "shape": 0, "warning": 1, "radius": 8047, "lat": 29.912306, "lng": -97.373306, "type": 31, "city": "Rosanky", "points": ""}, {"begin_at": 0, "area_id": 1131211, "name": "WEST RANCH", "level": 0, "country": 840, "updated_at": 1455674299, "disable": 0, "end_at": 0, "shape": 0, "warning": 1, "radius": 8047, "lat": 30.456389, "lng": -98.489722, "type": 31, "city": "Horseshoe Bay", "points": ""}, {"begin_at": 0, "area_id": 1131216, "name": "K BAR RANCH", "level": 0, "country": 840, "updated_at": 1455674299, "disable": 0, "end_at": 0, "shape": 0, "warning": 1, "radius": 8047, "lat": 29.496897, "lng": -99.493935, "type": 31, "city": "Utopia", "points": ""}, {"begin_at": 0, "area_id": 1131220, "name": "FLYING EAGLE RANCH", "level": 0, "country": 840, "updated_at": 1455674299, "disable": 0, "end_at": 0, "shape": 0, "warning": 1, "radius": 8047, "lat": 31.775133, "lng": -105.431317, "type": 31, "city": "", "points": ""}, {"begin_at": 0, "area_id": 1131241, "name": "YATES FIELD", "level": 0, "country": 840, "updated_at": 1455674299, "disable": 0, "end_at": 0, "shape": 0, "warning": 1, "radius": 8047, "lat": 31.321554, "lng": -98.865601, "type": 31, "city": "San Saba", "points": ""}, {"begin_at": 0, "area_id": 1131284, "name": "BUTLER", "level": 0, "country": 840, "updated_at": 1455674299, "disable": 0, "end_at": 0, "shape": 0, "warning": 1, "radius": 8047, "lat": 33.666773, "lng": -96.69055, "type": 31, "city": "Sherman", "points": ""}, {"begin_at": 0, "area_id": 1131310, "name": "EUGENE'S DREAM", "level": 0, "country": 840, "updated_at": 1455674299, "disable": 0, "end_at": 0, "shape": 0, "warning": 1, "radius": 8047, "lat": 33.045278, "lng": -97.674806, "type": 31, "city": "Springtown", "points": ""}, {"begin_at": 0, "area_id": 1131313, "name": "TRAVIS FIELD", "level": 0, "country": 840, "updated_at": 1455674299, "disable": 0, "end_at": 0, "shape": 0, "warning": 1, "radius": 8047, "lat": 33.442864, "lng": -100.854572, "type": 31, "city": "Spur", "points": ""}, {"begin_at": 0, "area_id": 1131323, "name": "BURG LAKE AERO", "level": 0, "country": 840, "updated_at": 1455674299, "disable": 0, "end_at": 0, "shape": 0, "warning": 1, "radius": 8047, "lat": 30.232361, "lng": -98.654972, "type": 31, "city": "Fredericksburg", "points": ""}, {"begin_at": 0, "area_id": 1131324, "name": "REDSTONE RANCH", "level": 0, "country": 840, "updated_at": 1455674299, "disable": 0, "end_at": 0, "shape": 0, "warning": 1, "radius": 8047, "lat": 30.252099, "lng": -98.594746, "type": 31, "city": "Johnson City", "points": ""}, {"begin_at": 0, "area_id": 1131334, "name": "LUV FIELD", "level": 0, "country": 840, "updated_at": 1455674299, "disable": 0, "end_at": 0, "shape": 0, "warning": 1, "radius": 8047, "lat": 30.510556, "lng": -97.412778, "type": 31, "city": "Taylor", "points": ""}, {"begin_at": 0, "area_id": 1131339, "name": "LITTLE PEACH", "level": 0, "country": 840, "updated_at": 1455674299, "disable": 0, "end_at": 0, "shape": 0, "warning": 1, "radius": 8047, "lat": 31.214619, "lng": -97.426676, "type": 31, "city": "Morgans Point Resort", "points": ""}, {"begin_at": 0, "area_id": 1131343, "name": "C FULCHER RANCH", "level": 0, "country": 840, "updated_at": 1455674299, "disable": 0, "end_at": 0, "shape": 0, "warning": 1, "radius": 8047, "lat": 29.319364, "lng": -103.583518, "type": 31, "city": "Terlingua", "points": ""}, {"begin_at": 0, "area_id": 1131345, "name": "AUSTINIA", "level": 0, "country": 840, "updated_at": 1455674299, "disable": 0, "end_at": 0, "shape": 0, "warning": 1, "radius": 8047, "lat": 29.417454, "lng": -94.998259, "type": 31, "city": "La Marque", "points": ""}, {"begin_at": 0, "area_id": 1131353, "name": "BRIDGES FIELD", "level": 0, "country": 840, "updated_at": 1455674299, "disable": 0, "end_at": 0, "shape": 0, "warning": 1, "radius": 8047, "lat": 33.483999, "lng": -96.839165, "type": 31, "city": "Gunter", "points": ""}, {"begin_at": 0, "area_id": 1131356, "name": "ROWLAND R AIRFIELD", "level": 0, "country": 840, "updated_at": 1455674299, "disable": 0, "end_at": 0, "shape": 0, "warning": 1, "radius": 8047, "lat": 33.487331, "lng": -96.455818, "type": 31, "city": "Tom Bean", "points": ""}, {"begin_at": 0, "area_id": 1131359, "name": "RED WING", "level": 0, "country": 840, "updated_at": 1455674299, "disable": 0, "end_at": 0, "shape": 0, "warning": 1, "radius": 8047, "lat": 33.463998, "lng": -96.35026, "type": 31, "city": "Whitewright", "points": ""}, {"begin_at": 0, "area_id": 1131362, "name": "GRAND ROCK", "level": 0, "country": 840, "updated_at": 1455674299, "disable": 0, "end_at": 0, "shape": 0, "warning": 1, "radius": 8047, "lat": 30.923528, "lng": -95.2935, "type": 31, "city": "Trinity", "points": ""}, {"begin_at": 0, "area_id": 1131363, "name": "HARRISON FARM", "level": 0, "country": 840, "updated_at": 1455674299, "disable": 0, "end_at": 0, "shape": 0, "warning": 1, "radius": 8047, "lat": 32.039331, "lng": -95.082778, "type": 31, "city": "New Summerfield", "points": ""}, {"begin_at": 0, "area_id": 1131365, "name": "LOWRANCE RANCH", "level": 0, "country": 840, "updated_at": 1455674299, "disable": 0, "end_at": 0, "shape": 0, "warning": 1, "radius": 8047, "lat": 33.764807, "lng": -100.017878, "type": 31, "city": "Guthrie", "points": ""}, {"begin_at": 0, "area_id": 1131367, "name": "VAUGHN FARM", "level": 0, "country": 840, "updated_at": 1455674299, "disable": 0, "end_at": 0, "shape": 0, "warning": 1, "radius": 8047, "lat": 34.510861, "lng": -101.816597, "type": 31, "city": "Tulia", "points": ""}, {"begin_at": 0, "area_id": 1131370, "name": "PINERIDGE", "level": 0, "country": 840, "updated_at": 1455674299, "disable": 0, "end_at": 0, "shape": 0, "warning": 1, "radius": 8047, "lat": 32.222654, "lng": -95.318007, "type": 31, "city": "Whitehouse", "points": ""}, {"begin_at": 0, "area_id": 1131381, "name": "STONEY FORK LANDING", "level": 0, "country": 840, "updated_at": 1455674299, "disable": 0, "end_at": 0, "shape": 0, "warning": 1, "radius": 8047, "lat": 33.476944, "lng": -97.119444, "type": 31, "city": "Valley View", "points": ""}, {"begin_at": 0, "area_id": 1131390, "name": "VENUS", "level": 0, "country": 840, "updated_at": 1455674299, "disable": 0, "end_at": 0, "shape": 0, "warning": 1, "radius": 8047, "lat": 32.416389, "lng": -97.091944, "type": 31, "city": "Venus", "points": ""}, {"begin_at": 0, "area_id": 1131399, "name": "RABBIT RUN", "level": 0, "country": 840, "updated_at": 1455674299, "disable": 0, "end_at": 0, "shape": 0, "warning": 1, "radius": 8047, "lat": 31.454612, "lng": -97.250284, "type": 31, "city": "Hewitt", "points": ""}, {"begin_at": 0, "area_id": 1131400, "name": "SCOTT", "level": 0, "country": 840, "updated_at": 1455674299, "disable": 0, "end_at": 0, "shape": 0, "warning": 1, "radius": 8047, "lat": 31.596831, "lng": -97.330011, "type": 31, "city": "Valley Mills", "points": ""}, {"begin_at": 0, "area_id": 1131401, "name": "TEXAS VALLEY AIR FIELD", "level": 0, "country": 840, "updated_at": 1455674299, "disable": 0, "end_at": 0, "shape": 0, "warning": 1, "radius": 8047, "lat": 31.623777, "lng": -96.992496, "type": 31, "city": "Northcrest", "points": ""}, {"begin_at": 0, "area_id": 1131413, "name": "ANCHORAGE FARM FIELD", "level": 0, "country": 840, "updated_at": 1455674299, "disable": 0, "end_at": 0, "shape": 0, "warning": 1, "radius": 8047, "lat": 30.009389, "lng": -96.759422, "type": 31, "city": "Round Top", "points": ""}, {"begin_at": 0, "area_id": 1131418, "name": "HURN", "level": 0, "country": 840, "updated_at": 1455674299, "disable": 0, "end_at": 0, "shape": 0, "warning": 1, "radius": 8047, "lat": 32.394309, "lng": -96.77944, "type": 31, "city": "Waxahachie", "points": ""}, {"begin_at": 0, "area_id": 1131425, "name": "J BAR WC RANCH", "level": 0, "country": 840, "updated_at": 1455674299, "disable": 0, "end_at": 0, "shape": 0, "warning": 1, "radius": 8047, "lat": 32.811225, "lng": -99.851761, "type": 31, "city": "Anson", "points": ""}, {"begin_at": 0, "area_id": 1131452, "name": "GDAP AIR RANCH", "level": 0, "country": 840, "updated_at": 1455674299, "disable": 0, "end_at": 0, "shape": 0, "warning": 1, "radius": 8047, "lat": 30.480203, "lng": -95.539943, "type": 31, "city": "New Waverly", "points": ""}, {"begin_at": 0, "area_id": 1131471, "name": "MAGEE", "level": 0, "country": 840, "updated_at": 1455674299, "disable": 0, "end_at": 0, "shape": 0, "warning": 1, "radius": 8047, "lat": 33.316778, "lng": -96.066916, "type": 31, "city": "Wolfe City", "points": ""}, {"begin_at": 0, "area_id": 1131472, "name": "SOUTHWEST LUBBOCK", "level": 0, "country": 840, "updated_at": 1455674299, "disable": 0, "end_at": 0, "shape": 0, "warning": 1, "radius": 8047, "lat": 33.395581, "lng": -102.009458, "type": 31, "city": "Wolfforth", "points": ""}, {"begin_at": 0, "area_id": 1131475, "name": "MARLIN'S MEADOW", "level": 0, "country": 840, "updated_at": 1455674299, "disable": 0, "end_at": 0, "shape": 0, "warning": 1, "radius": 8047, "lat": 32.953889, "lng": -95.5775, "type": 31, "city": "Gunter", "points": ""}, {"begin_at": 0, "area_id": 1131485, "name": "FORT RANCH", "level": 0, "country": 840, "updated_at": 1455674299, "disable": 0, "end_at": 0, "shape": 0, "warning": 1, "radius": 8047, "lat": 41.492167, "lng": -112.591167, "type": 31, "city": "Corinne", "points": ""}, {"begin_at": 0, "area_id": 1131488, "name": "GLENMAR RANCH", "level": 0, "country": 840, "updated_at": 1455674299, "disable": 0, "end_at": 0, "shape": 0, "warning": 1, "radius": 8047, "lat": 40.339389, "lng": -111.998826, "type": 31, "city": "Eagle Mountain", "points": ""}, {"begin_at": 0, "area_id": 1131489, "name": "WEST DESERT AIRPARK", "level": 0, "country": 840, "updated_at": 1455674299, "disable": 0, "end_at": 0, "shape": 0, "warning": 1, "radius": 8047, "lat": 40.2426, "lng": -112.093033, "type": 31, "city": "Eagle Mountain", "points": ""}, {"begin_at": 0, "area_id": 1131490, "name": "WESTWATER", "level": 0, "country": 840, "updated_at": 1455674299, "disable": 0, "end_at": 0, "shape": 0, "warning": 1, "radius": 8047, "lat": 39.146667, "lng": -109.145, "type": 31, "city": "Loma", "points": ""}, {"begin_at": 0, "area_id": 1131497, "name": "THUNDER RIDGE AIRPARK", "level": 0, "country": 840, "updated_at": 1455674299, "disable": 0, "end_at": 0, "shape": 0, "warning": 1, "radius": 8047, "lat": 40.257819, "lng": -110.858611, "type": 31, "city": "Duchesne", "points": ""}, {"begin_at": 0, "area_id": 1131511, "name": "GOSHUTE", "level": 0, "country": 840, "updated_at": 1455674299, "disable": 0, "end_at": 0, "shape": 0, "warning": 1, "radius": 8047, "lat": 39.997993, "lng": -113.977085, "type": 31, "city": "Ibapah", "points": ""}, {"begin_at": 0, "area_id": 1131525, "name": "CAVEMAN RANCH", "level": 0, "country": 840, "updated_at": 1455674299, "disable": 0, "end_at": 0, "shape": 0, "warning": 1, "radius": 8047, "lat": 38.472778, "lng": -109.66, "type": 31, "city": "Moab", "points": ""}, {"begin_at": 0, "area_id": 1131551, "name": "FULCHER FAMILY FARMS", "level": 0, "country": 840, "updated_at": 1455674299, "disable": 0, "end_at": 0, "shape": 0, "warning": 1, "radius": 8047, "lat": 37.725136, "lng": -79.083081, "type": 31, "city": "Roseland", "points": ""}, {"begin_at": 0, "area_id": 1131566, "name": "ROBINSON", "level": 0, "country": 840, "updated_at": 1455674299, "disable": 0, "end_at": 0, "shape": 0, "warning": 1, "radius": 8047, "lat": 37.348473, "lng": -79.571978, "type": 31, "city": "Bedford", "points": ""}, {"begin_at": 0, "area_id": 1131578, "name": "SERENITY FARM", "level": 0, "country": 840, "updated_at": 1455674299, "disable": 0, "end_at": 0, "shape": 0, "warning": 1, "radius": 8047, "lat": 37.936108, "lng": -76.348608, "type": 31, "city": "Heathsville", "points": ""}, {"begin_at": 0, "area_id": 1131580, "name": "BYRD CREEK", "level": 0, "country": 840, "updated_at": 1455674299, "disable": 0, "end_at": 0, "shape": 0, "warning": 1, "radius": 8047, "lat": 37.818754, "lng": -78.047221, "type": 31, "city": "Palmyra", "points": ""}, {"begin_at": 0, "area_id": 1131581, "name": "SHIVOK", "level": 0, "country": 840, "updated_at": 1455674299, "disable": 0, "end_at": 0, "shape": 0, "warning": 1, "radius": 8047, "lat": 38.009019, "lng": -76.563011, "type": 31, "city": "Heathsville", "points": ""}, {"begin_at": 0, "area_id": 1131582, "name": "WALNUT HILL", "level": 0, "country": 840, "updated_at": 1455674299, "disable": 0, "end_at": 0, "shape": 0, "warning": 1, "radius": 8047, "lat": 38.595122, "lng": -77.646101, "type": 31, "city": "Bealeton", "points": ""}, {"begin_at": 0, "area_id": 1131587, "name": "BREEDEN", "level": 0, "country": 840, "updated_at": 1455674299, "disable": 0, "end_at": 0, "shape": 0, "warning": 1, "radius": 8047, "lat": 38.607633, "lng": -77.569428, "type": 31, "city": "Nokesville", "points": ""}, {"begin_at": 0, "area_id": 1131589, "name": "CENTREVILLE", "level": 0, "country": 840, "updated_at": 1455674299, "disable": 0, "end_at": 0, "shape": 0, "warning": 1, "radius": 8047, "lat": 38.879279, "lng": -77.484434, "type": 31, "city": "Chantilly", "points": ""}, {"begin_at": 0, "area_id": 1131597, "name": "WEATHERLY & SON", "level": 0, "country": 840, "updated_at": 1455674299, "disable": 0, "end_at": 0, "shape": 0, "warning": 1, "radius": 8047, "lat": 36.635706, "lng": -76.151601, "type": 31, "city": "Chesapeake", "points": ""}, {"begin_at": 0, "area_id": 1131601, "name": "MERIFIELD", "level": 0, "country": 840, "updated_at": 1455674299, "disable": 0, "end_at": 0, "shape": 0, "warning": 1, "radius": 8047, "lat": 36.584586, "lng": -78.500832, "type": 31, "city": "Clarksville", "points": ""}, {"begin_at": 0, "area_id": 1131606, "name": "AYERS", "level": 0, "country": 840, "updated_at": 1455674299, "disable": 0, "end_at": 0, "shape": 0, "warning": 1, "radius": 8047, "lat": 38.905111, "lng": -78.654738, "type": 31, "city": "Edinburg", "points": ""}, {"begin_at": 0, "area_id": 1131610, "name": "TRENT FARM AIRSTRIP", "level": 0, "country": 840, "updated_at": 1455674299, "disable": 0, "end_at": 0, "shape": 0, "warning": 1, "radius": 8047, "lat": 36.650137, "lng": -80.116436, "type": 31, "city": "Patrick Springs", "points": ""}, {"begin_at": 0, "area_id": 1131613, "name": "BELMONT FARM", "level": 0, "country": 840, "updated_at": 1455674299, "disable": 0, "end_at": 0, "shape": 0, "warning": 1, "radius": 8047, "lat": 38.374167, "lng": -77.991944, "type": 31, "city": "Culpeper", "points": ""}, {"begin_at": 0, "area_id": 1131616, "name": "BUCK HOLLAR", "level": 0, "country": 840, "updated_at": 1455674299, "disable": 0, "end_at": 0, "shape": 0, "warning": 1, "radius": 8047, "lat": 36.623194, "lng": -79.355855, "type": 31, "city": "Danville", "points": ""}, {"begin_at": 0, "area_id": 1131640, "name": "MOUNT HOREB FIELD", "level": 0, "country": 840, "updated_at": 1455674299, "disable": 0, "end_at": 0, "shape": 0, "warning": 1, "radius": 8047, "lat": 38.249019, "lng": -78.855303, "type": 31, "city": "Grottoes", "points": ""}, {"begin_at": 0, "area_id": 1131643, "name": "FRANK FIELD", "level": 0, "country": 840, "updated_at": 1455674299, "disable": 0, "end_at": 0, "shape": 0, "warning": 1, "radius": 8047, "lat": 38.485123, "lng": -78.945307, "type": 31, "city": "Harrisonburg", "points": ""}, {"begin_at": 0, "area_id": 1131649, "name": "HENSHAW", "level": 0, "country": 840, "updated_at": 1455674299, "disable": 0, "end_at": 0, "shape": 0, "warning": 1, "radius": 8047, "lat": 37.252361, "lng": -77.152667, "type": 31, "city": "Charles City", "points": ""}, {"begin_at": 0, "area_id": 1131669, "name": "BROOKLYN", "level": 0, "country": 840, "updated_at": 1455674299, "disable": 0, "end_at": 0, "shape": 0, "warning": 1, "radius": 8047, "lat": 37.688889, "lng": -77.101389, "type": 31, "city": "Central Garage", "points": ""}, {"begin_at": 0, "area_id": 1131676, "name": "RIVER BEND", "level": 0, "country": 840, "updated_at": 1455674299, "disable": 0, "end_at": 0, "shape": 0, "warning": 1, "radius": 8047, "lat": 38.906111, "lng": -78.444444, "type": 31, "city": "Woodstock", "points": ""}, {"begin_at": 0, "area_id": 1131684, "name": "WHITHALL FARM", "level": 0, "country": 840, "updated_at": 1455674299, "disable": 0, "end_at": 0, "shape": 0, "warning": 1, "radius": 8047, "lat": 38.127667, "lng": -76.689167, "type": 31, "city": "Montross", "points": ""}, {"begin_at": 0, "area_id": 1131692, "name": "PEACE AND PLENTY FARM", "level": 0, "country": 840, "updated_at": 1455674299, "disable": 0, "end_at": 0, "shape": 0, "warning": 1, "radius": 8047, "lat": 37.723889, "lng": -75.786111, "type": 31, "city": "Onancock", "points": ""}, {"begin_at": 0, "area_id": 1131696, "name": "PAINTER FIELD", "level": 0, "country": 840, "updated_at": 1455674299, "disable": 0, "end_at": 0, "shape": 0, "warning": 1, "radius": 8047, "lat": 37.567593, "lng": -75.79386, "type": 31, "city": "Exmore", "points": ""}, {"begin_at": 0, "area_id": 1131698, "name": "CRIPPEN CREEK FARM", "level": 0, "country": 840, "updated_at": 1455674299, "disable": 0, "end_at": 0, "shape": 0, "warning": 1, "radius": 8047, "lat": 37.762906, "lng": -75.571872, "type": 31, "city": "Accomac", "points": ""}, {"begin_at": 0, "area_id": 1131701, "name": "SPRING VALLEY", "level": 0, "country": 840, "updated_at": 1455674299, "disable": 0, "end_at": 0, "shape": 0, "warning": 1, "radius": 8047, "lat": 37.597092, "lng": -77.800273, "type": 31, "city": "Powhatan", "points": ""}, {"begin_at": 0, "area_id": 1131719, "name": "VENNING'S LANDING", "level": 0, "country": 840, "updated_at": 1455674299, "disable": 0, "end_at": 0, "shape": 0, "warning": 1, "radius": 8047, "lat": 37.043611, "lng": -79.801389, "type": 31, "city": "Rocky Mount", "points": ""}, {"begin_at": 0, "area_id": 1131721, "name": "WORLEY FIELD", "level": 0, "country": 840, "updated_at": 1455674299, "disable": 0, "end_at": 0, "shape": 0, "warning": 1, "radius": 8047, "lat": 36.95014, "lng": -79.879478, "type": 31, "city": "Henry Fork", "points": ""}, {"begin_at": 0, "area_id": 1131729, "name": "ABERDEEN FIELD", "level": 0, "country": 840, "updated_at": 1455674299, "disable": 0, "end_at": 0, "shape": 0, "warning": 1, "radius": 8047, "lat": 37.023759, "lng": -76.588565, "type": 31, "city": "Smithfield", "points": ""}, {"begin_at": 0, "area_id": 1131746, "name": "BATH ALUM", "level": 0, "country": 840, "updated_at": 1455674299, "disable": 0, "end_at": 0, "shape": 0, "warning": 1, "radius": 8047, "lat": 38.052626, "lng": -79.728938, "type": 31, "city": "Warm Springs", "points": ""}, {"begin_at": 0, "area_id": 1131754, "name": "WARRENTON AIR PARK", "level": 0, "country": 840, "updated_at": 1455674299, "disable": 0, "end_at": 0, "shape": 0, "warning": 1, "radius": 8047, "lat": 38.655676, "lng": -77.787215, "type": 31, "city": "Warrenton", "points": ""}, {"begin_at": 0, "area_id": 1131761, "name": "UMPHLETT AIRSTRIP", "level": 0, "country": 840, "updated_at": 1455674299, "disable": 0, "end_at": 0, "shape": 0, "warning": 1, "radius": 8047, "lat": 36.589318, "lng": -76.638008, "type": 31, "city": "Suffolk", "points": ""}, {"begin_at": 0, "area_id": 1131801, "name": "PERRAS FIELD", "level": 0, "country": 840, "updated_at": 1455674299, "disable": 0, "end_at": 0, "shape": 0, "warning": 1, "radius": 8047, "lat": 44.526719, "lng": -72.581503, "type": 31, "city": "Morrisville", "points": ""}, {"begin_at": 0, "area_id": 1131804, "name": "DOUGLAS FIELD", "level": 0, "country": 840, "updated_at": 1455674299, "disable": 0, "end_at": 0, "shape": 0, "warning": 1, "radius": 8047, "lat": 44.995322, "lng": -72.378997, "type": 31, "city": "Newport", "points": ""}, {"begin_at": 0, "area_id": 1131813, "name": "SHELBURNE FARMS", "level": 0, "country": 840, "updated_at": 1455674299, "disable": 0, "end_at": 0, "shape": 0, "warning": 1, "radius": 8047, "lat": 44.401439, "lng": -73.267071, "type": 31, "city": "Burlington", "points": ""}, {"begin_at": 0, "area_id": 1131820, "name": "KETCHAM LNDG AREA", "level": 0, "country": 840, "updated_at": 1455674299, "disable": 0, "end_at": 0, "shape": 0, "warning": 1, "radius": 8047, "lat": 44.162559, "lng": -72.834004, "type": 31, "city": "Northfield", "points": ""}, {"begin_at": 0, "area_id": 1131826, "name": "HULETT LANDING STRIP", "level": 0, "country": 840, "updated_at": 1455674299, "disable": 0, "end_at": 0, "shape": 0, "warning": 1, "radius": 8047, "lat": 43.330072, "lng": -73.242606, "type": 31, "city": "Granville", "points": ""}, {"begin_at": 0, "area_id": 1131854, "name": "FLOATHAVEN AIRSTRIP", "level": 0, "country": 840, "updated_at": 1455674299, "disable": 0, "end_at": 0, "shape": 0, "warning": 1, "radius": 8047, "lat": 48.733166, "lng": -122.351275, "type": 31, "city": "Sudden Valley", "points": ""}, {"begin_at": 0, "area_id": 1131863, "name": "BANAS FIELD", "level": 0, "country": 840, "updated_at": 1455674299, "disable": 0, "end_at": 0, "shape": 0, "warning": 1, "radius": 8047, "lat": 46.799722, "lng": -123.541111, "type": 31, "city": "Cosmopolis", "points": ""}, {"begin_at": 0, "area_id": 1131879, "name": "RIVER VIEW AIRPARK", "level": 0, "country": 840, "updated_at": 1455674299, "disable": 0, "end_at": 0, "shape": 0, "warning": 1, "radius": 8047, "lat": 47.900278, "lng": -119.895833, "type": 31, "city": "Chelan", "points": ""}, {"begin_at": 0, "area_id": 1131889, "name": "SUNSHINE ACRES", "level": 0, "country": 840, "updated_at": 1455674299, "disable": 0, "end_at": 0, "shape": 0, "warning": 1, "radius": 8047, "lat": 47.833889, "lng": -117.263611, "type": 31, "city": "Mead", "points": ""}, {"begin_at": 0, "area_id": 1131907, "name": "DECATUR /JONES/", "level": 0, "country": 840, "updated_at": 1455674299, "disable": 0, "end_at": 0, "shape": 0, "warning": 1, "radius": 8047, "lat": 48.510102, "lng": -122.802956, "type": 31, "city": "Anacortes", "points": ""}, {"begin_at": 0, "area_id": 1131911, "name": "RIVERSIDE", "level": 0, "country": 840, "updated_at": 1455674299, "disable": 0, "end_at": 0, "shape": 0, "warning": 1, "radius": 8047, "lat": 48.834838, "lng": -122.264325, "type": 31, "city": "Everson", "points": ""}, {"begin_at": 0, "area_id": 1131920, "name": "HILLCREST FARMS", "level": 0, "country": 840, "updated_at": 1455674299, "disable": 0, "end_at": 0, "shape": 0, "warning": 1, "radius": 8047, "lat": 46.949167, "lng": -120.481111, "type": 31, "city": "Kittitas", "points": ""}, {"begin_at": 0, "area_id": 1131923, "name": "D AND B AIRPARK", "level": 0, "country": 840, "updated_at": 1455674299, "disable": 0, "end_at": 0, "shape": 0, "warning": 1, "radius": 8047, "lat": 46.972874, "lng": -123.384323, "type": 31, "city": "Elma", "points": ""}, {"begin_at": 0, "area_id": 1131928, "name": "ENUMCLAW", "level": 0, "country": 840, "updated_at": 1455674299, "disable": 0, "end_at": 0, "shape": 0, "warning": 1, "radius": 8047, "lat": 47.195657, "lng": -122.022056, "type": 31, "city": "Enumclaw", "points": ""}, {"begin_at": 0, "area_id": 1131933, "name": "HORSE FLY", "level": 0, "country": 840, "updated_at": 1455674299, "disable": 0, "end_at": 0, "shape": 0, "warning": 1, "radius": 8047, "lat": 48.89289, "lng": -122.556836, "type": 31, "city": "Ferndale", "points": ""}, {"begin_at": 0, "area_id": 1131952, "name": "MIRTH", "level": 0, "country": 840, "updated_at": 1455674299, "disable": 0, "end_at": 0, "shape": 0, "warning": 1, "radius": 8047, "lat": 47.938611, "lng": -122.608056, "type": 31, "city": "Hansville", "points": ""}, {"begin_at": 0, "area_id": 1131960, "name": "ANGEL PARK", "level": 0, "country": 840, "updated_at": 1455674299, "disable": 0, "end_at": 0, "shape": 0, "warning": 1, "radius": 8047, "lat": 46.648474, "lng": -118.583043, "type": 31, "city": "Connell", "points": ""}, {"begin_at": 0, "area_id": 1131971, "name": "THOMPSON AIRPORT", "level": 0, "country": 840, "updated_at": 1455674299, "disable": 0, "end_at": 0, "shape": 0, "warning": 1, "radius": 8047, "lat": 47.798333, "lng": -122.529722, "type": 31, "city": "Kingston", "points": ""}, {"begin_at": 0, "area_id": 1131975, "name": "LACROSSE MUNI", "level": 0, "country": 840, "updated_at": 1455674299, "disable": 0, "end_at": 0, "shape": 0, "warning": 1, "radius": 8047, "lat": 46.790988, "lng": -117.921331, "type": 31, "city": "Lacrosse", "points": ""}, {"begin_at": 0, "area_id": 1131992, "name": "BEAR VALLEY SKYRANCH", "level": 0, "country": 840, "updated_at": 1455674299, "disable": 0, "end_at": 0, "shape": 0, "warning": 1, "radius": 8047, "lat": 47.081667, "lng": -123.270278, "type": 31, "city": "McCleary", "points": ""}, {"begin_at": 0, "area_id": 1132004, "name": "BARKER", "level": 0, "country": 840, "updated_at": 1455674299, "disable": 0, "end_at": 0, "shape": 0, "warning": 1, "radius": 8047, "lat": 48.374826, "lng": -122.338768, "type": 31, "city": "Mount Vernon", "points": ""}, {"begin_at": 0, "area_id": 1132013, "name": "HOGAN'S CORNER", "level": 0, "country": 840, "updated_at": 1455674299, "disable": 0, "end_at": 0, "shape": 0, "warning": 1, "radius": 8047, "lat": 47.042864, "lng": -124.14573, "type": 31, "city": "Ocean Shores", "points": ""}, {"begin_at": 0, "area_id": 1132036, "name": "DYE SEED RANCH INC", "level": 0, "country": 840, "updated_at": 1455674299, "disable": 0, "end_at": 0, "shape": 0, "warning": 1, "radius": 8047, "lat": 46.507377, "lng": -117.449624, "type": 31, "city": "Pomeroy", "points": ""}, {"begin_at": 0, "area_id": 1132037, "name": "BIG ANDY", "level": 0, "country": 840, "updated_at": 1455674299, "disable": 0, "end_at": 0, "shape": 0, "warning": 1, "radius": 8047, "lat": 48.098422, "lng": -123.642971, "type": 31, "city": "Port Angeles", "points": ""}, {"begin_at": 0, "area_id": 1132051, "name": "TAYLOR", "level": 0, "country": 840, "updated_at": 1455674299, "disable": 0, "end_at": 0, "shape": 0, "warning": 1, "radius": 8047, "lat": 46.897599, "lng": -122.66957, "type": 31, "city": "Rainier", "points": ""}, {"begin_at": 0, "area_id": 1132053, "name": "ZWAINZ FARMS", "level": 0, "country": 840, "updated_at": 1455674299, "disable": 0, "end_at": 0, "shape": 0, "warning": 1, "radius": 8047, "lat": 47.720716, "lng": -117.909404, "type": 31, "city": "Davenport", "points": ""}, {"begin_at": 0, "area_id": 1132079, "name": "RUCILLA'S ROOST", "level": 0, "country": 840, "updated_at": 1455674299, "disable": 0, "end_at": 0, "shape": 0, "warning": 1, "radius": 8047, "lat": 48.137294, "lng": -123.112719, "type": 31, "city": "Sequim", "points": ""}, {"begin_at": 0, "area_id": 1132092, "name": "PARADISE AIR RANCH", "level": 0, "country": 840, "updated_at": 1455674299, "disable": 0, "end_at": 0, "shape": 0, "warning": 1, "radius": 8047, "lat": 47.470726, "lng": -117.419091, "type": 31, "city": "Cheney", "points": ""}, {"begin_at": 0, "area_id": 1132094, "name": "FOWLERS NW 40", "level": 0, "country": 840, "updated_at": 1455674299, "disable": 0, "end_at": 0, "shape": 0, "warning": 1, "radius": 8047, "lat": 47.520725, "lng": -117.462705, "type": 31, "city": "Cheney", "points": ""}, {"begin_at": 0, "area_id": 1132112, "name": "WISSLER'S", "level": 0, "country": 840, "updated_at": 1455674299, "disable": 0, "end_at": 0, "shape": 0, "warning": 1, "radius": 8047, "lat": 46.840378, "lng": -122.916245, "type": 31, "city": "Tenino", "points": ""}, {"begin_at": 0, "area_id": 1132139, "name": "FISHER RANCH", "level": 0, "country": 840, "updated_at": 1455674299, "disable": 0, "end_at": 0, "shape": 0, "warning": 1, "radius": 8047, "lat": 46.749867, "lng": -118.417758, "type": 31, "city": "Connell", "points": ""}, {"begin_at": 0, "area_id": 1132155, "name": "TAKE FIVE", "level": 0, "country": 840, "updated_at": 1455674299, "disable": 0, "end_at": 0, "shape": 0, "warning": 1, "radius": 8047, "lat": 46.780683, "lng": -120.444231, "type": 31, "city": "Yakima", "points": ""}, {"begin_at": 0, "area_id": 1132166, "name": "RAG WING", "level": 0, "country": 840, "updated_at": 1455674299, "disable": 0, "end_at": 0, "shape": 0, "warning": 1, "radius": 8047, "lat": 45.083994, "lng": -89.029831, "type": 31, "city": "Antigo", "points": ""}, {"begin_at": 0, "area_id": 1132167, "name": "RUTHERFORD", "level": 0, "country": 840, "updated_at": 1455674299, "disable": 0, "end_at": 0, "shape": 0, "warning": 1, "radius": 8047, "lat": 44.604133, "lng": -92.046561, "type": 31, "city": "Durand", "points": ""}, {"begin_at": 0, "area_id": 1132178, "name": "RED ROOF", "level": 0, "country": 840, "updated_at": 1455674299, "disable": 0, "end_at": 0, "shape": 0, "warning": 1, "radius": 8047, "lat": 45.585796, "lng": -88.003729, "type": 31, "city": "Pembine", "points": ""}, {"begin_at": 0, "area_id": 1132181, "name": "TURTLE", "level": 0, "country": 840, "updated_at": 1455674299, "disable": 0, "end_at": 0, "shape": 0, "warning": 1, "radius": 8047, "lat": 42.50696, "lng": -88.91483, "type": 31, "city": "Clinton", "points": ""}, {"begin_at": 0, "area_id": 1132185, "name": "FLORIDA NORTH", "level": 0, "country": 840, "updated_at": 1455674299, "disable": 0, "end_at": 0, "shape": 0, "warning": 1, "radius": 8047, "lat": 45.659444, "lng": -91.5225, "type": 31, "city": "Birchwood", "points": ""}, {"begin_at": 0, "area_id": 1132190, "name": "GATEWAY", "level": 0, "country": 840, "updated_at": 1455674299, "disable": 0, "end_at": 0, "shape": 0, "warning": 1, "radius": 8047, "lat": 45.133295, "lng": -91.450159, "type": 31, "city": "Bloomer", "points": ""}, {"begin_at": 0, "area_id": 1132191, "name": "C JEIDY FARMS", "level": 0, "country": 840, "updated_at": 1455674299, "disable": 0, "end_at": 0, "shape": 0, "warning": 1, "radius": 8047, "lat": 42.881656, "lng": -90.860682, "type": 31, "city": "Lancaster", "points": ""}, {"begin_at": 0, "area_id": 1132205, "name": "CRANE FIELD", "level": 0, "country": 840, "updated_at": 1455674299, "disable": 0, "end_at": 0, "shape": 0, "warning": 1, "radius": 8047, "lat": 44.909684, "lng": -91.241818, "type": 31, "city": "Lake Wissota", "points": ""}, {"begin_at": 0, "area_id": 1132215, "name": "CLOUD DANCER PVT", "level": 0, "country": 840, "updated_at": 1455674299, "disable": 0, "end_at": 0, "shape": 0, "warning": 1, "radius": 8047, "lat": 45.311944, "lng": -91.589722, "type": 31, "city": "Chetek", "points": ""}, {"begin_at": 0, "area_id": 1132224, "name": "SCHEWE", "level": 0, "country": 840, "updated_at": 1455674299, "disable": 0, "end_at": 0, "shape": 0, "warning": 1, "radius": 8047, "lat": 44.617758, "lng": -88.666767, "type": 31, "city": "Clintonville", "points": ""}, {"begin_at": 0, "area_id": 1132249, "name": "BARK RIVER", "level": 0, "country": 840, "updated_at": 1455674299, "disable": 0, "end_at": 0, "shape": 0, "warning": 1, "radius": 8047, "lat": 43.033342, "lng": -88.458154, "type": 31, "city": "Dousman", "points": ""}, {"begin_at": 0, "area_id": 1132253, "name": "DURAND MUNI", "level": 0, "country": 840, "updated_at": 1455674299, "disable": 0, "end_at": 0, "shape": 0, "warning": 1, "radius": 8047, "lat": 44.538856, "lng": -92.014058, "type": 31, "city": "Durand", "points": ""}, {"begin_at": 0, "area_id": 1132296, "name": "CIRCLE T", "level": 0, "country": 840, "updated_at": 1455674299, "disable": 0, "end_at": 0, "shape": 0, "warning": 1, "radius": 8047, "lat": 45.684033, "lng": -92.687139, "type": 31, "city": "Grantsburg", "points": ""}, {"begin_at": 0, "area_id": 1132299, "name": "C R ACRES", "level": 0, "country": 840, "updated_at": 1455674299, "disable": 0, "end_at": 0, "shape": 0, "warning": 1, "radius": 8047, "lat": 44.280428, "lng": -88.093578, "type": 31, "city": "Wrightstown", "points": ""}, {"begin_at": 0, "area_id": 1132309, "name": "BLACK OTTER", "level": 0, "country": 840, "updated_at": 1455674299, "disable": 0, "end_at": 0, "shape": 0, "warning": 1, "radius": 8047, "lat": 44.329444, "lng": -88.623611, "type": 31, "city": "Hortonville", "points": ""}, {"begin_at": 0, "area_id": 1132315, "name": "CIRCLE K", "level": 0, "country": 840, "updated_at": 1455674299, "disable": 0, "end_at": 0, "shape": 0, "warning": 1, "radius": 8047, "lat": 45.341633, "lng": -89.674574, "type": 31, "city": "Irma", "points": ""}, {"begin_at": 0, "area_id": 1132318, "name": "HACKLANDER", "level": 0, "country": 840, "updated_at": 1455674299, "disable": 0, "end_at": 0, "shape": 0, "warning": 1, "radius": 8047, "lat": 42.654039, "lng": -88.894217, "type": 31, "city": "Janesville", "points": ""}, {"begin_at": 0, "area_id": 1132336, "name": "LODI LAKELAND", "level": 0, "country": 840, "updated_at": 1455674299, "disable": 0, "end_at": 0, "shape": 0, "warning": 1, "radius": 8047, "lat": 43.333322, "lng": -89.520954, "type": 31, "city": "Lodi", "points": ""}, {"begin_at": 0, "area_id": 1132343, "name": "LARSON", "level": 0, "country": 840, "updated_at": 1455674299, "disable": 0, "end_at": 0, "shape": 0, "warning": 1, "radius": 8047, "lat": 45.081374, "lng": -87.679273, "type": 31, "city": "Marinette", "points": ""}, {"begin_at": 0, "area_id": 1132346, "name": "SKYPORT", "level": 0, "country": 840, "updated_at": 1455674299, "disable": 0, "end_at": 0, "shape": 0, "warning": 1, "radius": 8047, "lat": 44.920241, "lng": -91.9749, "type": 31, "city": "Menomonie", "points": ""}, {"begin_at": 0, "area_id": 1132347, "name": "BLAIR LAKE", "level": 0, "country": 840, "updated_at": 1455674299, "disable": 0, "end_at": 0, "shape": 0, "warning": 1, "radius": 8047, "lat": 46.097448, "lng": -90.163221, "type": 31, "city": "Mercer", "points": ""}, {"begin_at": 0, "area_id": 1132348, "name": "HAYMEADOW", "level": 0, "country": 840, "updated_at": 1455674299, "disable": 0, "end_at": 0, "shape": 0, "warning": 1, "radius": 8047, "lat": 45.274963, "lng": -89.491789, "type": 31, "city": "Merrill", "points": ""}, {"begin_at": 0, "area_id": 1132349, "name": "KNIGHT AIRE", "level": 0, "country": 840, "updated_at": 1455674299, "disable": 0, "end_at": 0, "shape": 0, "warning": 1, "radius": 8047, "lat": 45.296111, "lng": -89.641111, "type": 31, "city": "Irma", "points": ""}, {"begin_at": 0, "area_id": 1132357, "name": "DOERING FARMS AIRFIELD", "level": 0, "country": 840, "updated_at": 1455674299, "disable": 0, "end_at": 0, "shape": 0, "warning": 1, "radius": 8047, "lat": 43.201394, "lng": -88.333429, "type": 31, "city": "Merton", "points": ""}, {"begin_at": 0, "area_id": 1132363, "name": "MORRISONVILLE INTL", "level": 0, "country": 840, "updated_at": 1455674299, "disable": 0, "end_at": 0, "shape": 0, "warning": 1, "radius": 8047, "lat": 43.274713, "lng": -89.350395, "type": 31, "city": "De Forest", "points": ""}, {"begin_at": 0, "area_id": 1132367, "name": "DOCKEN FIELD", "level": 0, "country": 840, "updated_at": 1455674299, "disable": 0, "end_at": 0, "shape": 0, "warning": 1, "radius": 8047, "lat": 42.991108, "lng": -89.753456, "type": 31, "city": "Mount Horeb", "points": ""}, {"begin_at": 0, "area_id": 1132372, "name": "MURMURING SPRINGS", "level": 0, "country": 840, "updated_at": 1455674299, "disable": 0, "end_at": 0, "shape": 0, "warning": 1, "radius": 8047, "lat": 44.006356, "lng": -90.019239, "type": 31, "city": "Friendship", "points": ""},