{"release_limits": [{"begin_at": 0, "area_id": 1129882, "name": "MELROSE LANDING", "level": 0, "country": 840, "updated_at": 1455674299, "disable": 0, "end_at": 0, "shape": 0, "warning": 1, "radius": 8047, "lat": 32.139167, "lng": -80.868056, "type": 31, "city": "Bluffton", "points": ""}, {"begin_at": 0, "area_id": 1129951, "name": "BISON MUNI", "level": 0, "country": 840, "updated_at": 1455674299, "disable": 0, "end_at": 0, "shape": 0, "warning": 1, "radius": 8047, "lat": 45.518333, "lng": -102.467833, "type": 31, "city": "Bison", "points": ""}, {"begin_at": 0, "area_id": 1129979, "name": "EUREKA MUNI", "level": 0, "country": 840, "updated_at": 1455674299, "disable": 0, "end_at": 0, "shape": 0, "warning": 1, "radius": 8047, "lat": 45.799889, "lng": -99.642778, "type": 31, "city": "Eureka", "points": ""}, {"begin_at": 0, "area_id": 1129986, "name": "FLANDREAU MUNI", "level": 0, "country": 840, "updated_at": 1455674299, "disable": 0, "end_at": 0, "shape": 0, "warning": 1, "radius": 8047, "lat": 44.004374, "lng": -96.594728, "type": 31, "city": "Flandreau", "points": ""}, {"begin_at": 0, "area_id": 1130158, "name": "GENERAL DEWITT SPAIN", "level": 0, "country": 840, "updated_at": 1455674299, "disable": 0, "end_at": 0, "shape": 0, "warning": 1, "radius": 8047, "lat": 35.200694, "lng": -90.053972, "type": 31, "city": "Memphis", "points": ""}, {"begin_at": 0, "area_id": 1130193, "name": "WOLF RIVER", "level": 0, "country": 840, "updated_at": 1455674299, "disable": 0, "end_at": 0, "shape": 0, "warning": 1, "radius": 8047, "lat": 35.054024, "lng": -89.580026, "type": 31, "city": "Piperton", "points": ""}, {"begin_at": 0, "area_id": 1130207, "name": "SPRINGFIELD ROBERTSON COUNTY", "level": 0, "country": 840, "updated_at": 1455674299, "disable": 0, "end_at": 0, "shape": 0, "warning": 1, "radius": 8047, "lat": 36.536694, "lng": -86.921167, "type": 31, "city": "Springfield", "points": ""}, {"begin_at": 0, "area_id": 1130230, "name": "OLD HOPPE PLACE", "level": 0, "country": 840, "updated_at": 1455674299, "disable": 0, "end_at": 0, "shape": 0, "warning": 1, "radius": 8047, "lat": 27.800244, "lng": -97.851021, "type": 31, "city": "Robstown", "points": ""}, {"begin_at": 0, "area_id": 1130232, "name": "ALBANY MUNI", "level": 0, "country": 840, "updated_at": 1455674299, "disable": 0, "end_at": 0, "shape": 0, "warning": 1, "radius": 8047, "lat": 32.721389, "lng": -99.267583, "type": 31, "city": "Albany", "points": ""}, {"begin_at": 0, "area_id": 1130253, "name": "RIVER FALLS", "level": 0, "country": 840, "updated_at": 1455674299, "disable": 0, "end_at": 0, "shape": 0, "warning": 1, "radius": 8047, "lat": 35.081425, "lng": -101.755797, "type": 31, "city": "Amarillo", "points": ""}, {"begin_at": 0, "area_id": 1130260, "name": "FLYIN TIGER", "level": 0, "country": 840, "updated_at": 1455674299, "disable": 0, "end_at": 0, "shape": 0, "warning": 1, "radius": 8047, "lat": 29.264967, "lng": -95.41257, "type": 31, "city": "Danbury", "points": ""}, {"begin_at": 0, "area_id": 1130466, "name": "SUDDEN STOP", "level": 0, "country": 840, "updated_at": 1455674299, "disable": 0, "end_at": 0, "shape": 0, "warning": 1, "radius": 8047, "lat": 33.571498, "lng": -96.907225, "type": 31, "city": "Collinsville", "points": ""}, {"begin_at": 0, "area_id": 1130550, "name": "HERITAGE CREEK AIRSTRIP", "level": 0, "country": 840, "updated_at": 1455674299, "disable": 0, "end_at": 0, "shape": 0, "warning": 1, "radius": 8047, "lat": 33.166028, "lng": -97.479889, "type": 31, "city": "New Fairview", "points": ""}, {"begin_at": 0, "area_id": 1130571, "name": "DENVER CITY", "level": 0, "country": 840, "updated_at": 1455674299, "disable": 0, "end_at": 0, "shape": 0, "warning": 1, "radius": 8047, "lat": 32.97466, "lng": -102.845096, "type": 31, "city": "Denver City", "points": ""}, {"begin_at": 0, "area_id": 1130586, "name": "TERRELL COUNTY", "level": 0, "country": 840, "updated_at": 1455674299, "disable": 0, "end_at": 0, "shape": 0, "warning": 1, "radius": 8047, "lat": 30.046472, "lng": -102.213167, "type": 31, "city": "Sanderson", "points": ""}, {"begin_at": 0, "area_id": 1130587, "name": "DUBLIN MUNI", "level": 0, "country": 840, "updated_at": 1455674299, "disable": 0, "end_at": 0, "shape": 0, "warning": 1, "radius": 8047, "lat": 32.068199, "lng": -98.325321, "type": 31, "city": "Dublin", "points": ""}, {"begin_at": 0, "area_id": 1130592, "name": "MAVERICK COUNTY MEMORIAL INTL", "level": 0, "country": 840, "updated_at": 1455674299, "disable": 0, "end_at": 0, "shape": 0, "warning": 1, "radius": 8047, "lat": 28.857093, "lng": -100.513468, "type": 31, "city": "Elm Creek", "points": ""}, {"begin_at": 0, "area_id": 1130664, "name": "AERO ESTATES", "level": 0, "country": 840, "updated_at": 1455674299, "disable": 0, "end_at": 0, "shape": 0, "warning": 1, "radius": 8047, "lat": 32.08175, "lng": -95.452503, "type": 31, "city": "Frankston", "points": ""}, {"begin_at": 0, "area_id": 1130702, "name": "GLADEWATER MUNI", "level": 0, "country": 840, "updated_at": 1455674299, "disable": 0, "end_at": 0, "shape": 0, "warning": 1, "radius": 8047, "lat": 32.528833, "lng": -94.97175, "type": 31, "city": "Gladewater", "points": ""}, {"begin_at": 0, "area_id": 1130788, "name": "HOUSTON FORT BEND", "level": 0, "country": 840, "updated_at": 1455674299, "disable": 0, "end_at": 0, "shape": 0, "warning": 1, "radius": 8047, "lat": 29.499167, "lng": -95.898389, "type": 31, "city": "Pleak", "points": ""}, {"begin_at": 0, "area_id": 1130825, "name": "CLARK", "level": 0, "country": 840, "updated_at": 1455674299, "disable": 0, "end_at": 0, "shape": 0, "warning": 1, "radius": 8047, "lat": 33.133611, "lng": -97.297028, "type": 31, "city": "Northlake", "points": ""}, {"begin_at": 0, "area_id": 1130865, "name": "KIRBYVILLE", "level": 0, "country": 840, "updated_at": 1455674299, "disable": 0, "end_at": 0, "shape": 0, "warning": 1, "radius": 8047, "lat": 30.646565, "lng": -93.914903, "type": 31, "city": "Kirbyville", "points": ""}, {"begin_at": 0, "area_id": 1130866, "name": "HARRISON FIELD OF KNOX CITY", "level": 0, "country": 840, "updated_at": 1455674299, "disable": 0, "end_at": 0, "shape": 0, "warning": 1, "radius": 8047, "lat": 33.438151, "lng": -99.812869, "type": 31, "city": "Knox City", "points": ""}, {"begin_at": 0, "area_id": 1130869, "name": "JOE VAUGHN SPRAYING", "level": 0, "country": 840, "updated_at": 1455674299, "disable": 0, "end_at": 0, "shape": 0, "warning": 1, "radius": 8047, "lat": 34.392833, "lng": -101.759917, "type": 31, "city": "Kress", "points": ""}, {"begin_at": 0, "area_id": 1130956, "name": "WOLFE AIR PARK", "level": 0, "country": 840, "updated_at": 1455674299, "disable": 0, "end_at": 0, "shape": 0, "warning": 1, "radius": 8047, "lat": 29.479083, "lng": -95.326556, "type": 31, "city": "Manvel", "points": ""}, {"begin_at": 0, "area_id": 1131021, "name": "MINEOLA WISENER FIELD", "level": 0, "country": 840, "updated_at": 1455674299, "disable": 0, "end_at": 0, "shape": 0, "warning": 1, "radius": 8047, "lat": 32.676694, "lng": -95.510806, "type": 31, "city": "Mineola", "points": ""}, {"begin_at": 0, "area_id": 1131054, "name": "MULESHOE MUNI", "level": 0, "country": 840, "updated_at": 1455674299, "disable": 0, "end_at": 0, "shape": 0, "warning": 1, "radius": 8047, "lat": 34.185136, "lng": -102.641098, "type": 31, "city": "Muleshoe", "points": ""}, {"begin_at": 0, "area_id": 1131098, "name": "DALLAS SOUTH PORT", "level": 0, "country": 840, "updated_at": 1455674299, "disable": 0, "end_at": 0, "shape": 0, "warning": 1, "radius": 8047, "lat": 32.477383, "lng": -96.685417, "type": 31, "city": "Palmer", "points": ""}, {"begin_at": 0, "area_id": 1131147, "name": "POST-GARZA COUNTY MUNI", "level": 0, "country": 840, "updated_at": 1455674299, "disable": 0, "end_at": 0, "shape": 0, "warning": 1, "radius": 8047, "lat": 33.203306, "lng": -101.338222, "type": 31, "city": "Post", "points": ""}, {"begin_at": 0, "area_id": 1131203, "name": "LANE AIRPARK", "level": 0, "country": 840, "updated_at": 1455674299, "disable": 0, "end_at": 0, "shape": 0, "warning": 1, "radius": 8047, "lat": 29.524406, "lng": -95.775228, "type": 31, "city": "Rosenberg", "points": ""}, {"begin_at": 0, "area_id": 1131262, "name": "SEAGRAVES", "level": 0, "country": 840, "updated_at": 1455674299, "disable": 0, "end_at": 0, "shape": 0, "warning": 1, "radius": 8047, "lat": 32.954553, "lng": -102.540899, "type": 31, "city": "Seagraves", "points": ""}, {"begin_at": 0, "area_id": 1131294, "name": "CAIN", "level": 0, "country": 840, "updated_at": 1455674299, "disable": 0, "end_at": 0, "shape": 0, "warning": 1, "radius": 8047, "lat": 33.354494, "lng": -97.439058, "type": 31, "city": "Decatur", "points": ""}, {"begin_at": 0, "area_id": 1131314, "name": "ARLEDGE FIELD", "level": 0, "country": 840, "updated_at": 1455674299, "disable": 0, "end_at": 0, "shape": 0, "warning": 1, "radius": 8047, "lat": 32.910472, "lng": -99.734167, "type": 31, "city": "Stamford", "points": ""}, {"begin_at": 0, "area_id": 1131320, "name": "ALVIE COLE RANCH", "level": 0, "country": 840, "updated_at": 1455674299, "disable": 0, "end_at": 0, "shape": 0, "warning": 1, "radius": 8047, "lat": 31.643611, "lng": -100.969528, "type": 31, "city": "Sterling City", "points": ""}, {"begin_at": 0, "area_id": 1131333, "name": "T-BAR", "level": 0, "country": 840, "updated_at": 1455674299, "disable": 0, "end_at": 0, "shape": 0, "warning": 1, "radius": 8047, "lat": 33.181, "lng": -101.819389, "type": 31, "city": "Tahoka", "points": ""}, {"begin_at": 0, "area_id": 1131336, "name": "TAYLOR MUNI", "level": 0, "country": 840, "updated_at": 1455674299, "disable": 0, "end_at": 0, "shape": 0, "warning": 1, "radius": 8047, "lat": 30.572639, "lng": -97.443194, "type": 31, "city": "Taylor", "points": ""}, {"begin_at": 0, "area_id": 1131366, "name": "CITY OF TULIA/SWISHER COUNTY MUNI", "level": 0, "country": 840, "updated_at": 1455674299, "disable": 0, "end_at": 0, "shape": 0, "warning": 1, "radius": 8047, "lat": 34.566825, "lng": -101.781461, "type": 31, "city": "Tulia", "points": ""}, {"begin_at": 0, "area_id": 1131388, "name": "OLDHAM COUNTY", "level": 0, "country": 840, "updated_at": 1455674299, "disable": 0, "end_at": 0, "shape": 0, "warning": 1, "radius": 8047, "lat": 35.230714, "lng": -102.398768, "type": 31, "city": "Vega", "points": ""}, {"begin_at": 0, "area_id": 1131441, "name": "FLYING H RANCH", "level": 0, "country": 840, "updated_at": 1455674299, "disable": 0, "end_at": 0, "shape": 0, "warning": 1, "radius": 8047, "lat": 33.630571, "lng": -96.940968, "type": 31, "city": "Whitesboro", "points": ""}, {"begin_at": 0, "area_id": 1131478, "name": "YOAKUM MUNI", "level": 0, "country": 840, "updated_at": 1455674299, "disable": 0, "end_at": 0, "shape": 0, "warning": 1, "radius": 8047, "lat": 29.313167, "lng": -97.138417, "type": 31, "city": "Yoakum", "points": ""}, {"begin_at": 0, "area_id": 1131493, "name": "DUCHESNE MUNI", "level": 0, "country": 840, "updated_at": 1455674299, "disable": 0, "end_at": 0, "shape": 0, "warning": 1, "radius": 8047, "lat": 40.193753, "lng": -110.382979, "type": 31, "city": "Duchesne", "points": ""}, {"begin_at": 0, "area_id": 1131519, "name": "WAYNE WONDERLAND", "level": 0, "country": 840, "updated_at": 1455674299, "disable": 0, "end_at": 0, "shape": 0, "warning": 1, "radius": 8047, "lat": 38.362694, "lng": -111.59575, "type": 31, "city": "Loa", "points": ""}, {"begin_at": 0, "area_id": 1131541, "name": "ROOSEVELT MUNI", "level": 0, "country": 840, "updated_at": 1455674299, "disable": 0, "end_at": 0, "shape": 0, "warning": 1, "radius": 8047, "lat": 40.278417, "lng": -110.051389, "type": 31, "city": "Roosevelt", "points": ""}, {"begin_at": 0, "area_id": 1131639, "name": "LOCKERMAN", "level": 0, "country": 840, "updated_at": 1455674299, "disable": 0, "end_at": 0, "shape": 0, "warning": 1, "radius": 8047, "lat": 37.038199, "lng": -79.59614, "type": 31, "city": "North Shore", "points": ""}, {"begin_at": 0, "area_id": 1131682, "name": "SMITH MOUNTAIN LAKE", "level": 0, "country": 840, "updated_at": 1455674299, "disable": 0, "end_at": 0, "shape": 0, "warning": 1, "radius": 8047, "lat": 37.107722, "lng": -79.592472, "type": 31, "city": "North Shore", "points": ""}, {"begin_at": 0, "area_id": 1131839, "name": "SKYLINE", "level": 0, "country": 840, "updated_at": 1455674299, "disable": 0, "end_at": 0, "shape": 0, "warning": 1, "radius": 8047, "lat": 48.483158, "lng": -122.684618, "type": 31, "city": "Anacortes", "points": ""}, {"begin_at": 0, "area_id": 1131880, "name": "SEAPLANE LANDING AREA", "level": 0, "country": 840, "updated_at": 1455674299, "disable": 0, "end_at": 0, "shape": 0, "warning": 1, "radius": 8047, "lat": 48.208333, "lng": -120.591667, "type": 31, "city": "Stehekin", "points": ""}, {"begin_at": 0, "area_id": 1131936, "name": "FORKS", "level": 0, "country": 840, "updated_at": 1455674299, "disable": 0, "end_at": 0, "shape": 0, "warning": 1, "radius": 8047, "lat": 47.937718, "lng": -124.395921, "type": 31, "city": "Forks", "points": ""}, {"begin_at": 0, "area_id": 1131977, "name": "WHIDBEY AIR PARK", "level": 0, "country": 840, "updated_at": 1455674299, "disable": 0, "end_at": 0, "shape": 0, "warning": 1, "radius": 8047, "lat": 48.017512, "lng": -122.437728, "type": 31, "city": "Langley", "points": ""}, {"begin_at": 0, "area_id": 1131979, "name": "LAKE WENATCHEE STATE", "level": 0, "country": 840, "updated_at": 1455674299, "disable": 0, "end_at": 0, "shape": 0, "warning": 1, "radius": 8047, "lat": 47.819414, "lng": -120.719894, "type": 31, "city": "Leavenworth", "points": ""}, {"begin_at": 0, "area_id": 1132000, "name": "FIRST AIR FIELD", "level": 0, "country": 840, "updated_at": 1455674299, "disable": 0, "end_at": 0, "shape": 0, "warning": 1, "radius": 8047, "lat": 47.871364, "lng": -121.995244, "type": 31, "city": "Monroe", "points": ""}, {"begin_at": 0, "area_id": 1132057, "name": "TIETON STATE", "level": 0, "country": 840, "updated_at": 1455674299, "disable": 0, "end_at": 0, "shape": 0, "warning": 1, "radius": 8047, "lat": 46.637551, "lng": -121.123979, "type": 31, "city": "Tieton", "points": ""}, {"begin_at": 0, "area_id": 1132069, "name": "KENMORE AIR HARBOR", "level": 0, "country": 840, "updated_at": 1455674299, "disable": 0, "end_at": 0, "shape": 0, "warning": 1, "radius": 8047, "lat": 47.628987, "lng": -122.338738, "type": 31, "city": "Seattle", "points": ""}, {"begin_at": 0, "area_id": 1132090, "name": "SHADY ACRES", "level": 0, "country": 840, "updated_at": 1455674299, "disable": 0, "end_at": 0, "shape": 0, "warning": 1, "radius": 8047, "lat": 47.070389, "lng": -122.371083, "type": 31, "city": "Elk Plain", "points": ""}, {"begin_at": 0, "area_id": 1132104, "name": "STEHEKIN STATE", "level": 0, "country": 840, "updated_at": 1455674299, "disable": 0, "end_at": 0, "shape": 0, "warning": 1, "radius": 8047, "lat": 48.345778, "lng": -120.720806, "type": 31, "city": "Stehekin", "points": ""}, {"begin_at": 0, "area_id": 1132135, "name": "WARDEN", "level": 0, "country": 840, "updated_at": 1455674299, "disable": 0, "end_at": 0, "shape": 0, "warning": 1, "radius": 8047, "lat": 46.965815, "lng": -119.066332, "type": 31, "city": "Warden", "points": ""}, {"begin_at": 0, "area_id": 1132154, "name": "WOODLAND STATE", "level": 0, "country": 840, "updated_at": 1455674299, "disable": 0, "end_at": 0, "shape": 0, "warning": 1, "radius": 8047, "lat": 45.898818, "lng": -122.737274, "type": 31, "city": "Woodland", "points": ""}, {"begin_at": 0, "area_id": 1132324, "name": "FRANKS", "level": 0, "country": 840, "updated_at": 1455674299, "disable": 0, "end_at": 0, "shape": 0, "warning": 1, "radius": 8047, "lat": 45.883286, "lng": -90.000155, "type": 31, "city": "Lac du Flambeau", "points": ""}, {"begin_at": 0, "area_id": 1132408, "name": "PALMYRA MUNI", "level": 0, "country": 840, "updated_at": 1455674299, "disable": 0, "end_at": 0, "shape": 0, "warning": 1, "radius": 8047, "lat": 42.883544, "lng": -88.599917, "type": 31, "city": "Palmyra", "points": ""}, {"begin_at": 0, "area_id": 1132487, "name": "BLOYER FIELD", "level": 0, "country": 840, "updated_at": 1455674299, "disable": 0, "end_at": 0, "shape": 0, "warning": 1, "radius": 8047, "lat": 43.976222, "lng": -90.480611, "type": 31, "city": "Tomah", "points": ""}, {"begin_at": 0, "area_id": 1132548, "name": "EAST LIVERPOOL", "level": 0, "country": 840, "updated_at": 1455674299, "disable": 0, "end_at": 0, "shape": 0, "warning": 1, "radius": 8047, "lat": 40.629231, "lng": -80.52479, "type": 31, "city": "Chester", "points": ""}, {"begin_at": 0, "area_id": 1132559, "name": "ROBERT NEWLON FIELD", "level": 0, "country": 840, "updated_at": 1455674299, "disable": 0, "end_at": 0, "shape": 0, "warning": 1, "radius": 8047, "lat": 38.457029, "lng": -82.31376, "type": 31, "city": "Pea Ridge", "points": ""}, {"begin_at": 0, "area_id": 1182241, "name": "Fano", "level": 0, "country": 380, "updated_at": 1455674299, "disable": 0, "end_at": 0, "shape": 0, "warning": 1, "radius": 8047, "lat": 43.825833, "lng": 13.0275, "type": 31, "city": "Fano", "points": ""}, {"begin_at": 0, "area_id": 1132600, "name": "WARWOOD - MARTINS FERRY", "level": 0, "country": 840, "updated_at": 1455674299, "disable": 0, "end_at": 0, "shape": 0, "warning": 1, "radius": 8047, "lat": 40.093128, "lng": -80.717859, "type": 31, "city": "Martins Ferry", "points": ""}, {"begin_at": 0, "area_id": 1132601, "name": "MINGO COUNTY", "level": 0, "country": 840, "updated_at": 1455674299, "disable": 0, "end_at": 0, "shape": 0, "warning": 1, "radius": 8047, "lat": 37.687601, "lng": -82.260973, "type": 31, "city": "Williamson", "points": ""}, {"begin_at": 0, "area_id": 1132603, "name": "ALPINE", "level": 0, "country": 840, "updated_at": 1455674299, "disable": 0, "end_at": 0, "shape": 0, "warning": 1, "radius": 8047, "lat": 43.181774, "lng": -111.038524, "type": 31, "city": "Alpine", "points": ""}, {"begin_at": 0, "area_id": 1132632, "name": "GTR GREEN RIVER INTERGALACTIC SPACEPORT", "level": 0, "country": 840, "updated_at": 1455674299, "disable": 0, "end_at": 0, "shape": 0, "warning": 1, "radius": 8047, "lat": 41.458139, "lng": -109.489917, "type": 31, "city": "Green River", "points": ""}, {"begin_at": 0, "area_id": 1133176, "name": "BOWMAN MUNI", "level": 0, "country": 840, "updated_at": 1455674299, "disable": 0, "end_at": 0, "shape": 0, "warning": 1, "radius": 8047, "lat": 46.186991, "lng": -103.428081, "type": 31, "city": "Bowman", "points": ""}, {"begin_at": 0, "area_id": 1137154, "name": "WASKISH MUNI", "level": 0, "country": 840, "updated_at": 1455674299, "disable": 0, "end_at": 0, "shape": 0, "warning": 1, "radius": 8047, "lat": 48.147565, "lng": -94.517475, "type": 31, "city": "Waskish", "points": ""}, {"begin_at": 0, "area_id": 1137234, "name": "FITIUTA", "level": 0, "country": 840, "updated_at": 1455674299, "disable": 0, "end_at": 0, "shape": 0, "warning": 1, "radius": 8047, "lat": -14.215776, "lng": -169.423906, "type": 31, "city": "Fale\u0101sao", "points": ""}, {"begin_at": 0, "area_id": 1137240, "name": "ATKA", "level": 0, "country": 840, "updated_at": 1455674299, "disable": 0, "end_at": 0, "shape": 0, "warning": 1, "radius": 8047, "lat": 52.220586, "lng": -174.206183, "type": 31, "city": "Atka", "points": ""}, {"begin_at": 0, "area_id": 1137244, "name": "DRIFTWOOD BAY AIR FORCE STATION", "level": 0, "country": 840, "updated_at": 1455674299, "disable": 0, "end_at": 0, "shape": 0, "warning": 1, "radius": 8047, "lat": 53.971111, "lng": -166.877222, "type": 31, "city": "Dutch Harbor", "points": ""}, {"begin_at": 0, "area_id": 1137260, "name": "ALLEN AAF", "level": 0, "country": 840, "updated_at": 1455674299, "disable": 0, "end_at": 0, "shape": 0, "warning": 1, "radius": 8047, "lat": 63.99516, "lng": -145.720025, "type": 31, "city": "Fort Greely", "points": ""}, {"begin_at": 0, "area_id": 1137270, "name": "BETTLES", "level": 0, "country": 840, "updated_at": 1455674299, "disable": 0, "end_at": 0, "shape": 0, "warning": 1, "radius": 8047, "lat": 66.913944, "lng": -151.529056, "type": 31, "city": "Bettles", "points": ""}, {"begin_at": 0, "area_id": 1137274, "name": "BIRCHWOOD", "level": 0, "country": 840, "updated_at": 1455674299, "disable": 0, "end_at": 0, "shape": 0, "warning": 1, "radius": 8047, "lat": 61.415964, "lng": -149.508495, "type": 31, "city": "Eagle River", "points": ""}, {"begin_at": 0, "area_id": 1137334, "name": "NEWTOK", "level": 0, "country": 840, "updated_at": 1455674299, "disable": 0, "end_at": 0, "shape": 0, "warning": 1, "radius": 8047, "lat": 60.939139, "lng": -164.64125, "type": 31, "city": "Newtok", "points": ""}, {"begin_at": 0, "area_id": 1137350, "name": "NIKOLAI", "level": 0, "country": 840, "updated_at": 1455674299, "disable": 0, "end_at": 0, "shape": 0, "warning": 1, "radius": 8047, "lat": 63.018556, "lng": -154.358444, "type": 31, "city": "Nikolai", "points": ""}, {"begin_at": 0, "area_id": 1137356, "name": "GALBRAITH LAKE", "level": 0, "country": 840, "updated_at": 1455674299, "disable": 0, "end_at": 0, "shape": 0, "warning": 1, "radius": 8047, "lat": 68.479667, "lng": -149.489917, "type": 31, "city": "Galbraith Lake", "points": ""}, {"begin_at": 0, "area_id": 1137362, "name": "GULKANA", "level": 0, "country": 840, "updated_at": 1455674299, "disable": 0, "end_at": 0, "shape": 0, "warning": 1, "radius": 8047, "lat": 62.154944, "lng": -145.454333, "type": 31, "city": "Gulkana", "points": ""}, {"begin_at": 0, "area_id": 1137368, "name": "ANGOON", "level": 0, "country": 840, "updated_at": 1455674299, "disable": 0, "end_at": 0, "shape": 0, "warning": 1, "radius": 8047, "lat": 57.503555, "lng": -134.585094, "type": 31, "city": "Angoon", "points": ""}, {"begin_at": 0, "area_id": 1137370, "name": "BIG LAKE", "level": 0, "country": 840, "updated_at": 1455674299, "disable": 0, "end_at": 0, "shape": 0, "warning": 1, "radius": 8047, "lat": 61.534683, "lng": -149.812544, "type": 31, "city": "Big Lake", "points": ""}, {"begin_at": 0, "area_id": 1137386, "name": "HAINES", "level": 0, "country": 840, "updated_at": 1455674299, "disable": 0, "end_at": 0, "shape": 0, "warning": 1, "radius": 8047, "lat": 59.243829, "lng": -135.523538, "type": 31, "city": "Haines", "points": ""}, {"begin_at": 0, "area_id": 1137410, "name": "MC KINLEY NATIONAL PARK", "level": 0, "country": 840, "updated_at": 1455674299, "disable": 0, "end_at": 0, "shape": 0, "warning": 1, "radius": 8047, "lat": 63.732598, "lng": -148.910638, "type": 31, "city": "Denali National Park and Preserve", "points": ""}, {"begin_at": 0, "area_id": 1137418, "name": "KOLIGANEK", "level": 0, "country": 840, "updated_at": 1455674299, "disable": 0, "end_at": 0, "shape": 0, "warning": 1, "radius": 8047, "lat": 59.726742, "lng": -157.260281, "type": 31, "city": "Koliganek", "points": ""}, {"begin_at": 0, "area_id": 1137422, "name": "KODIAK MUNI", "level": 0, "country": 840, "updated_at": 1455674299, "disable": 0, "end_at": 0, "shape": 0, "warning": 1, "radius": 8047, "lat": 57.805917, "lng": -152.373841, "type": 31, "city": "Kodiak", "points": ""}, {"begin_at": 0, "area_id": 1137444, "name": "KALTAG", "level": 0, "country": 840, "updated_at": 1455674299, "disable": 0, "end_at": 0, "shape": 0, "warning": 1, "radius": 8047, "lat": 64.31898, "lng": -158.741306, "type": 31, "city": "Kaltag", "points": ""}, {"begin_at": 0, "area_id": 1137462, "name": "MANOKOTAK", "level": 0, "country": 840, "updated_at": 1455674299, "disable": 0, "end_at": 0, "shape": 0, "warning": 1, "radius": 8047, "lat": 58.932056, "lng": -158.901889, "type": 31, "city": "Manokotak", "points": ""}, {"begin_at": 0, "area_id": 1137464, "name": "MC GRATH", "level": 0, "country": 840, "updated_at": 1455674299, "disable": 0, "end_at": 0, "shape": 0, "warning": 1, "radius": 8047, "lat": 62.952784, "lng": -155.607048, "type": 31, "city": "McGrath", "points": ""}, {"begin_at": 0, "area_id": 1137476, "name": "MOUNTAIN VILLAGE", "level": 0, "country": 840, "updated_at": 1455674299, "disable": 0, "end_at": 0, "shape": 0, "warning": 1, "radius": 8047, "lat": 62.094778, "lng": -163.682861, "type": 31, "city": "Mountain Village", "points": ""}, {"begin_at": 0, "area_id": 1137480, "name": "MCCARTHY", "level": 0, "country": 840, "updated_at": 1455674299, "disable": 0, "end_at": 0, "shape": 0, "warning": 1, "radius": 8047, "lat": 61.437819, "lng": -142.902503, "type": 31, "city": "Chitina", "points": ""}, {"begin_at": 0, "area_id": 1137534, "name": "PILOT POINT", "level": 0, "country": 840, "updated_at": 1455674299, "disable": 0, "end_at": 0, "shape": 0, "warning": 1, "radius": 8047, "lat": 57.580381, "lng": -157.571957, "type": 31, "city": "Pilot Point", "points": ""}, {"begin_at": 0, "area_id": 1137558, "name": "SHISHMAREF", "level": 0, "country": 840, "updated_at": 1455674299, "disable": 0, "end_at": 0, "shape": 0, "warning": 1, "radius": 8047, "lat": 66.249583, "lng": -166.089361, "type": 31, "city": "Shishmaref", "points": ""}, {"begin_at": 0, "area_id": 1137562, "name": "SELAWIK", "level": 0, "country": 840, "updated_at": 1455674299, "disable": 0, "end_at": 0, "shape": 0, "warning": 1, "radius": 8047, "lat": 66.600139, "lng": -159.98575, "type": 31, "city": "Selawik", "points": ""}, {"begin_at": 0, "area_id": 1137576, "name": "SPARREVOHN LRRS", "level": 0, "country": 840, "updated_at": 1455674299, "disable": 0, "end_at": 0, "shape": 0, "warning": 1, "radius": 8047, "lat": 61.097114, "lng": -155.574808, "type": 31, "city": "Aniak", "points": ""}, {"begin_at": 0, "area_id": 1137594, "name": "TATALINA LRRS", "level": 0, "country": 840, "updated_at": 1455674299, "disable": 0, "end_at": 0, "shape": 0, "warning": 1, "radius": 8047, "lat": 62.894915, "lng": -155.978013, "type": 31, "city": "McGrath", "points": ""}, {"begin_at": 0, "area_id": 1137612, "name": "KING COVE", "level": 0, "country": 840, "updated_at": 1455674299, "disable": 0, "end_at": 0, "shape": 0, "warning": 1, "radius": 8047, "lat": 55.116347, "lng": -162.266247, "type": 31, "city": "King Cove", "points": ""}, {"begin_at": 0, "area_id": 1137620, "name": "BEAVER", "level": 0, "country": 840, "updated_at": 1455674299, "disable": 0, "end_at": 0, "shape": 0, "warning": 1, "radius": 8047, "lat": 66.362222, "lng": -147.4065, "type": 31, "city": "Beaver", "points": ""}, {"begin_at": 0, "area_id": 1137628, "name": "WHITE MOUNTAIN", "level": 0, "country": 840, "updated_at": 1455674299, "disable": 0, "end_at": 0, "shape": 0, "warning": 1, "radius": 8047, "lat": 64.689194, "lng": -163.41275, "type": 31, "city": "White Mountain", "points": ""}, {"begin_at": 0, "area_id": 1137632, "name": "WHITTIER", "level": 0, "country": 840, "updated_at": 1455674299, "disable": 0, "end_at": 0, "shape": 0, "warning": 1, "radius": 8047, "lat": 60.777169, "lng": -148.719653, "type": 31, "city": "Whittier", "points": ""}, {"begin_at": 0, "area_id": 1137708, "name": "WAIMEA-KOHALA", "level": 0, "country": 840, "updated_at": 1455674299, "disable": 0, "end_at": 0, "shape": 0, "warning": 1, "radius": 8047, "lat": 20.001327, "lng": -155.668107, "type": 31, "city": "Waimea", "points": ""}, {"begin_at": 0, "area_id": 1137714, "name": "LANAI", "level": 0, "country": 840, "updated_at": 1455674299, "disable": 0, "end_at": 0, "shape": 0, "warning": 1, "radius": 8047, "lat": 20.785611, "lng": -156.951418, "type": 31, "city": "L\u0101na\u2018i City", "points": ""}, {"begin_at": 0, "area_id": 1137738, "name": "HENRY E ROHLSEN", "level": 0, "country": 840, "updated_at": 1455674299, "disable": 0, "end_at": 0, "shape": 0, "warning": 1, "radius": 8047, "lat": 17.701504, "lng": -64.801943, "type": 31, "city": "Saint Croix", "points": ""}, {"begin_at": 0, "area_id": 1137740, "name": "ANTONIO/NERY/JUARBE POL", "level": 0, "country": 840, "updated_at": 1455674299, "disable": 0, "end_at": 0, "shape": 0, "warning": 1, "radius": 8047, "lat": 18.450917, "lng": -66.675444, "type": 31, "city": "Bajadero", "points": ""}, {"begin_at": 0, "area_id": 1137746, "name": "FERNANDO LUIS RIBAS DOMINICCI", "level": 0, "country": 840, "updated_at": 1455674299, "disable": 0, "end_at": 0, "shape": 0, "warning": 1, "radius": 8047, "lat": 18.456778, "lng": -66.098472, "type": 31, "city": "San Juan", "points": ""}, {"begin_at": 0, "area_id": 1137756, "name": "ANTONIO RIVERA RODRIGUEZ", "level": 0, "country": 840, "updated_at": 1455674299, "disable": 0, "end_at": 0, "shape": 0, "warning": 1, "radius": 8047, "lat": 18.134811, "lng": -65.493617, "type": 31, "city": "Esperanza", "points": ""}, {"begin_at": 0, "area_id": 1180717, "name": "Eggersdorf", "level": 0, "country": 276, "updated_at": 1455674299, "disable": 0, "end_at": 0, "shape": 0, "warning": 1, "radius": 8047, "lat": 52.482833, "lng": 14.090833, "type": 31, "city": "M\u00fcncheberg", "points": ""}, {"begin_at": 0, "area_id": 1181219, "name": "Kitzingen", "level": 0, "country": 276, "updated_at": 1455674299, "disable": 0, "end_at": 0, "shape": 0, "warning": 1, "radius": 8047, "lat": 49.743333, "lng": 10.203333, "type": 31, "city": "Gro\u00dflangheim", "points": ""}, {"begin_at": 0, "area_id": 1183375, "name": "Basa AB", "level": 0, "country": 608, "updated_at": 1455674299, "disable": 0, "end_at": 0, "shape": 0, "warning": 1, "radius": 8047, "lat": 14.986667, "lng": 120.491667, "type": 31, "city": "Floridablanca", "points": ""}, {"begin_at": 0, "area_id": 1183379, "name": "Fernando AB", "level": 0, "country": 608, "updated_at": 1455674299, "disable": 0, "end_at": 0, "shape": 0, "warning": 1, "radius": 8047, "lat": 13.95, "lng": 121.116667, "type": 31, "city": "Mataas Na Kahoy", "points": ""}, {"begin_at": 0, "area_id": 1184827, "name": "Nelspruit", "level": 0, "country": 710, "updated_at": 1455674299, "disable": 0, "end_at": 0, "shape": 0, "warning": 1, "radius": 8047, "lat": -25.502225, "lng": 30.911817, "type": 31, "city": "Nelspruit", "points": ""}, {"begin_at": 0, "area_id": 1185145, "name": "Uranium City", "level": 0, "country": 124, "updated_at": 1455674299, "disable": 0, "end_at": 0, "shape": 0, "warning": 1, "radius": 8047, "lat": 59.561378, "lng": -108.481269, "type": 31, "city": "", "points": ""}, {"begin_at": 0, "area_id": 1185327, "name": "Vestmannaeyjar", "level": 0, "country": 352, "updated_at": 1455674299, "disable": 0, "end_at": 0, "shape": 0, "warning": 1, "radius": 8047, "lat": 63.425, "lng": -20.279167, "type": 31, "city": "Vestmannaeyjar", "points": ""}, {"begin_at": 0, "area_id": 1185719, "name": "Deadmans Cay", "level": 0, "country": 44, "updated_at": 1455674299, "disable": 0, "end_at": 0, "shape": 0, "warning": 1, "radius": 8047, "lat": 23.178997, "lng": -75.093644, "type": 31, "city": "Clarence Town", "points": ""}, {"begin_at": 0, "area_id": 1186021, "name": "Panagarh", "level": 0, "country": 356, "updated_at": 1455674299, "disable": 0, "end_at": 0, "shape": 0, "warning": 1, "radius": 8047, "lat": 23.473333, "lng": 87.43, "type": 31, "city": "Durgapur", "points": ""}, {"begin_at": 0, "area_id": 1186049, "name": "Bikaner", "level": 0, "country": 356, "updated_at": 1455674299, "disable": 0, "end_at": 0, "shape": 0, "warning": 1, "radius": 8047, "lat": 28.066667, "lng": 73.2, "type": 31, "city": "B\u012bkaner", "points": ""}, {"begin_at": 0, "area_id": 1186067, "name": "Satna", "level": 0, "country": 356, "updated_at": 1455674299, "disable": 0, "end_at": 0, "shape": 0, "warning": 1, "radius": 8047, "lat": 24.562944, "lng": 80.852722, "type": 31, "city": "Satna", "points": ""}, {"begin_at": 0, "area_id": 1186091, "name": "Warangal", "level": 0, "country": 356, "updated_at": 1455674299, "disable": 0, "end_at": 0, "shape": 0, "warning": 1, "radius": 8047, "lat": 17.915472, "lng": 79.60075, "type": 31, "city": "Warangal", "points": ""}, {"begin_at": 0, "area_id": 1186397, "name": "Serra Talhada", "level": 0, "country": 76, "updated_at": 1455674299, "disable": 0, "end_at": 0, "shape": 0, "warning": 1, "radius": 8047, "lat": -8.061389, "lng": -38.328611, "type": 31, "city": "Serra Talhada", "points": ""}, {"begin_at": 0, "area_id": 1186527, "name": "Gurupi", "level": 0, "country": 76, "updated_at": 1455674299, "disable": 0, "end_at": 0, "shape": 0, "warning": 1, "radius": 8047, "lat": -11.739167, "lng": -49.132222, "type": 31, "city": "Gurupi", "points": ""}, {"begin_at": 0, "area_id": 1186747, "name": "Orodara", "level": 0, "country": 854, "updated_at": 1455674299, "disable": 0, "end_at": 0, "shape": 0, "warning": 1, "radius": 8047, "lat": 10.983333, "lng": -4.933333, "type": 31, "city": "Orodara", "points": ""}, {"begin_at": 0, "area_id": 1186761, "name": "Gusau", "level": 0, "country": 566, "updated_at": 1455674299, "disable": 0, "end_at": 0, "shape": 0, "warning": 1, "radius": 8047, "lat": 12.183333, "lng": 6.7, "type": 31, "city": "Gusau", "points": ""}, {"begin_at": 0, "area_id": 1186827, "name": "Birao", "level": 0, "country": 140, "updated_at": 1455674299, "disable": 0, "end_at": 0, "shape": 0, "warning": 1, "radius": 8047, "lat": 10.233333, "lng": 22.716667, "type": 31, "city": "Birao", "points": ""}, {"begin_at": 0, "area_id": 1186833, "name": "Bria", "level": 0, "country": 140, "updated_at": 1455674299, "disable": 0, "end_at": 0, "shape": 0, "warning": 1, "radius": 8047, "lat": 6.526667, "lng": 21.99, "type": 31, "city": "Bria", "points": ""}, {"begin_at": 0, "area_id": 1186881, "name": "Port Berge", "level": 0, "country": 450, "updated_at": 1455674299, "disable": 0, "end_at": 0, "shape": 0, "warning": 1, "radius": 8047, "lat": -15.583333, "lng": 47.616667, "type": 31, "city": "", "points": ""}, {"begin_at": 0, "area_id": 1186963, "name": "Ilebo", "level": 0, "country": 180, "updated_at": 1455674299, "disable": 0, "end_at": 0, "shape": 0, "warning": 1, "radius": 8047, "lat": -4.316667, "lng": 20.6, "type": 31, "city": "Ilebo", "points": ""}, {"begin_at": 0, "area_id": 1186989, "name": "Kongolo", "level": 0, "country": 180, "updated_at": 1455674299, "disable": 0, "end_at": 0, "shape": 0, "warning": 1, "radius": 8047, "lat": -5.4, "lng": 27.0, "type": 31, "city": "Kongolo", "points": ""}, {"begin_at": 0, "area_id": 1186997, "name": "Lodja", "level": 0, "country": 180, "updated_at": 1455674299, "disable": 0, "end_at": 0, "shape": 0, "warning": 1, "radius": 8047, "lat": -3.462944, "lng": 23.620167, "type": 31, "city": "Lodja", "points": ""}, {"begin_at": 0, "area_id": 1187013, "name": "Mushie", "level": 0, "country": 180, "updated_at": 1455674299, "disable": 0, "end_at": 0, "shape": 0, "warning": 1, "radius": 8047, "lat": -3.0, "lng": 16.933333, "type": 31, "city": "Mushie", "points": ""}, {"begin_at": 0, "area_id": 1187031, "name": "Kidal", "level": 0, "country": 466, "updated_at": 1455674299, "disable": 0, "end_at": 0, "shape": 0, "warning": 1, "radius": 8047, "lat": 18.433333, "lng": 1.416667, "type": 31, "city": "Kidal", "points": ""}, {"begin_at": 0, "area_id": 1187051, "name": "Podor", "level": 0, "country": 478, "updated_at": 1455674299, "disable": 0, "end_at": 0, "shape": 0, "warning": 1, "radius": 8047, "lat": 16.683333, "lng": -14.966667, "type": 31, "city": "", "points": ""}, {"begin_at": 0, "area_id": 1187055, "name": "Simenti", "level": 0, "country": 686, "updated_at": 1455674299, "disable": 0, "end_at": 0, "shape": 0, "warning": 1, "radius": 8047, "lat": 13.05, "lng": -13.3, "type": 31, "city": "Sementi", "points": ""}, {"begin_at": 0, "area_id": 1187127, "name": "Soddo", "level": 0, "country": 231, "updated_at": 1455674299, "disable": 0, "end_at": 0, "shape": 0, "warning": 1, "radius": 8047, "lat": 6.833333, "lng": 37.766667, "type": 31, "city": "Sodo", "points": ""}, {"begin_at": 0, "area_id": 1187149, "name": "Tessenai", "level": 0, "country": 232, "updated_at": 1455674299, "disable": 0, "end_at": 0, "shape": 0, "warning": 1, "radius": 8047, "lat": 15.116667, "lng": 36.683333, "type": 31, "city": "Teseney", "points": ""}, {"begin_at": 0, "area_id": 1187209, "name": "Wau", "level": 0, "country": 728, "updated_at": 1455674299, "disable": 0, "end_at": 0, "shape": 0, "warning": 1, "radius": 8047, "lat": 7.725717, "lng": 27.976139, "type": 31, "city": "Wau", "points": ""}, {"begin_at": 0, "area_id": 1187383, "name": "Zaranj", "level": 0, "country": 4, "updated_at": 1455674299, "disable": 0, "end_at": 0, "shape": 0, "warning": 1, "radius": 8047, "lat": 30.972222, "lng": 61.865833, "type": 31, "city": "Zaranj", "points": ""}, {"begin_at": 0, "area_id": 1187515, "name": "Tumlingtar", "level": 0, "country": 524, "updated_at": 1455674299, "disable": 0, "end_at": 0, "shape": 0, "warning": 1, "radius": 8047, "lat": 27.317222, "lng": 87.195278, "type": 31, "city": "Kh\u0101ndb\u0101ri", "points": ""}, {"begin_at": 0, "area_id": 1187521, "name": "Puducherry", "level": 0, "country": 356, "updated_at": 1455674299, "disable": 0, "end_at": 0, "shape": 0, "warning": 1, "radius": 8047, "lat": 11.966667, "lng": 79.816667, "type": 31, "city": "Puducherry", "points": ""}, {"begin_at": 0, "area_id": 1187547, "name": "Na San", "level": 0, "country": 704, "updated_at": 1455674299, "disable": 0, "end_at": 0, "shape": 0, "warning": 1, "radius": 8047, "lat": 21.215, "lng": 104.035, "type": 31, "city": "H\u00e1t L\u00f3t", "points": ""}, {"begin_at": 0, "area_id": 1187605, "name": "Kluang", "level": 0, "country": 458, "updated_at": 1455674299, "disable": 0, "end_at": 0, "shape": 0, "warning": 1, "radius": 8047, "lat": 2.043889, "lng": 103.3075, "type": 31, "city": "Kluang", "points": ""}, {"begin_at": 0, "area_id": 1187703, "name": "Bulgan", "level": 0, "country": 496, "updated_at": 1455674299, "disable": 0, "end_at": 0, "shape": 0, "warning": 1, "radius": 8047, "lat": 48.855833, "lng": 103.475, "type": 31, "city": "Bulgan", "points": ""}, {"begin_at": 0, "area_id": 1187749, "name": "Cowell", "level": 0, "country": 36, "updated_at": 1455674299, "disable": 0, "end_at": 0, "shape": 0, "warning": 1, "radius": 8047, "lat": -33.666667, "lng": 136.891667, "type": 31, "city": "Cleve", "points": ""}, {"begin_at": 0, "area_id": 1187755, "name": "Cue", "level": 0, "country": 36, "updated_at": 1455674299, "disable": 0, "end_at": 0, "shape": 0, "warning": 1, "radius": 8047, "lat": -27.446667, "lng": 117.918611, "type": 31, "city": "Cue", "points": ""}, {"begin_at": 0, "area_id": 1187861, "name": "Dawson City", "level": 0, "country": 124, "updated_at": 1455674299, "disable": 0, "end_at": 0, "shape": 0, "warning": 1, "radius": 8047, "lat": 64.042114, "lng": -139.130311, "type": 31, "city": "Dawson City", "points": ""}, {"begin_at": 0, "area_id": 1187869, "name": "Fort Resolution", "level": 0, "country": 124, "updated_at": 1455674299, "disable": 0, "end_at": 0, "shape": 0, "warning": 1, "radius": 8047, "lat": 61.180808, "lng": -113.689653, "type": 31, "city": "Fort Resolution", "points": ""}, {"begin_at": 0, "area_id": 1190315, "name": "Temindung", "level": 0, "country": 360, "updated_at": 1455674299, "disable": 0, "end_at": 0, "shape": 0, "warning": 1, "radius": 8047, "lat": -0.481944, "lng": 117.156667, "type": 31, "city": "Samarinda", "points": ""}, {"begin_at": 0, "area_id": 1187881, "name": "Brockway", "level": 0, "country": 124, "updated_at": 1455674299, "disable": 0, "end_at": 0, "shape": 0, "warning": 1, "radius": 8047, "lat": 45.566667, "lng": -67.1, "type": 31, "city": "", "points": ""}, {"begin_at": 0, "area_id": 1188021, "name": "Kugaaruk", "level": 0, "country": 124, "updated_at": 1455674299, "disable": 0, "end_at": 0, "shape": 0, "warning": 1, "radius": 8047, "lat": 68.535908, "lng": -89.805397, "type": 31, "city": "Gjoa Haven", "points": ""}, {"begin_at": 0, "area_id": 1188221, "name": "Camp Wainwright Fld", "level": 0, "country": 124, "updated_at": 1455674299, "disable": 0, "end_at": 0, "shape": 0, "warning": 1, "radius": 8047, "lat": 52.833333, "lng": -110.9, "type": 31, "city": "Wainwright", "points": ""}, {"begin_at": 0, "area_id": 1188257, "name": "Nueve De Julio", "level": 0, "country": 32, "updated_at": 1455674299, "disable": 0, "end_at": 0, "shape": 0, "warning": 1, "radius": 8047, "lat": -35.4, "lng": -60.9, "type": 31, "city": "Nueve de Julio", "points": ""}, {"begin_at": 0, "area_id": 1188363, "name": "Santa Rita De Siguas", "level": 0, "country": 604, "updated_at": 1455674299, "disable": 0, "end_at": 0, "shape": 0, "warning": 1, "radius": 8047, "lat": -16.516667, "lng": -72.083333, "type": 31, "city": "", "points": ""}, {"begin_at": 0, "area_id": 1188477, "name": "Carmen De Bolivia", "level": 0, "country": 170, "updated_at": 1455674299, "disable": 0, "end_at": 0, "shape": 0, "warning": 1, "radius": 8047, "lat": 9.685, "lng": -75.126667, "type": 31, "city": "El Carmen de Bol\u00edvar", "points": ""}, {"begin_at": 0, "area_id": 1188499, "name": "Baiao", "level": 0, "country": 76, "updated_at": 1455674299, "disable": 0, "end_at": 0, "shape": 0, "warning": 1, "radius": 8047, "lat": -2.800278, "lng": -49.667222, "type": 31, "city": "Bai\u00e3o", "points": ""}, {"begin_at": 0, "area_id": 1188535, "name": "Ricardo Detomasi Dptal", "level": 0, "country": 858, "updated_at": 1455674299, "disable": 0, "end_at": 0, "shape": 0, "warning": 1, "radius": 8047, "lat": -33.248611, "lng": -58.072778, "type": 31, "city": "Mercedes", "points": ""}, {"begin_at": 0, "area_id": 1188553, "name": "Santa Isabel Do Rio Negro", "level": 0, "country": 76, "updated_at": 1455674299, "disable": 0, "end_at": 0, "shape": 0, "warning": 1, "radius": 8047, "lat": -0.416667, "lng": -65.033333, "type": 31, "city": "Santa Isabel do Rio Negro", "points": ""}, {"begin_at": 0, "area_id": 1188555, "name": "Santa Terezinha", "level": 0, "country": 76, "updated_at": 1455674299, "disable": 0, "end_at": 0, "shape": 0, "warning": 1, "radius": 8047, "lat": -10.465, "lng": -50.518333, "type": 31, "city": "Santa Terezinha", "points": ""}, {"begin_at": 0, "area_id": 1188689, "name": "Base Aerea Militar No.17", "level": 0, "country": 484, "updated_at": 1455674299, "disable": 0, "end_at": 0, "shape": 0, "warning": 1, "radius": 8047, "lat": 16.176681, "lng": -92.0506, "type": 31, "city": "La Trinitaria", "points": ""}, {"begin_at": 0, "area_id": 1189005, "name": "Almeirim", "level": 0, "country": 76, "updated_at": 1455674299, "disable": 0, "end_at": 0, "shape": 0, "warning": 1, "radius": 8047, "lat": -1.491944, "lng": -52.578333, "type": 31, "city": "Almeirim", "points": ""}, {"begin_at": 0, "area_id": 1189099, "name": "Big Trout Lake", "level": 0, "country": 124, "updated_at": 1455674299, "disable": 0, "end_at": 0, "shape": 0, "warning": 1, "radius": 8047, "lat": 53.817886, "lng": -89.896922, "type": 31, "city": "", "points": ""}, {"begin_at": 0, "area_id": 1189111, "name": "Deer Lake", "level": 0, "country": 124, "updated_at": 1455674299, "disable": 0, "end_at": 0, "shape": 0, "warning": 1, "radius": 8047, "lat": 52.655861, "lng": -94.061517, "type": 31, "city": "", "points": ""}, {"begin_at": 0, "area_id": 1189161, "name": "Slate Falls", "level": 0, "country": 124, "updated_at": 1455674299, "disable": 0, "end_at": 0, "shape": 0, "warning": 1, "radius": 8047, "lat": 51.130069, "lng": -91.665464, "type": 31, "city": "", "points": ""}, {"begin_at": 0, "area_id": 1189173, "name": "Wunnummin Lake", "level": 0, "country": 124, "updated_at": 1455674299, "disable": 0, "end_at": 0, "shape": 0, "warning": 1, "radius": 8047, "lat": 52.893917, "lng": -89.289075, "type": 31, "city": "", "points": ""}, {"begin_at": 0, "area_id": 1189211, "name": "Fort McPherson", "level": 0, "country": 124, "updated_at": 1455674299, "disable": 0, "end_at": 0, "shape": 0, "warning": 1, "radius": 8047, "lat": 67.406903, "lng": -134.859753, "type": 31, "city": "Fort McPherson", "points": ""}, {"begin_at": 0, "area_id": 1189215, "name": "Qikiqtarjuaq", "level": 0, "country": 124, "updated_at": 1455674299, "disable": 0, "end_at": 0, "shape": 0, "warning": 1, "radius": 8047, "lat": 67.546553, "lng": -64.031561, "type": 31, "city": "Qikiqtarjuaq", "points": ""}, {"begin_at": 0, "area_id": 1189343, "name": "Kyritz", "level": 0, "country": 276, "updated_at": 1455674299, "disable": 0, "end_at": 0, "shape": 0, "warning": 1, "radius": 8047, "lat": 52.918833, "lng": 12.425333, "type": 31, "city": "Kyritz", "points": ""}, {"begin_at": 0, "area_id": 1189419, "name": "Sgto. Nicola Bo", "level": 0, "country": 600, "updated_at": 1455674299, "disable": 0, "end_at": 0, "shape": 0, "warning": 1, "radius": 8047, "lat": -25.155, "lng": -57.560556, "type": 31, "city": "Colonia Mariano Roque Alonso", "points": ""}, {"begin_at": 0, "area_id": 1189443, "name": "Loeben", "level": 0, "country": 40, "updated_at": 1455674299, "disable": 0, "end_at": 0, "shape": 0, "warning": 1, "radius": 8047, "lat": 47.379444, "lng": 14.9675, "type": 31, "city": "Traboch", "points": ""}, {"begin_at": 0, "area_id": 1189453, "name": "Noetsch im Gailtal", "level": 0, "country": 40, "updated_at": 1455674299, "disable": 0, "end_at": 0, "shape": 0, "warning": 1, "radius": 8047, "lat": 46.580833, "lng": 13.628333, "type": 31, "city": "Feistritz an der Gail", "points": ""}, {"begin_at": 0, "area_id": 1189521, "name": "Wiener Neustadt/West", "level": 0, "country": 40, "updated_at": 1455674299, "disable": 0, "end_at": 0, "shape": 0, "warning": 1, "radius": 8047, "lat": 47.839722, "lng": 16.220278, "type": 31, "city": "Theresienfeld", "points": ""}, {"begin_at": 0, "area_id": 890657, "name": "Noyal", "level": 0, "country": 250, "updated_at": 1455674299, "disable": 0, "end_at": 0, "shape": 0, "warning": 1, "radius": 8047, "lat": 48.198037, "lng": -3.221771, "type": 31, "city": "Pl\u00e9lauff", "points": ""}, {"begin_at": 0, "area_id": 890662, "name": "Luxor regional", "level": 0, "country": 818, "updated_at": 1455674299, "disable": 0, "end_at": 0, "shape": 0, "warning": 1, "radius": 8047, "lat": 25.521428, "lng": 33.354671, "type": 31, "city": "", "points": ""}, {"begin_at": 0, "area_id": 1189587, "name": "Gods Lake Narrows", "level": 0, "country": 124, "updated_at": 1455674299, "disable": 0, "end_at": 0, "shape": 0, "warning": 1, "radius": 8047, "lat": 54.558383, "lng": -94.490856, "type": 31, "city": "", "points": ""}, {"begin_at": 0, "area_id": 1189747, "name": "Churropampa", "level": 0, "country": 604, "updated_at": 1455674299, "disable": 0, "end_at": 0, "shape": 0, "warning": 1, "radius": 8047, "lat": -12.291667, "lng": -75.1, "type": 31, "city": "Pazos", "points": ""}, {"begin_at": 0, "area_id": 1189999, "name": "Jabiru", "level": 0, "country": 36, "updated_at": 1455674299, "disable": 0, "end_at": 0, "shape": 0, "warning": 1, "radius": 8047, "lat": -12.658333, "lng": 132.893056, "type": 31, "city": "Kakadu", "points": ""}, {"begin_at": 0, "area_id": 1190219, "name": "Savusavu", "level": 0, "country": 242, "updated_at": 1455674299, "disable": 0, "end_at": 0, "shape": 0, "warning": 1, "radius": 8047, "lat": -16.799722, "lng": 179.338889, "type": 31, "city": "", "points": ""}, {"begin_at": 0, "area_id": 1190121, "name": "Haimaru", "level": 0, "country": 90, "updated_at": 1455674299, "disable": 0, "end_at": 0, "shape": 0, "warning": 1, "radius": 8047, "lat": -9.866667, "lng": 160.411667, "type": 31, "city": "", "points": ""}, {"begin_at": 0, "area_id": 1190137, "name": "Donauworth", "level": 0, "country": 276, "updated_at": 1455674299, "disable": 0, "end_at": 0, "shape": 0, "warning": 1, "radius": 8047, "lat": 48.707486, "lng": 10.769258, "type": 31, "city": "Donauw\u00f6rth", "points": ""}, {"begin_at": 0, "area_id": 1190151, "name": "Fort Severn", "level": 0, "country": 124, "updated_at": 1455674299, "disable": 0, "end_at": 0, "shape": 0, "warning": 1, "radius": 8047, "lat": 56.018969, "lng": -87.676208, "type": 31, "city": "", "points": ""}, {"begin_at": 0, "area_id": 1190181, "name": "Saibai", "level": 0, "country": 36, "updated_at": 1455674299, "disable": 0, "end_at": 0, "shape": 0, "warning": 1, "radius": 8047, "lat": -9.378333, "lng": 142.625, "type": 31, "city": "", "points": ""}, {"begin_at": 0, "area_id": 1190207, "name": "Collarenebri", "level": 0, "country": 36, "updated_at": 1455674299, "disable": 0, "end_at": 0, "shape": 0, "warning": 1, "radius": 8047, "lat": -29.521944, "lng": 148.582222, "type": 31, "city": "Lightning Ridge", "points": ""}, {"begin_at": 0, "area_id": 1190377, "name": "Cnel.Dem.J.M.Argana", "level": 0, "country": 600, "updated_at": 1455674299, "disable": 0, "end_at": 0, "shape": 0, "warning": 1, "radius": 8047, "lat": -26.835833, "lng": -55.332222, "type": 31, "city": "Edelira", "points": ""}, {"begin_at": 0, "area_id": 1190379, "name": "Camp Capinpin", "level": 0, "country": 608, "updated_at": 1455674299, "disable": 0, "end_at": 0, "shape": 0, "warning": 1, "radius": 8047, "lat": 14.503056, "lng": 121.363056, "type": 31, "city": "Sampaloc", "points": ""}, {"begin_at": 0, "area_id": 1190443, "name": "Peawanuck", "level": 0, "country": 124, "updated_at": 1455674299, "disable": 0, "end_at": 0, "shape": 0, "warning": 1, "radius": 8047, "lat": 54.987997, "lng": -85.443422, "type": 31, "city": "", "points": ""}, {"begin_at": 0, "area_id": 1190461, "name": "Keewaywin", "level": 0, "country": 124, "updated_at": 1455674299, "disable": 0, "end_at": 0, "shape": 0, "warning": 1, "radius": 8047, "lat": 52.991056, "lng": -92.836311, "type": 31, "city": "", "points": ""}, {"begin_at": 0, "area_id": 1191407, "name": "Kuala Penyu", "level": 0, "country": 458, "updated_at": 1455674299, "disable": 0, "end_at": 0, "shape": 0, "warning": 1, "radius": 8047, "lat": 5.599722, "lng": 115.574444, "type": 31, "city": "Kuala Penyu", "points": ""}, {"begin_at": 0, "area_id": 1190731, "name": "Estevan Blue Sky", "level": 0, "country": 124, "updated_at": 1455674299, "disable": 0, "end_at": 0, "shape": 0, "warning": 1, "radius": 8047, "lat": 49.294111, "lng": -103.020667, "type": 31, "city": "Macoun", "points": ""}, {"begin_at": 0, "area_id": 1190847, "name": "Qalat", "level": 0, "country": 4, "updated_at": 1455674299, "disable": 0, "end_at": 0, "shape": 0, "warning": 1, "radius": 8047, "lat": 32.133833, "lng": 66.898833, "type": 31, "city": "Qal\u0101t", "points": ""}, {"begin_at": 0, "area_id": 1190923, "name": "Sur", "level": 0, "country": 512, "updated_at": 1455674299, "disable": 0, "end_at": 0, "shape": 0, "warning": 1, "radius": 8047, "lat": 22.556944, "lng": 59.495, "type": 31, "city": "Sur", "points": ""}, {"begin_at": 0, "area_id": 1191021, "name": "Charlie Sinclair Mem", "level": 0, "country": 124, "updated_at": 1455674299, "disable": 0, "end_at": 0, "shape": 0, "warning": 1, "radius": 8047, "lat": 54.610917, "lng": -97.760197, "type": 31, "city": "", "points": ""}, {"begin_at": 0, "area_id": 1191041, "name": "Lac Brochet", "level": 0, "country": 124, "updated_at": 1455674299, "disable": 0, "end_at": 0, "shape": 0, "warning": 1, "radius": 8047, "lat": 58.614281, "lng": -101.468964, "type": 31, "city": "", "points": ""}, {"begin_at": 0, "area_id": 1191057, "name": "Cumberland House", "level": 0, "country": 124, "updated_at": 1455674299, "disable": 0, "end_at": 0, "shape": 0, "warning": 1, "radius": 8047, "lat": 53.956097, "lng": -102.298375, "type": 31, "city": "Cumberland House", "points": ""}, {"begin_at": 0, "area_id": 1191073, "name": "Wollaston Lake", "level": 0, "country": 124, "updated_at": 1455674299, "disable": 0, "end_at": 0, "shape": 0, "warning": 1, "radius": 8047, "lat": 58.106964, "lng": -103.172422, "type": 31, "city": "", "points": ""}, {"begin_at": 0, "area_id": 1191145, "name": "Tosontsengel-Zavkhan", "level": 0, "country": 496, "updated_at": 1455674299, "disable": 0, "end_at": 0, "shape": 0, "warning": 1, "radius": 8047, "lat": 48.738611, "lng": 98.293611, "type": 31, "city": "Tosontsengel", "points": ""}, {"begin_at": 0, "area_id": 1191153, "name": "Donoi-Zavkhan", "level": 0, "country": 496, "updated_at": 1455674299, "disable": 0, "end_at": 0, "shape": 0, "warning": 1, "radius": 8047, "lat": 47.71, "lng": 96.526944, "type": 31, "city": "Aldar", "points": ""}, {"begin_at": 0, "area_id": 1191187, "name": "Niuafo'ou", "level": 0, "country": 776, "updated_at": 1455674299, "disable": 0, "end_at": 0, "shape": 0, "warning": 1, "radius": 8047, "lat": -15.571789, "lng": -175.629436, "type": 31, "city": "Kolofo ou", "points": ""}, {"begin_at": 0, "area_id": 1191455, "name": "Hegenscheid", "level": 0, "country": 276, "updated_at": 1455674299, "disable": 0, "end_at": 0, "shape": 0, "warning": 1, "radius": 8047, "lat": 51.313, "lng": 7.703667, "type": 31, "city": "Altena", "points": ""}, {"begin_at": 0, "area_id": 1191561, "name": "Kobylnica", "level": 0, "country": 616, "updated_at": 1455674299, "disable": 0, "end_at": 0, "shape": 0, "warning": 1, "radius": 8047, "lat": 52.433886, "lng": 17.044003, "type": 31, "city": "Kobylnica", "points": ""}, {"begin_at": 0, "area_id": 1191575, "name": "Brits", "level": 0, "country": 710, "updated_at": 1455674299, "disable": 0, "end_at": 0, "shape": 0, "warning": 1, "radius": 8047, "lat": -25.5325, "lng": 27.775833, "type": 31, "city": "", "points": ""}, {"begin_at": 0, "area_id": 1191587, "name": "Kirchen", "level": 0, "country": 276, "updated_at": 1455674299, "disable": 0, "end_at": 0, "shape": 0, "warning": 1, "radius": 8047, "lat": 50.818167, "lng": 7.8325, "type": 31, "city": "Katzwinkel", "points": ""}, {"begin_at": 0, "area_id": 1192425, "name": "Ummlejj", "level": 0, "country": 682, "updated_at": 1455674299, "disable": 0, "end_at": 0, "shape": 0, "warning": 1, "radius": 8047, "lat": 25.281111, "lng": 37.205, "type": 31, "city": "", "points": ""}, {"begin_at": 0, "area_id": 1192483, "name": "Matamata", "level": 0, "country": 554, "updated_at": 1455674299, "disable": 0, "end_at": 0, "shape": 0, "warning": 1, "radius": 8047, "lat": -37.734444, "lng": 175.741944, "type": 31, "city": "Matamata", "points": ""}, {"begin_at": 0, "area_id": 1192575, "name": "Le Comte", "level": 0, "country": 250, "updated_at": 1455674299, "disable": 0, "end_at": 0, "shape": 0, "warning": 1, "radius": 8047, "lat": 46.440833, "lng": -0.793889, "type": 31, "city": "Fontenay-le-Comte", "points": ""}, {"begin_at": 0, "area_id": 1192707, "name": "Chaurijhari", "level": 0, "country": 524, "updated_at": 1455674299, "disable": 0, "end_at": 0, "shape": 0, "warning": 1, "radius": 8047, "lat": 28.627222, "lng": 82.193333, "type": 31, "city": "Bijayashwari", "points": ""}, {"begin_at": 0, "area_id": 1192719, "name": "Gorkha", "level": 0, "country": 524, "updated_at": 1455674299, "disable": 0, "end_at": 0, "shape": 0, "warning": 1, "radius": 8047, "lat": 28.038889, "lng": 84.465833, "type": 31, "city": "Palungtar", "points": ""}, {"begin_at": 0, "area_id": 1192741, "name": "Phaplu", "level": 0, "country": 524, "updated_at": 1455674299, "disable": 0, "end_at": 0, "shape": 0, "warning": 1, "radius": 8047, "lat": 27.514722, "lng": 86.586111, "type": 31, "city": "Dudhakunda", "points": ""}, {"begin_at": 0, "area_id": 1192831, "name": "Novo Mesto", "level": 0, "country": 705, "updated_at": 1455674299, "disable": 0, "end_at": 0, "shape": 0, "warning": 1, "radius": 8047, "lat": 45.799961, "lng": 15.101814, "type": 31, "city": "Stra\u017ea", "points": ""}, {"begin_at": 0, "area_id": 1192849, "name": "Aramac", "level": 0, "country": 36, "updated_at": 1455674299, "disable": 0, "end_at": 0, "shape": 0, "warning": 1, "radius": 8047, "lat": -22.959444, "lng": 145.2525, "type": 31, "city": "Aramac", "points": ""}, {"begin_at": 0, "area_id": 1192919, "name": "Slovenske Konjice", "level": 0, "country": 705, "updated_at": 1455674299, "disable": 0, "end_at": 0, "shape": 0, "warning": 1, "radius": 8047, "lat": 46.310283, "lng": 15.490806, "type": 31, "city": "Slovenske Konjice", "points": ""}, {"begin_at": 0, "area_id": 1192933, "name": "Chillagoe", "level": 0, "country": 36, "updated_at": 1455674299, "disable": 0, "end_at": 0, "shape": 0, "warning": 1, "radius": 8047, "lat": -17.140833, "lng": 144.528333, "type": 31, "city": "Chillagoe", "points": ""}, {"begin_at": 0, "area_id": 1192993, "name": "Eidsvold", "level": 0, "country": 36, "updated_at": 1455674299, "disable": 0, "end_at": 0, "shape": 0, "warning": 1, "radius": 8047, "lat": -25.365, "lng": 151.108333, "type": 31, "city": "Eidsvold", "points": ""}, {"begin_at": 0, "area_id": 1193065, "name": "Exmouth", "level": 0, "country": 36, "updated_at": 1455674299, "disable": 0, "end_at": 0, "shape": 0, "warning": 1, "radius": 8047, "lat": -22.041389, "lng": 114.102222, "type": 31, "city": "North West Cape", "points": ""}, {"begin_at": 0, "area_id": 1193101, "name": "Haasts Bluff", "level": 0, "country": 36, "updated_at": 1455674299, "disable": 0, "end_at": 0, "shape": 0, "warning": 1, "radius": 8047, "lat": -23.450556, "lng": 131.851389, "type": 31, "city": "", "points": ""}, {"begin_at": 0, "area_id": 1193125, "name": "Injune", "level": 0, "country": 36, "updated_at": 1455674299, "disable": 0, "end_at": 0, "shape": 0, "warning": 1, "radius": 8047, "lat": -25.85, "lng": 148.55, "type": 31, "city": "Injune", "points": ""}, {"begin_at": 0, "area_id": 1193133, "name": "Isisford", "level": 0, "country": 36, "updated_at": 1455674299, "disable": 0, "end_at": 0, "shape": 0, "warning": 1, "radius": 8047, "lat": -24.259167, "lng": 144.424167, "type": 31, "city": "Isisford", "points": ""}, {"begin_at": 0, "area_id": 1193257, "name": "Wales", "level": 0, "country": 643, "updated_at": 1455674299, "disable": 0, "end_at": 0, "shape": 0, "warning": 1, "radius": 8047, "lat": 65.622556, "lng": -168.094972, "type": 31, "city": "Lavrentiya", "points": ""}, {"begin_at": 0, "area_id": 1193327, "name": "Mittagong", "level": 0, "country": 36, "updated_at": 1455674299, "disable": 0, "end_at": 0, "shape": 0, "warning": 1, "radius": 8047, "lat": -34.448333, "lng": 150.503333, "type": 31, "city": "Mittagong", "points": ""}, {"begin_at": 0, "area_id": 1193341, "name": "Mount Holland", "level": 0, "country": 36, "updated_at": 1455674299, "disable": 0, "end_at": 0, "shape": 0, "warning": 1, "radius": 8047, "lat": -32.118333, "lng": 119.768333, "type": 31, "city": "Mount Holland", "points": ""}, {"begin_at": 0, "area_id": 1193367, "name": "Nappa Merrie", "level": 0, "country": 36, "updated_at": 1455674299, "disable": 0, "end_at": 0, "shape": 0, "warning": 1, "radius": 8047, "lat": -27.558333, "lng": 141.133333, "type": 31, "city": "Oontoo", "points": ""}, {"begin_at": 0, "area_id": 1193541, "name": "Bottenhorn", "level": 0, "country": 276, "updated_at": 1455674299, "disable": 0, "end_at": 0, "shape": 0, "warning": 1, "radius": 8047, "lat": 50.795167, "lng": 8.4585, "type": 31, "city": "Bad Endbach", "points": ""}, {"begin_at": 0, "area_id": 1193557, "name": "Rahadi Osman", "level": 0, "country": 360, "updated_at": 1455674299, "disable": 0, "end_at": 0, "shape": 0, "warning": 1, "radius": 8047, "lat": -1.816022, "lng": 109.961997, "type": 31, "city": "Ketapang", "points": ""}, {"begin_at": 0, "area_id": 1193587, "name": "Fulda-Jossa", "level": 0, "country": 276, "updated_at": 1455674299, "disable": 0, "end_at": 0, "shape": 0, "warning": 1, "radius": 8047, "lat": 50.475667, "lng": 9.442, "type": 31, "city": "Hosenfeld", "points": ""}, {"begin_at": 0, "area_id": 1193595, "name": "Gelnhausen", "level": 0, "country": 276, "updated_at": 1455674299, "disable": 0, "end_at": 0, "shape": 0, "warning": 1, "radius": 8047, "lat": 50.197167, "lng": 9.17, "type": 31, "city": "Gelnhausen", "points": ""}, {"begin_at": 0, "area_id": 1193615, "name": "Greiz-Obergrochlitz", "level": 0, "country": 276, "updated_at": 1455674299, "disable": 0, "end_at": 0, "shape": 0, "warning": 1, "radius": 8047, "lat": 50.644167, "lng": 12.174833, "type": 31, "city": "Greiz", "points": ""}, {"begin_at": 0, "area_id": 1193619, "name": "Grossruckerswalde", "level": 0, "country": 276, "updated_at": 1455674299, "disable": 0, "end_at": 0, "shape": 0, "warning": 1, "radius": 8047, "lat": 50.643833, "lng": 13.126333, "type": 31, "city": "Gro\u00dfr\u00fcckerswalde", "points": ""}, {"begin_at": 0, "area_id": 1193621, "name": "Grube", "level": 0, "country": 276, "updated_at": 1455674299, "disable": 0, "end_at": 0, "shape": 0, "warning": 1, "radius": 8047, "lat": 54.245333, "lng": 11.024667, "type": 31, "city": "Grube", "points": ""}, {"begin_at": 0, "area_id": 1193639, "name": "Herten-Rheinfelden", "level": 0, "country": 756, "updated_at": 1455674299, "disable": 0, "end_at": 0, "shape": 0, "warning": 1, "radius": 8047, "lat": 47.56, "lng": 7.748333, "type": 31, "city": "Kaiseraugst", "points": ""}, {"begin_at": 0, "area_id": 1193647, "name": "Hirzenhain", "level": 0, "country": 276, "updated_at": 1455674299, "disable": 0, "end_at": 0, "shape": 0, "warning": 1, "radius": 8047, "lat": 50.788167, "lng": 8.392667, "type": 31, "city": "Siegbach", "points": ""}, {"begin_at": 0, "area_id": 1193653, "name": "Holleberg", "level": 0, "country": 276, "updated_at": 1455674299, "disable": 0, "end_at": 0, "shape": 0, "warning": 1, "radius": 8047, "lat": 51.611167, "lng": 9.3975, "type": 31, "city": "Trendelburg", "points": ""}, {"begin_at": 0, "area_id": 1193669, "name": "Kamp-Lintfort", "level": 0, "country": 276, "updated_at": 1455674299, "disable": 0, "end_at": 0, "shape": 0, "warning": 1, "radius": 8047, "lat": 51.529, "lng": 6.536167, "type": 31, "city": "Kamp-Lintfort", "points": ""}, {"begin_at": 0, "area_id": 1193691, "name": "Kuhrstedt-Bederkesa", "level": 0, "country": 276, "updated_at": 1455674299, "disable": 0, "end_at": 0, "shape": 0, "warning": 1, "radius": 8047, "lat": 53.568, "lng": 8.789333, "type": 31, "city": "K\u00fchrstedt", "points": ""}, {"begin_at": 0, "area_id": 1193693, "name": "Lachen-Speyerdorf", "level": 0, "country": 276, "updated_at": 1455674299, "disable": 0, "end_at": 0, "shape": 0, "warning": 1, "radius": 8047, "lat": 49.330833, "lng": 8.205167, "type": 31, "city": "Lachen-Speyerdorf", "points": ""}, {"begin_at": 0, "area_id": 1193751, "name": "Nardt", "level": 0, "country": 276, "updated_at": 1455674299, "disable": 0, "end_at": 0, "shape": 0, "warning": 1, "radius": 8047, "lat": 51.451667, "lng": 14.2025, "type": 31, "city": "Hoyerswerda", "points": ""}, {"begin_at": 0, "area_id": 1193819, "name": "Arcola", "level": 0, "country": 124, "updated_at": 1455674299, "disable": 0, "end_at": 0, "shape": 0, "warning": 1, "radius": 8047, "lat": 49.633333, "lng": -102.483333, "type": 31, "city": "Carlyle", "points": ""}, {"begin_at": 0, "area_id": 1193867, "name": "Ochsenfurt", "level": 0, "country": 276, "updated_at": 1455674299, "disable": 0, "end_at": 0, "shape": 0, "warning": 1, "radius": 8047, "lat": 49.674167, "lng": 10.0715, "type": 31, "city": "Ochsenfurt", "points": ""}, {"begin_at": 0, "area_id": 1193891, "name": "Pellworm", "level": 0, "country": 276, "updated_at": 1455674299, "disable": 0, "end_at": 0, "shape": 0, "warning": 1, "radius": 8047, "lat": 54.535833, "lng": 8.681833, "type": 31, "city": "Pellworm", "points": ""}, {"begin_at": 0, "area_id": 1193935, "name": "Bashaw", "level": 0, "country": 124, "updated_at": 1455674299, "disable": 0, "end_at": 0, "shape": 0, "warning": 1, "radius": 8047, "lat": 52.5575, "lng": -112.964722, "type": 31, "city": "Bashaw", "points": ""}, {"begin_at": 0, "area_id": 1193959, "name": "Schmoldow", "level": 0, "country": 276, "updated_at": 1455674299, "disable": 0, "end_at": 0, "shape": 0, "warning": 1, "radius": 8047, "lat": 53.970667, "lng": 13.344, "type": 31, "city": "Jarmen", "points": ""}, {"begin_at": 0, "area_id": 1193967, "name": "Schwabisch Hall-Weckrieden", "level": 0, "country": 276, "updated_at": 1455674299, "disable": 0, "end_at": 0, "shape": 0, "warning": 1, "radius": 8047, "lat": 49.124, "lng": 9.781333, "type": 31, "city": "Schw\u00e4bisch Hall", "points": ""}, {"begin_at": 0, "area_id": 1194045, "name": "Verden-Scharnhorst", "level": 0, "country": 276, "updated_at": 1455674299, "disable": 0, "end_at": 0, "shape": 0, "warning": 1, "radius": 8047, "lat": 52.965167, "lng": 9.284167, "type": 31, "city": "Kirchlinteln", "points": ""}, {"begin_at": 0, "area_id": 1194059, "name": "Waren/Vielist", "level": 0, "country": 276, "updated_at": 1455674299, "disable": 0, "end_at": 0, "shape": 0, "warning": 1, "radius": 8047, "lat": 53.568667, "lng": 12.652833, "type": 31, "city": "Grabowh\u00f6fe", "points": ""}, {"begin_at": 0, "area_id": 1194067, "name": "Weinheim/Bergstrasse", "level": 0, "country": 276, "updated_at": 1455674299, "disable": 0, "end_at": 0, "shape": 0, "warning": 1, "radius": 8047, "lat": 49.5675, "lng": 8.611167, "type": 31, "city": "Hemsbach", "points": ""}, {"begin_at": 0, "area_id": 1194119, "name": "Wyk auf Fohr", "level": 0, "country": 276, "updated_at": 1455674299, "disable": 0, "end_at": 0, "shape": 0, "warning": 1, "radius": 8047, "lat": 54.685333, "lng": 8.531833, "type": 31, "city": "Wrixum", "points": ""}, {"begin_at": 0, "area_id": 1194163, "name": "Calling Lake", "level": 0, "country": 124, "updated_at": 1455674299, "disable": 0, "end_at": 0, "shape": 0, "warning": 1, "radius": 8047, "lat": 55.316667, "lng": -113.25, "type": 31, "city": "Slave Lake", "points": ""}, {"begin_at": 0, "area_id": 1194189, "name": "Carman South", "level": 0, "country": 124, "updated_at": 1455674299, "disable": 0, "end_at": 0, "shape": 0, "warning": 1, "radius": 8047, "lat": 49.480342, "lng": -98.015897, "type": 31, "city": "Carman", "points": ""}, {"begin_at": 0, "area_id": 1194253, "name": "Avranches", "level": 0, "country": 250, "updated_at": 1455674299, "disable": 0, "end_at": 0, "shape": 0, "warning": 1, "radius": 8047, "lat": 48.660833, "lng": -1.405833, "type": 31, "city": "Le Val-Saint-P\u00e8re", "points": ""}, {"begin_at": 0, "area_id": 1194257, "name": "Bailleau Armenonville", "level": 0, "country": 250, "updated_at": 1455674299, "disable": 0, "end_at": 0, "shape": 0, "warning": 1, "radius": 8047, "lat": 48.514722, "lng": 1.638611, "type": 31, "city": "Armenonville-les-G\u00e2tineaux", "points": ""}, {"begin_at": 0, "area_id": 1194277, "name": "La Fare", "level": 0, "country": 250, "updated_at": 1455674299, "disable": 0, "end_at": 0, "shape": 0, "warning": 1, "radius": 8047, "lat": 43.536667, "lng": 5.1775, "type": 31, "city": "La Fare-les-Oliviers", "points": ""}, {"begin_at": 0, "area_id": 1194279, "name": "Besancon", "level": 0, "country": 250, "updated_at": 1455674299, "disable": 0, "end_at": 0, "shape": 0, "warning": 1, "radius": 8047, "lat": 47.273611, "lng": 6.083056, "type": 31, "city": "Thise", "points": ""}, {"begin_at": 0, "area_id": 1194289, "name": "Brioude Beaumont", "level": 0, "country": 250, "updated_at": 1455674299, "disable": 0, "end_at": 0, "shape": 0, "warning": 1, "radius": 8047, "lat": 45.323889, "lng": 3.358333, "type": 31, "city": "Bournoncle-Saint-Pierre", "points": ""}, {"begin_at": 0, "area_id": 1194327, "name": "Chatillon-sur-Seine", "level": 0, "country": 250, "updated_at": 1455674299, "disable": 0, "end_at": 0, "shape": 0, "warning": 1, "radius": 8047, "lat": 47.845278, "lng": 4.579444, "type": 31, "city": "Ch\u00e2tillon-sur-Seine", "points": ""}, {"begin_at": 0, "area_id": 1194341, "name": "Corlier", "level": 0, "country": 250, "updated_at": 1455674299, "disable": 0, "end_at": 0, "shape": 0, "warning": 1, "radius": 8047, "lat": 46.039722, "lng": 5.496667, "type": 31, "city": "Jujurieux", "points": ""}, {"begin_at": 0, "area_id": 1194355, "name": "Plivot", "level": 0, "country": 250, "updated_at": 1455674299, "disable": 0, "end_at": 0, "shape": 0, "warning": 1, "radius": 8047, "lat": 49.004444, "lng": 4.085278, "type": 31, "city": "Tours-sur-Marne", "points": ""}, {"begin_at": 0, "area_id": 1194385, "name": "La Ferte Alais", "level": 0, "country": 250, "updated_at": 1455674299, "disable": 0, "end_at": 0, "shape": 0, "warning": 1, "radius": 8047, "lat": 48.499444, "lng": 2.33, "type": 31, "city": "Itteville", "points": ""}, {"begin_at": 0, "area_id": 1194429, "name": "Villette", "level": 0, "country": 250, "updated_at": 1455674299, "disable": 0, "end_at": 0, "shape": 0, "warning": 1, "radius": 8047, "lat": 49.483611, "lng": 5.571944, "type": 31, "city": "Longuyon", "points": ""}, {"begin_at": 0, "area_id": 1194461, "name": "Debolt", "level": 0, "country": 124, "updated_at": 1455674299, "disable": 0, "end_at": 0, "shape": 0, "warning": 1, "radius": 8047, "lat": 55.233333, "lng": -118.033333, "type": 31, "city": "Grande Prairie", "points": ""}, {"begin_at": 0, "area_id": 1194487, "name": "Malzeville", "level": 0, "country": 250, "updated_at": 1455674299, "disable": 0, "end_at": 0, "shape": 0, "warning": 1, "radius": 8047, "lat": 48.723611, "lng": 6.206389, "type": 31, "city": "Saint-Max", "points": ""}, {"begin_at": 0, "area_id": 1194511, "name": "J F Mitchell Intl", "level": 0, "country": 670, "updated_at": 1455674299, "disable": 0, "end_at": 0, "shape": 0, "warning": 1, "radius": 8047, "lat": 12.986944, "lng": -61.264444, "type": 31, "city": "Port Elizabeth", "points": ""}, {"begin_at": 0, "area_id": 1194605, "name": "Conch Bar", "level": 0, "country": 796, "updated_at": 1455674299, "disable": 0, "end_at": 0, "shape": 0, "warning": 1, "radius": 8047, "lat": 21.826011, "lng": -71.802542, "type": 31, "city": "Conch Bar", "points": ""}, {"begin_at": 0, "area_id": 1194697, "name": "East", "level": 0, "country": 124, "updated_at": 1455674299, "disable": 0, "end_at": 0, "shape": 0, "warning": 1, "radius": 8047, "lat": 45.582778, "lng": -74.548889, "type": 31, "city": "Hawkesbury", "points": ""}, {"begin_at": 0, "area_id": 1194733, "name": "Jean Lake", "level": 0, "country": 124, "updated_at": 1455674299, "disable": 0, "end_at": 0, "shape": 0, "warning": 1, "radius": 8047, "lat": 57.483333, "lng": -113.883333, "type": 31, "city": "", "points": ""}, {"begin_at": 0, "area_id": 1194757, "name": "Kelvington", "level": 0, "country": 124, "updated_at": 1455674299, "disable": 0, "end_at": 0, "shape": 0, "warning": 1, "radius": 8047, "lat": 52.126111, "lng": -103.531111, "type": 31, "city": "Kelvington", "points": ""}, {"begin_at": 0, "area_id": 1194899, "name": "Eldorado", "level": 0, "country": 124, "updated_at": 1455674299, "disable": 0, "end_at": 0, "shape": 0, "warning": 1, "radius": 8047, "lat": 48.572222, "lng": -88.816667, "type": 31, "city": "", "points": ""}, {"begin_at": 0, "area_id": 1194909, "name": "Lethbridge J3 Airfield", "level": 0, "country": 124, "updated_at": 1455674299, "disable": 0, "end_at": 0, "shape": 0, "warning": 1, "radius": 8047, "lat": 49.741667, "lng": -112.739444, "type": 31, "city": "Lethbridge", "points": ""}, {"begin_at": 0, "area_id": 1194913, "name": "Wrong Lake Airport", "level": 0, "country": 124, "updated_at": 1455674299, "disable": 0, "end_at": 0, "shape": 0, "warning": 1, "radius": 8047, "lat": 52.615556, "lng": -96.185, "type": 31, "city": "", "points": ""}, {"begin_at": 0, "area_id": 1194919, "name": "Namur Lake", "level": 0, "country": 124, "updated_at": 1455674299, "disable": 0, "end_at": 0, "shape": 0, "warning": 1, "radius": 8047, "lat": 57.383333, "lng": -112.8, "type": 31, "city": "", "points": ""}, {"begin_at": 0, "area_id": 1194921, "name": "Neilburg", "level": 0, "country": 124, "updated_at": 1455674299, "disable": 0, "end_at": 0, "shape": 0, "warning": 1, "radius": 8047, "lat": 52.831389, "lng": -109.640278, "type": 31, "city": "Neilburg", "points": ""}, {"begin_at": 0, "area_id": 1194957, "name": "Outlook", "level": 0, "country": 124, "updated_at": 1455674299, "disable": 0, "end_at": 0, "shape": 0, "warning": 1, "radius": 8047, "lat": 51.4825, "lng": -107.036667, "type": 31, "city": "Outlook", "points": ""}, {"begin_at": 0, "area_id": 1194971, "name": "Pierrelatte", "level": 0, "country": 250, "updated_at": 1455674299, "disable": 0, "end_at": 0, "shape": 0, "warning": 1, "radius": 8047, "lat": 44.397778, "lng": 4.716944, "type": 31, "city": "Pierrelatte", "points": ""}, {"begin_at": 0, "area_id": 1194991, "name": "Riberac-Tourette", "level": 0, "country": 250, "updated_at": 1455674299, "disable": 0, "end_at": 0, "shape": 0, "warning": 1, "radius": 8047, "lat": 45.239444, "lng": 0.265833, "type": 31, "city": "Rib\u00e9rac", "points": ""}, {"begin_at": 0, "area_id": 1195031, "name": "Saint Rambert D'Albon", "level": 0, "country": 250, "updated_at": 1455674299, "disable": 0, "end_at": 0, "shape": 0, "warning": 1, "radius": 8047, "lat": 45.255, "lng": 4.824722, "type": 31, "city": "Andancette", "points": ""}, {"begin_at": 0, "area_id": 1195035, "name": "Saint Sulpice des Landes", "level": 0, "country": 250, "updated_at": 1455674299, "disable": 0, "end_at": 0, "shape": 0, "warning": 1, "radius": 8047, "lat": 47.791667, "lng": -1.643611, "type": 31, "city": "La Dominelais", "points": ""}, {"begin_at": 0, "area_id": 1195037, "name": "Vittefleur", "level": 0, "country": 250, "updated_at": 1455674299, "disable": 0, "end_at": 0, "shape": 0, "warning": 1, "radius": 8047, "lat": 49.835278, "lng": 0.655556, "type": 31, "city": "N\u00e9ville", "points": ""}, {"begin_at": 0, "area_id": 1195063, "name": "Neuhof", "level": 0, "country": 276, "updated_at": 1455674299, "disable": 0, "end_at": 0, "shape": 0, "warning": 1, "radius": 8047, "lat": 48.553611, "lng": 7.7775, "type": 31, "city": "Kehl", "points": ""}, {"begin_at": 0, "area_id": 1195127, "name": "Rimbey", "level": 0, "country": 124, "updated_at": 1455674299, "disable": 0, "end_at": 0, "shape": 0, "warning": 1, "radius": 8047, "lat": 52.681944, "lng": -114.2375, "type": 31, "city": "Rimbey", "points": ""}, {"begin_at": 0, "area_id": 1195187, "name": "Gargnas", "level": 0, "country": 752, "updated_at": 1455674299, "disable": 0, "end_at": 0, "shape": 0, "warning": 1, "radius": 8047, "lat": 65.305278, "lng": 17.975556, "type": 31, "city": "Gargn\u00e4s", "points": ""}, {"begin_at": 0, "area_id": 1195199, "name": "Hallefors", "level": 0, "country": 752, "updated_at": 1455674299, "disable": 0, "end_at": 0, "shape": 0, "warning": 1, "radius": 8047, "lat": 59.8675, "lng": 14.423611, "type": 31, "city": "H\u00e4llefors", "points": ""}, {"begin_at": 0, "area_id": 1195245, "name": "Rockglen", "level": 0, "country": 124, "updated_at": 1455674299, "disable": 0, "end_at": 0, "shape": 0, "warning": 1, "radius": 8047, "lat": 49.166667, "lng": -105.933333, "type": 31, "city": "Rockglen", "points": ""}, {"begin_at": 0, "area_id": 1195317, "name": "Selkirk", "level": 0, "country": 124, "updated_at": 1455674299, "disable": 0, "end_at": 0, "shape": 0, "warning": 1, "radius": 8047, "lat": 50.172222, "lng": -96.872222, "type": 31, "city": "Selkirk", "points": ""}, {"begin_at": 0, "area_id": 1195319, "name": "Balsam Lake", "level": 0, "country": 124, "updated_at": 1455674299, "disable": 0, "end_at": 0, "shape": 0, "warning": 1, "radius": 8047, "lat": 44.539889, "lng": -78.888633, "type": 31, "city": "Kirkfield", "points": ""}, {"begin_at": 0, "area_id": 1195335, "name": "Shellbrook", "level": 0, "country": 124, "updated_at": 1455674299, "disable": 0, "end_at": 0, "shape": 0, "warning": 1, "radius": 8047, "lat": 53.228333, "lng": -106.363056, "type": 31, "city": "Shellbrook", "points": ""}, {"begin_at": 0, "area_id": 1195349, "name": "Snow Lake", "level": 0, "country": 124, "updated_at": 1455674299, "disable": 0, "end_at": 0, "shape": 0, "warning": 1, "radius": 8047, "lat": 54.897222, "lng": -99.818889, "type": 31, "city": "Snow Lake", "points": ""}, {"begin_at": 0, "area_id": 1195455, "name": "Treherne", "level": 0, "country": 124, "updated_at": 1455674299, "disable": 0, "end_at": 0, "shape": 0, "warning": 1, "radius": 8047, "lat": 49.631111, "lng": -98.666389, "type": 31, "city": "Treherne", "points": ""}, {"begin_at": 0, "area_id": 1195459, "name": "Tsacha Lake", "level": 0, "country": 124, "updated_at": 1455674299, "disable": 0, "end_at": 0, "shape": 0, "warning": 1, "radius": 8047, "lat": 53.016667, "lng": -124.833333, "type": 31, "city": "", "points": ""}, {"begin_at": 0, "area_id": 1195547, "name": "Weymontachie", "level": 0, "country": 124, "updated_at": 1455674299, "disable": 0, "end_at": 0, "shape": 0, "warning": 1, "radius": 8047, "lat": 47.936944, "lng": -73.817222, "type": 31, "city": "", "points": ""}, {"begin_at": 0, "area_id": 1195555, "name": "Wiley", "level": 0, "country": 124, "updated_at": 1455674299, "disable": 0, "end_at": 0, "shape": 0, "warning": 1, "radius": 8047, "lat": 66.491111, "lng": -136.573333, "type": 31, "city": "", "points": ""}, {"begin_at": 0, "area_id": 1195777, "name": "Lake Cargelligo", "level": 0, "country": 36, "updated_at": 1455674299, "disable": 0, "end_at": 0, "shape": 0, "warning": 1, "radius": 8047, "lat": -33.278333, "lng": 146.37, "type": 31, "city": "Lake Cargelligo", "points": ""}, {"begin_at": 0, "area_id": 1195675, "name": "Manihiki", "level": 0, "country": 184, "updated_at": 1455674299, "disable": 0, "end_at": 0, "shape": 0, "warning": 1, "radius": 8047, "lat": -10.374472, "lng": -161.003356, "type": 31, "city": "Tukao", "points": ""}, {"begin_at": 0, "area_id": 1195689, "name": "Lensk", "level": 0, "country": 643, "updated_at": 1455674299, "disable": 0, "end_at": 0, "shape": 0, "warning": 1, "radius": 8047, "lat": 60.723611, "lng": 114.825278, "type": 31, "city": "Lensk", "points": ""}, {"begin_at": 0, "area_id": 1195731, "name": "Rockyford", "level": 0, "country": 124, "updated_at": 1455674299, "disable": 0, "end_at": 0, "shape": 0, "warning": 1, "radius": 8047, "lat": 51.259683, "lng": -113.113567, "type": 31, "city": "Rockyford", "points": ""}, {"begin_at": 0, "area_id": 1195857, "name": "Husafell", "level": 0, "country": 352, "updated_at": 1455674299, "disable": 0, "end_at": 0, "shape": 0, "warning": 1, "radius": 8047, "lat": 64.699722, "lng": -20.883611, "type": 31, "city": "", "points": ""}, {"begin_at": 0, "area_id": 1195891, "name": "Jegin Lug", "level": 0, "country": 70, "updated_at": 1455674299, "disable": 0, "end_at": 0, "shape": 0, "warning": 1, "radius": 8047, "lat": 44.4625, "lng": 18.812778, "type": 31, "city": "Toj\u0161i\u0107i", "points": ""}, {"begin_at": 0, "area_id": 1195929, "name": "Hadsund", "level": 0, "country": 208, "updated_at": 1455674299, "disable": 0, "end_at": 0, "shape": 0, "warning": 1, "radius": 8047, "lat": 56.755911, "lng": 10.228719, "type": 31, "city": "Hadsund", "points": ""}, {"begin_at": 0, "area_id": 1195977, "name": "ALESSANDRIA", "level": 0, "country": 380, "updated_at": 1455674299, "disable": 0, "end_at": 0, "shape": 0, "warning": 1, "radius": 8047, "lat": 44.925, "lng": 8.625278, "type": 31, "city": "Alessandria", "points": ""}, {"begin_at": 0, "area_id": 1195991, "name": "Kajjansi", "level": 0, "country": 800, "updated_at": 1455674299, "disable": 0, "end_at": 0, "shape": 0, "warning": 1, "radius": 8047, "lat": 0.2, "lng": 32.55, "type": 31, "city": "Kajansi", "points": ""}, {"begin_at": 0, "area_id": 1195997, "name": "Lira", "level": 0, "country": 800, "updated_at": 1455674299, "disable": 0, "end_at": 0, "shape": 0, "warning": 1, "radius": 8047, "lat": 2.25, "lng": 32.583333, "type": 31, "city": "Oyam", "points": ""}, {"begin_at": 0, "area_id": 1196005, "name": "Massa Cinquale", "level": 0, "country": 380, "updated_at": 1455674299, "disable": 0, "end_at": 0, "shape": 0, "warning": 1, "radius": 8047, "lat": 43.985833, "lng": 10.142778, "type": 31, "city": "Capanne-Prato-Cinquale", "points": ""}, {"begin_at": 0, "area_id": 1196023, "name": "Kahungulu", "level": 0, "country": 180, "updated_at": 1455674299, "disable": 0, "end_at": 0, "shape": 0, "warning": 1, "radius": 8047, "lat": -8.048611, "lng": 17.696111, "type": 31, "city": "", "points": ""}, {"begin_at": 0, "area_id": 1196037, "name": "Bakki", "level": 0, "country": 352, "updated_at": 1455674299, "disable": 0, "end_at": 0, "shape": 0, "warning": 1, "radius": 8047, "lat": 63.556111, "lng": -20.1375, "type": 31, "city": "", "points": ""}, {"begin_at": 0, "area_id": 1196049, "name": "Djupivogur", "level": 0, "country": 352, "updated_at": 1455674299, "disable": 0, "end_at": 0, "shape": 0, "warning": 1, "radius": 8047, "lat": 64.644167, "lng": -14.282778, "type": 31, "city": "Dj\u00fapivogur", "points": ""}, {"begin_at": 0, "area_id": 1196143, "name": "Ithwiesen", "level": 0, "country": 276, "updated_at": 1455674299, "disable": 0, "end_at": 0, "shape": 0, "warning": 1, "radius": 8047, "lat": 51.951333, "lng": 9.662167, "type": 31, "city": "Holzen", "points": ""}, {"begin_at": 0, "area_id": 1196151, "name": "Veliki Radinci", "level": 0, "country": 688, "updated_at": 1455674299, "disable": 0, "end_at": 0, "shape": 0, "warning": 1, "radius": 8047, "lat": 45.037381, "lng": 19.662558, "type": 31, "city": "Sremska Mitrovica", "points": ""}, {"begin_at": 0, "area_id": 1196201, "name": "Breclav", "level": 0, "country": 203, "updated_at": 1455674299, "disable": 0, "end_at": 0, "shape": 0, "warning": 1, "radius": 8047, "lat": 48.790833, "lng": 16.8925, "type": 31, "city": "B\u0159eclav", "points": ""}, {"begin_at": 0, "area_id": 1196211, "name": "Cheb", "level": 0, "country": 203, "updated_at": 1455674299, "disable": 0, "end_at": 0, "shape": 0, "warning": 1, "radius": 8047, "lat": 50.066389, "lng": 12.412778, "type": 31, "city": "Cheb", "points": ""}, {"begin_at": 0, "area_id": 1196261, "name": "Klatovy", "level": 0, "country": 203, "updated_at": 1455674299, "disable": 0, "end_at": 0, "shape": 0, "warning": 1, "radius": 8047, "lat": 49.418333, "lng": 13.321944, "type": 31, "city": "Klatovy", "points": ""}, {"begin_at": 0, "area_id": 1196273, "name": "Most", "level": 0, "country": 203, "updated_at": 1455674299, "disable": 0, "end_at": 0, "shape": 0, "warning": 1, "radius": 8047, "lat": 50.525, "lng": 13.683056, "type": 31, "city": "Bra\u0148any", "points": ""}, {"begin_at": 0, "area_id": 1196275, "name": "Marianske Lazne", "level": 0, "country": 203, "updated_at": 1455674299, "disable": 0, "end_at": 0, "shape": 0, "warning": 1, "radius": 8047, "lat": 49.922778, "lng": 12.724722, "type": 31, "city": "Chodov\u00e1 Plan\u00e1", "points": ""}, {"begin_at": 0, "area_id": 1196277, "name": "Nove Mesto", "level": 0, "country": 203, "updated_at": 1455674299, "disable": 0, "end_at": 0, "shape": 0, "warning": 1, "radius": 8047, "lat": 50.364167, "lng": 16.113611, "type": 31, "city": "Nov\u00e9 M\u011bsto nad Metuj\u00ed", "points": ""}, {"begin_at": 0, "area_id": 1196313, "name": "Sobeslav", "level": 0, "country": 203, "updated_at": 1455674299, "disable": 0, "end_at": 0, "shape": 0, "warning": 1, "radius": 8047, "lat": 49.246667, "lng": 14.713611, "type": 31, "city": "Sob\u011bslav", "points": ""}, {"begin_at": 0, "area_id": 1196373, "name": "Salgareda Aviosuperficie Carrer", "level": 0, "country": 380, "updated_at": 1455674299, "disable": 0, "end_at": 0, "shape": 0, "warning": 1, "radius": 8047, "lat": 45.703333, "lng": 12.536389, "type": 31, "city": "Talponada", "points": ""}, {"begin_at": 0, "area_id": 1196393, "name": "Sangaredi", "level": 0, "country": 324, "updated_at": 1455674299, "disable": 0, "end_at": 0, "shape": 0, "warning": 1, "radius": 8047, "lat": 11.110222, "lng": -13.818078, "type": 31, "city": "Sangar\u00e9di", "points": ""}, {"begin_at": 0, "area_id": 1196397, "name": "Colmar-Meyenheim", "level": 0, "country": 250, "updated_at": 1455674299, "disable": 0, "end_at": 0, "shape": 0, "warning": 1, "radius": 8047, "lat": 47.921978, "lng": 7.399669, "type": 31, "city": "Meyenheim", "points": ""}, {"begin_at": 0, "area_id": 1196401, "name": "Bretigny sur Orge", "level": 0, "country": 250, "updated_at": 1455674299, "disable": 0, "end_at": 0, "shape": 0, "warning": 1, "radius": 8047, "lat": 48.596111, "lng": 2.332222, "type": 31, "city": "Le Plessis-P\u00e2t\u00e9", "points": ""}, {"begin_at": 0, "area_id": 1196501, "name": "Panevezys", "level": 0, "country": 440, "updated_at": 1455674299, "disable": 0, "end_at": 0, "shape": 0, "warning": 1, "radius": 8047, "lat": 55.708889, "lng": 24.345278, "type": 31, "city": "Panev\u0117\u017eys", "points": ""}, {"begin_at": 0, "area_id": 1196547, "name": "Sandown", "level": 0, "country": 826, "updated_at": 1455674299, "disable": 0, "end_at": 0, "shape": 0, "warning": 1, "radius": 8047, "lat": 50.653056, "lng": -1.182222, "type": 31, "city": "Sandown", "points": ""}, {"begin_at": 0, "area_id": 1196687, "name": "Farthing Corner", "level": 0, "country": 826, "updated_at": 1455674299, "disable": 0, "end_at": 0, "shape": 0, "warning": 1, "radius": 8047, "lat": 51.3305, "lng": 0.601167, "type": 31, "city": "Rainham", "points": ""}, {"begin_at": 0, "area_id": 1196723, "name": "Fazenda Curitiba", "level": 0, "country": 76, "updated_at": 1455674299, "disable": 0, "end_at": 0, "shape": 0, "warning": 1, "radius": 8047, "lat": -13.701111, "lng": -45.606944, "type": 31, "city": "Correntina", "points": ""}, {"begin_at": 0, "area_id": 1196945, "name": "Hounde", "level": 0, "country": 854, "updated_at": 1455674299, "disable": 0, "end_at": 0, "shape": 0, "warning": 1, "radius": 8047, "lat": 11.483333, "lng": -3.516667, "type": 31, "city": "Hound\u00e9", "points": ""}, {"begin_at": 0, "area_id": 1197015, "name": "Tougan", "level": 0, "country": 854, "updated_at": 1455674299, "disable": 0, "end_at": 0, "shape": 0, "warning": 1, "radius": 8047, "lat": 13.066667, "lng": -3.066667, "type": 31, "city": "Tougan", "points": ""}, {"begin_at": 0, "area_id": 1197067, "name": "El Cerrito", "level": 0, "country": 188, "updated_at": 1455674299, "disable": 0, "end_at": 0, "shape": 0, "warning": 1, "radius": 8047, "lat": 10.480667, "lng": -85.533444, "type": 31, "city": "Bel\u00e9n", "points": ""}, {"begin_at": 0, "area_id": 1197081, "name": "Finca 63/Coto 63", "level": 0, "country": 188, "updated_at": 1455674299, "disable": 0, "end_at": 0, "shape": 0, "warning": 1, "radius": 8047, "lat": 8.652889, "lng": -83.06575, "type": 31, "city": "Golfito", "points": ""}, {"begin_at": 0, "area_id": 1197119, "name": "La Ligia", "level": 0, "country": 188, "updated_at": 1455674299, "disable": 0, "end_at": 0, "shape": 0, "warning": 1, "radius": 8047, "lat": 9.508972, "lng": -84.333194, "type": 31, "city": "Parrita", "points": ""}, {"begin_at": 0, "area_id": 1197125, "name": "Las Lomas", "level": 0, "country": 188, "updated_at": 1455674299, "disable": 0, "end_at": 0, "shape": 0, "warning": 1, "radius": 8047, "lat": 10.066667, "lng": -83.583333, "type": 31, "city": "Siquirres", "points": ""}, {"begin_at": 0, "area_id": 1197195, "name": "Sirena", "level": 0, "country": 188, "updated_at": 1455674299, "disable": 0, "end_at": 0, "shape": 0, "warning": 1, "radius": 8047, "lat": 8.483333, "lng": -83.583333, "type": 31, "city": "", "points": ""}, {"begin_at": 0, "area_id": 1197265, "name": "Moabi", "level": 0, "country": 266, "updated_at": 1455674299, "disable": 0, "end_at": 0, "shape": 0, "warning": 1, "radius": 8047, "lat": -2.433333, "lng": 11.0, "type": 31, "city": "Ndend\u00e9", "points": ""}, {"begin_at": 0, "area_id": 1197303, "name": "Morafenobe", "level": 0, "country": 450, "updated_at": 1455674299, "disable": 0, "end_at": 0, "shape": 0, "warning": 1, "radius": 8047, "lat": -17.850278, "lng": 44.920833, "type": 31, "city": "", "points": ""}, {"begin_at": 0, "area_id": 1197305, "name": "Tambohorano", "level": 0, "country": 450, "updated_at": 1455674299, "disable": 0, "end_at": 0, "shape": 0, "warning": 1, "radius": 8047, "lat": -17.483333, "lng": 43.966667, "type": 31, "city": "", "points": ""}, {"begin_at": 0, "area_id": 1197405, "name": "Skalavatn", "level": 0, "country": 352, "updated_at": 1455674299, "disable": 0, "end_at": 0, "shape": 0, "warning": 1, "radius": 8047, "lat": 64.115833, "lng": -18.783333, "type": 31, "city": "", "points": ""}, {"begin_at": 0, "area_id": 1197451, "name": "Pauanui Beach", "level": 0, "country": 554, "updated_at": 1455674299, "disable": 0, "end_at": 0, "shape": 0, "warning": 1, "radius": 8047, "lat": -37.021667, "lng": 175.863611, "type": 31, "city": "Tairua", "points": ""}, {"begin_at": 0, "area_id": 1197459, "name": "Gubasevo", "level": 0, "country": 191, "updated_at": 1455674299, "disable": 0, "end_at": 0, "shape": 0, "warning": 1, "radius": 8047, "lat": 46.012772, "lng": 15.860128, "type": 31, "city": "Oroslavje", "points": ""}, {"begin_at": 0, "area_id": 1197465, "name": "Roxburgh", "level": 0, "country": 554, "updated_at": 1455674299, "disable": 0, "end_at": 0, "shape": 0, "warning": 1, "radius": 8047, "lat": -45.511667, "lng": 169.316667, "type": 31, "city": "Roxburgh East", "points": ""}, {"begin_at": 0, "area_id": 1197469, "name": "Te Kowhai", "level": 0, "country": 554, "updated_at": 1455674299, "disable": 0, "end_at": 0, "shape": 0, "warning": 1, "radius": 8047, "lat": -37.745, "lng": 175.158611, "type": 31, "city": "Ngaruawahia", "points": ""}, {"begin_at": 0, "area_id": 1197471, "name": "Turangi", "level": 0, "country": 554, "updated_at": 1455674299, "disable": 0, "end_at": 0, "shape": 0, "warning": 1, "radius": 8047, "lat": -38.968333, "lng": 175.813611, "type": 31, "city": "Turangi", "points": ""}, {"begin_at": 0, "area_id": 1197585, "name": "Coatepeque", "level": 0, "country": 320, "updated_at": 1455674299, "disable": 0, "end_at": 0, "shape": 0, "warning": 1, "radius": 8047, "lat": 14.694722, "lng": -91.881389, "type": 31, "city": "Coatepeque", "points": ""}, {"begin_at": 0, "area_id": 1197615, "name": "La Libertad", "level": 0, "country": 320, "updated_at": 1455674299, "disable": 0, "end_at": 0, "shape": 0, "warning": 1, "radius": 8047, "lat": 16.748889, "lng": -90.142222, "type": 31, "city": "La Libertad", "points": ""}, {"begin_at": 0, "area_id": 1197653, "name": "Harding", "level": 0, "country": 710, "updated_at": 1455674299, "disable": 0, "end_at": 0, "shape": 0, "warning": 1, "radius": 8047, "lat": -30.566667, "lng": 29.883333, "type": 31, "city": "Harding", "points": ""}, {"begin_at": 0, "area_id": 1197783, "name": "Linzhi", "level": 0, "country": 156, "updated_at": 1455674299, "disable": 0, "end_at": 0, "shape": 0, "warning": 1, "radius": 8047, "lat": 29.303692, "lng": 94.335092, "type": 31, "city": "Mainling", "points": ""}, {"begin_at": 0, "area_id": 1197843, "name": "Choma", "level": 0, "country": 894, "updated_at": 1455674299, "disable": 0, "end_at": 0, "shape": 0, "warning": 1, "radius": 8047, "lat": -16.783333, "lng": 27.0, "type": 31, "city": "Choma", "points": ""}, {"begin_at": 0, "area_id": 1197847, "name": "East Three", "level": 0, "country": 894, "updated_at": 1455674299, "disable": 0, "end_at": 0, "shape": 0, "warning": 1, "radius": 8047, "lat": -14.066667, "lng": 30.083333, "type": 31, "city": "", "points": ""}, {"begin_at": 0, "area_id": 1197903, "name": "Namwala", "level": 0, "country": 894, "updated_at": 1455674299, "disable": 0, "end_at": 0, "shape": 0, "warning": 1, "radius": 8047, "lat": -15.765, "lng": 26.431667, "type": 31, "city": "Namwala", "points": ""}, {"begin_at": 0, "area_id": 1197905, "name": "Ngoma", "level": 0, "country": 894, "updated_at": 1455674299, "disable": 0, "end_at": 0, "shape": 0, "warning": 1, "radius": 8047, "lat": -15.966667, "lng": 25.933333, "type": 31, "city": "", "points": ""}, {"begin_at": 0, "area_id": 1197907, "name": "Nyimba", "level": 0, "country": 894, "updated_at": 1455674299, "disable": 0, "end_at": 0, "shape": 0, "warning": 1, "radius": 8047, "lat": -14.566667, "lng": 30.85, "type": 31, "city": "Nyimba", "points": ""}, {"begin_at": 0, "area_id": 1197909, "name": "Petauke", "level": 0, "country": 894, "updated_at": 1455674299, "disable": 0, "end_at": 0, "shape": 0, "warning": 1, "radius": 8047, "lat": -14.2, "lng": 31.216667, "type": 31, "city": "Petauke", "points": ""}, {"begin_at": 0, "area_id": 1197917, "name": "Samfya", "level": 0, "country": 894, "updated_at": 1455674299, "disable": 0, "end_at": 0, "shape": 0, "warning": 1, "radius": 8047, "lat": -11.36, "lng": 29.543333, "type": 31, "city": "Samfya", "points": ""}, {"begin_at": 0, "area_id": 1198007, "name": "Nkamba Bay", "level": 0, "country": 894, "updated_at": 1455674299, "disable": 0, "end_at": 0, "shape": 0, "warning": 1, "radius": 8047, "lat": -8.6, "lng": 30.533333, "type": 31, "city": "", "points": ""}, {"begin_at": 0, "area_id": 1198017, "name": "Balclutha", "level": 0, "country": 554, "updated_at": 1455674299, "disable": 0, "end_at": 0, "shape": 0, "warning": 1, "radius": 8047, "lat": -46.243333, "lng": 169.75, "type": 31, "city": "Balclutha", "points": ""}, {"begin_at": 0, "area_id": 1198025, "name": "Kenge", "level": 0, "country": 180, "updated_at": 1455674299, "disable": 0, "end_at": 0, "shape": 0, "warning": 1, "radius": 8047, "lat": -4.833333, "lng": 17.033333, "type": 31, "city": "Kenge", "points": ""}, {"begin_at": 0, "area_id": 1198039, "name": "Big Bend", "level": 0, "country": 748, "updated_at": 1455674299, "disable": 0, "end_at": 0, "shape": 0, "warning": 1, "radius": 8047, "lat": -26.866667, "lng": 31.933333, "type": 31, "city": "Big Bend", "points": ""}, {"begin_at": 0, "area_id": 1198195, "name": "Kisima", "level": 0, "country": 404, "updated_at": 1455674299, "disable": 0, "end_at": 0, "shape": 0, "warning": 1, "radius": 8047, "lat": 0.947222, "lng": 36.802239, "type": 31, "city": "Kisima", "points": ""}, {"begin_at": 0, "area_id": 1198227, "name": "Fox-3", "level": 0, "country": 434, "updated_at": 1455674299, "disable": 0, "end_at": 0, "shape": 0, "warning": 1, "radius": 8047, "lat": 29.283333, "lng": 21.15, "type": 31, "city": "", "points": ""}, {"begin_at": 0, "area_id": 1198433, "name": "Apala", "level": 0, "country": 340, "updated_at": 1455674299, "disable": 0, "end_at": 0, "shape": 0, "warning": 1, "radius": 8047, "lat": 14.010833, "lng": -86.389167, "type": 31, "city": "Jutiapa", "points": ""}, {"begin_at": 0, "area_id": 1198461, "name": "La Joya", "level": 0, "country": 340, "updated_at": 1455674299, "disable": 0, "end_at": 0, "shape": 0, "warning": 1, "radius": 8047, "lat": 14.804722, "lng": -86.919167, "type": 31, "city": "", "points": ""}, {"begin_at": 0, "area_id": 1198513, "name": "Wampusirpi 1", "level": 0, "country": 340, "updated_at": 1455674299, "disable": 0, "end_at": 0, "shape": 0, "warning": 1, "radius": 8047, "lat": 15.160278, "lng": -84.617222, "type": 31, "city": "", "points": ""}, {"begin_at": 0, "area_id": 1198521, "name": "Warunta", "level": 0, "country": 340, "updated_at": 1455674299, "disable": 0, "end_at": 0, "shape": 0, "warning": 1, "radius": 8047, "lat": 15.348611, "lng": -84.234444, "type": 31, "city": "", "points": ""}, {"begin_at": 0, "area_id": 1198557, "name": "La Union", "level": 0, "country": 340, "updated_at": 1455674299, "disable": 0, "end_at": 0, "shape": 0, "warning": 1, "radius": 8047, "lat": 14.808056, "lng": -88.42, "type": 31, "city": "La Uni\u00f3n", "points": ""}, {"begin_at": 0, "area_id": 1198559, "name": "Mapulaca", "level": 0, "country": 340, "updated_at": 1455674299, "disable": 0, "end_at": 0, "shape": 0, "warning": 1, "radius": 8047, "lat": 14.034167, "lng": -88.628333, "type": 31, "city": "La Virtud", "points": ""}, {"begin_at": 0, "area_id": 1198569, "name": "Carta", "level": 0, "country": 340, "updated_at": 1455674299, "disable": 0, "end_at": 0, "shape": 0, "warning": 1, "radius": 8047, "lat": 15.031944, "lng": -86.6925, "type": 31, "city": "Mangulile", "points": ""}, {"begin_at": 0, "area_id": 1198689, "name": "Betroka", "level": 0, "country": 450, "updated_at": 1455674299, "disable": 0, "end_at": 0, "shape": 0, "warning": 1, "radius": 8047, "lat": -23.274444, "lng": 46.125, "type": 31, "city": "", "points": ""}, {"begin_at": 0, "area_id": 1198705, "name": "Flying R Ranch", "level": 0, "country": 124, "updated_at": 1455674299, "disable": 0, "end_at": 0, "shape": 0, "warning": 1, "radius": 8047, "lat": 50.644936, "lng": -114.202942, "type": 31, "city": "Black Diamond", "points": ""}, {"begin_at": 0, "area_id": 1198729, "name": "Aiwah", "level": 0, "country": 887, "updated_at": 1455674299, "disable": 0, "end_at": 0, "shape": 0, "warning": 1, "radius": 8047, "lat": 18.283333, "lng": 50.783333, "type": 31, "city": "", "points": ""}, {"begin_at": 0, "area_id": 1198739, "name": "Al-Khashaa", "level": 0, "country": 887, "updated_at": 1455674299, "disable": 0, "end_at": 0, "shape": 0, "warning": 1, "radius": 8047, "lat": 15.866667, "lng": 48.083333, "type": 31, "city": "", "points": ""}, {"begin_at": 0, "area_id": 1198767, "name": "Chaurijhari", "level": 0, "country": 524, "updated_at": 1455674299, "disable": 0, "end_at": 0, "shape": 0, "warning": 1, "radius": 8047, "lat": 28.627222, "lng": 82.193333, "type": 31, "city": "Bijayashwari", "points": ""}, {"begin_at": 0, "area_id": 1198821, "name": "Ulu Bernam", "level": 0, "country": 458, "updated_at": 1455674299, "disable": 0, "end_at": 0, "shape": 0, "warning": 1, "radius": 8047, "lat": 3.749722, "lng": 101.168056, "type": 31, "city": "Sabak Bernam", "points": ""}, {"begin_at": 0, "area_id": 1199067, "name": "Curacavi", "level": 0, "country": 152, "updated_at": 1455674299, "disable": 0, "end_at": 0, "shape": 0, "warning": 1, "radius": 8047, "lat": -33.4125, "lng": -71.165556, "type": 31, "city": "", "points": ""}, {"begin_at": 0, "area_id": 1199085, "name": "Bella Union", "level": 0, "country": 858, "updated_at": 1455674299, "disable": 0, "end_at": 0, "shape": 0, "warning": 1, "radius": 8047, "lat": -30.316667, "lng": -57.55, "type": 31, "city": "Las Piedras", "points": ""}, {"begin_at": 0, "area_id": 1199093, "name": "Chuy", "level": 0, "country": 858, "updated_at": 1455674299, "disable": 0, "end_at": 0, "shape": 0, "warning": 1, "radius": 8047, "lat": -33.716667, "lng": -53.466667, "type": 31, "city": "Chuy", "points": ""}, {"begin_at": 0, "area_id": 1199121, "name": "Fachinal", "level": 0, "country": 152, "updated_at": 1455674299, "disable": 0, "end_at": 0, "shape": 0, "warning": 1, "radius": 8047, "lat": -46.548889, "lng": -72.22, "type": 31, "city": "Chile Chico", "points": ""}, {"begin_at": 0, "area_id": 1199127, "name": "Frutillar", "level": 0, "country": 152, "updated_at": 1455674299, "disable": 0, "end_at": 0, "shape": 0, "warning": 1, "radius": 8047, "lat": -41.130833, "lng": -73.064722, "type": 31, "city": "Frutillar", "points": ""}, {"begin_at": 0, "area_id": 1199137, "name": "Tomas Gomensoro", "level": 0, "country": 858, "updated_at": 1455674299, "disable": 0, "end_at": 0, "shape": 0, "warning": 1, "radius": 8047, "lat": -30.433333, "lng": -57.466667, "type": 31, "city": "Tom\u00e1s Gomensoro", "points": ""}, {"begin_at": 0, "area_id": 1199139, "name": "Trinidad", "level": 0, "country": 858, "updated_at": 1455674299, "disable": 0, "end_at": 0, "shape": 0, "warning": 1, "radius": 8047, "lat": -33.483333, "lng": -56.866667, "type": 31, "city": "Trinidad", "points": ""}, {"begin_at": 0, "area_id": 1199177, "name": "Altagracia de Orituco", "level": 0, "country": 862, "updated_at": 1455674299, "disable": 0, "end_at": 0, "shape": 0, "warning": 1, "radius": 8047, "lat": 9.85, "lng": -66.383333, "type": 31, "city": "Altagracia de Orituco", "points": ""}, {"begin_at": 0, "area_id": 1199285, "name": "La Junta", "level": 0, "country": 152, "updated_at": 1455674299, "disable": 0, "end_at": 0, "shape": 0, "warning": 1, "radius": 8047, "lat": -43.975278, "lng": -72.413056, "type": 31, "city": "La Junta", "points": ""}, {"begin_at": 0, "area_id": 1199335, "name": "San Rafael", "level": 0, "country": 152, "updated_at": 1455674299, "disable": 0, "end_at": 0, "shape": 0, "warning": 1, "radius": 8047, "lat": -32.814167, "lng": -70.646667, "type": 31, "city": "Los Andes", "points": ""}, {"begin_at": 0, "area_id": 1199431, "name": "Puerto Cisnes", "level": 0, "country": 152, "updated_at": 1455674299, "disable": 0, "end_at": 0, "shape": 0, "warning": 1, "radius": 8047, "lat": -44.758611, "lng": -72.698056, "type": 31, "city": "Puerto Cisnes", "points": ""}, {"begin_at": 0, "area_id": 1199435, "name": "Puerto Marin Balmaceda", "level": 0, "country": 152, "updated_at": 1455674299, "disable": 0, "end_at": 0, "shape": 0, "warning": 1, "radius": 8047, "lat": -43.786389, "lng": -72.950278, "type": 31, "city": "", "points": ""}, {"begin_at": 0, "area_id": 1199533, "name": "Rio Murta", "level": 0, "country": 152, "updated_at": 1455674299, "disable": 0, "end_at": 0, "shape": 0, "warning": 1, "radius": 8047, "lat": -46.456667, "lng": -72.676944, "type": 31, "city": "Chile Chico", "points": ""}, {"begin_at": 0, "area_id": 1199577, "name": "Entre Rios", "level": 0, "country": 152, "updated_at": 1455674299, "disable": 0, "end_at": 0, "shape": 0, "warning": 1, "radius": 8047, "lat": -33.718333, "lng": -70.995833, "type": 31, "city": "El Monte", "points": ""}, {"begin_at": 0, "area_id": 1200087, "name": "Palmarito", "level": 0, "country": 862, "updated_at": 1455674299, "disable": 0, "end_at": 0, "shape": 0, "warning": 1, "radius": 8047, "lat": 7.566667, "lng": -70.183333, "type": 31, "city": "Maporal", "points": ""},